     3.02           OBSERVATION DATA    G                   RINEX VERSION / TYPE
G = GPS  R = GLONASS  E = GALILEO  S = GEO  M = MIXED       COMMENT             
GNSS-SDR            suhjw               20250728 065830 UTC PGM / RUN BY / DATE 
GPS OBSERVATION DATA FILE GENERATED BY GNSS-SDR             COMMENT             
GNSS-SDR VERSION 0.0.20                                     COMMENT             
See https://gnss-sdr.org                                    COMMENT             
DEFAULT MARKER NAME                                         MARKER NAME         
suhjw               CTTC                                    OBSERVER / AGENCY   
GNSS-SDR            Software Receiver   0.0.20              REC # / TYPE / VERS 
Antenna number      Antenna type                            ANT # / TYPE        
        0.0000        0.0000        0.0000                  APPROX POSITION XYZ 
        0.0000        0.0000        0.0000                  ANTENNA: DELTA H/E/N
G    4 C1C L1C D1C S1C                                      SYS / # / OBS TYPES 
DBHZ                                                        SIGNAL STRENGTH UNIT
  2025    07    28    06    58   48.1200000     GPS         TIME OF FIRST OBS   
                                                            END OF HEADER       
> 2025 07 28 06 58 49.0000000  0  5                                             
G05  26616805.691 7 139872254.314 7     -2961.846 7        47.853               
G13  26379178.456 6 138623519.393 6     -2859.735 6        41.757               
G15  23895959.624 7 125574125.001 7     -1378.176 7        46.334               
G23  24396108.060 7 128202417.402 7      2154.778 7        44.594               
G24  23389612.165 7 122913224.730 7       957.666 7        46.246               
> 2025 07 28 06 58 50.0000000  0  5                                             
G05  26617369.673 8 139875217.353 8     -2964.241 8        48.193               
G13  26379722.412 6 138626378.414 6     -2864.823 6        41.791               
G15  23896221.874 7 125575501.277 7     -1376.598 7        47.079               
G23  24395703.157 7 128200261.196 7      2158.105 7        44.695               
G24  23389429.204 7 122912267.491 7       956.888 7        46.628               
> 2025 07 28 06 58 51.0000000  0  5                                             
G05  26617932.279 7 139878180.686 7     -2964.691 7        47.835               
G13  26380260.993 7 138629237.508 7     -2856.804 7        42.008               
G15  23896482.525 7 125576877.875 7     -1380.522 7        46.832               
G23  24395291.999 7 128198105.339 7      2156.136 7        44.095               
G24  23389244.765 7 122911310.942 7       959.230 7        46.877               
> 2025 07 28 06 58 52.0000000  0  5                                             
G05  26618494.841 8 139881144.223 8     -2964.081 8        48.237               
G13  26380804.032 7 138632096.564 7     -2861.063 7        42.028               
G15  23896742.216 7 125578254.674 7     -1372.963 7        46.271               
G23  24394881.423 7 128195949.668 7      2157.936 7        44.897               
G24  23389060.204 7 122910354.995 7       955.283 7        46.705               
> 2025 07 28 06 58 53.0000000  0  5                                             
G05  26619057.791 7 139884108.051 7     -2965.213 7        47.683               
G13  26381345.366 7 138634955.674 7     -2853.628 7        42.169               
G15  23897004.582 7 125579631.785 7     -1373.835 7        46.302               
G23  24394472.187 7 128193794.359 7      2150.781 7        44.654               
G24  23388877.266 7 122909399.739 7       957.951 7        46.226               
> 2025 07 28 06 58 54.0000000  0  5                                             
G05  26619622.506 7 139887072.081 7     -2965.338 7        47.461               
G13  26381883.080 6 138637814.790 6     -2859.268 6        41.648               
G15  23897265.506 7 125581009.123 7     -1380.872 7        46.131               
G23  24394061.029 7 128191639.266 7      2158.995 7        44.860               
G24  23388694.877 7 122908445.125 7       953.144 7        45.817               
> 2025 07 28 06 58 55.0000000  0  5                                             
G05  26620186.390 7 139890036.403 7     -2962.591 7        47.086               
G13  26382431.123 6 138640673.926 6     -2859.435 6        41.766               
G15  23897528.091 7 125582386.740 7     -1379.846 7        46.328               
G23  24393652.905 7 128189484.490 7      2155.299 7        44.289               
G24  23388516.785 7 122907491.170 7       951.621 7        46.161               
> 2025 07 28 06 58 56.0000000  0  5                                             
G05  26620749.742 7 139893000.969 7     -2963.698 7        47.011               
G13  26382972.608 6 138643533.105 6     -2864.721 6        41.515               
G15  23897794.112 7 125583764.618 7     -1378.032 7        46.347               
G23  24393239.085 7 128187329.996 7      2153.072 7        44.915               
G24  23388337.452 7 122906537.898 7       951.973 7        46.888               
> 2025 07 28 06 58 57.0000000  0  5                                             
G05  26621310.963 7 139895965.842 7     -2964.751 7        47.033               
G13  26383517.193 6 138646392.317 6     -2855.291 6        41.192               
G15  23898058.256 7 125585142.813 7     -1374.546 7        46.691               
G23  24392833.901 7 128185175.825 7      2156.591 7        44.913               
G24  23388150.412 7 122905585.310 7       951.925 7        46.372               
> 2025 07 28 06 58 58.0000000  0  5                                             
G05  26621876.008 7 139898930.954 7     -2965.762 7        47.517               
G13  26384066.760 6 138649251.579 6     -2857.284 6        41.919               
G15  23898321.476 7 125586521.280 7     -1381.191 7        46.446               
G23  24392420.045 7 128183021.959 7      2149.706 7        45.155               
G24  23387970.578 7 122904633.379 7       952.708 7        45.876               
> 2025 07 28 06 58 59.0000000  0  5                                             
G05  26622442.224 7 139901896.294 7     -2963.611 7        47.534               
G13  26384615.727 7 138652110.815 7     -2861.740 7        42.249               
G15  23898582.140 7 125587899.969 7     -1381.687 7        46.444               
G23  24392012.766 7 128180868.332 7      2154.927 7        45.521               
G24  23387787.935 7 122903682.082 7       948.157 7        45.835               
> 2025 07 28 06 59 00.0000000  0  5                                             
G05  26623010.571 7 139904861.923 7     -2966.004 7        47.181               
G13  26385156.596 7 138654970.091 7     -2860.731 7        42.297               
G15  23898846.231 7 125589278.953 7     -1381.223 7        46.443               
G23  24391606.473 7 128178715.011 7      2152.525 7        45.401               
G24  23387607.609 7 122902731.466 7       950.984 7        45.681               
> 2025 07 28 06 59 01.0000000  0  5                                             
G05  26623571.797 7 139907827.839 7     -2964.974 7        47.646               
G13  26385700.605 7 138657829.447 7     -2860.408 7        42.731               
G15  23899109.978 7 125590658.239 7     -1379.095 7        46.669               
G23  24391196.486 7 128176562.015 7      2155.309 7        45.374               
G24  23387427.020 7 122901781.562 7       951.769 7        45.805               
> 2025 07 28 06 59 02.0000000  0  5                                             
G05  26624134.756 7 139910794.012 7     -2967.491 7        47.481               
G13  26386247.066 7 138660688.813 7     -2859.324 7        42.189               
G15  23899367.970 7 125592037.776 7     -1378.049 7        46.082               
G23  24390785.284 7 128174409.306 7      2151.751 7        45.292               
G24  23387246.307 7 122900832.300 7       952.405 7        45.839               
> 2025 07 28 06 59 03.0000000  0  5                                             
G05  26624699.962 7 139913760.465 7     -2967.575 7        47.684               
G13  26386786.760 7 138663548.242 7     -2864.723 7        42.470               
G15  23899632.204 7 125593417.620 7     -1379.354 7        45.717               
G23  24390374.351 7 128172256.899 7      2152.715 7        44.812               
G24  23387067.683 7 122899883.732 7       944.640 7        46.376               
> 2025 07 28 06 59 04.0000000  0  5                                             
G05  26625262.121 7 139916727.184 7     -2967.145 7        47.320               
G13  26387331.207 7 138666407.708 7     -2857.362 7        42.078               
G15  23899893.699 7 125594797.751 7     -1379.618 7        46.496               
G23  24389959.981 7 128170104.807 7      2150.891 7        45.355               
G24  23386887.211 7 122898935.836 7       951.733 7        45.930               
> 2025 07 28 06 59 05.0000000  0  5                                             
G05  26625830.816 7 139919694.223 7     -2967.955 7        47.395               
G13  26387869.627 7 138669267.240 7     -2862.418 7        42.076               
G15  23900157.433 7 125596178.199 7     -1379.244 7        46.576               
G23  24389556.079 7 128167953.061 7      2148.665 7        44.776               
G24  23386706.296 7 122897988.672 7       953.033 7        46.200               
> 2025 07 28 06 59 06.0000000  0  5                                             
G05  26626395.335 7 139922661.453 7     -2966.659 7        47.489               
G13  26388414.409 6 138672126.751 6     -2863.086 6        41.869               
G15  23900416.829 7 125597558.854 7     -1381.718 7        46.268               
G23  24389146.789 7 128165801.538 7      2148.479 7        44.945               
G24  23386524.505 7 122897042.100 7       943.287 7        46.376               
> 2025 07 28 06 59 07.0000000  0  5                                             
G05  26626958.785 7 139925628.942 7     -2969.947 7        47.329               
G13  26388960.696 6 138674986.266 6     -2860.750 6        41.832               
G15  23900679.619 7 125598939.779 7     -1380.301 7        46.050               
G23  24388736.413 7 128163650.298 7      2151.957 7        45.068               
G24  23386345.752 7 122896096.182 7       947.471 7        45.809               
> 2025 07 28 06 59 08.0000000  0  5                                             
G05  26627523.862 7 139928596.646 7     -2967.181 7        47.426               
G13  26389507.395 7 138677845.780 7     -2857.134 7        42.335               
G15  23900941.744 7 125600320.932 7     -1382.540 7        46.482               
G23  24388327.816 7 128161499.298 7      2150.526 7        45.407               
G24  23386166.522 7 122895150.892 7       941.449 7        45.057               
> 2025 07 28 06 59 09.0000000  0  5                                             
G05  26628090.439 7 139931564.583 7     -2966.684 7        47.132               
G13  26390048.344 7 138680705.307 7     -2862.777 7        42.693               
G15  23901204.066 7 125601702.333 7     -1381.210 7        46.391               
G23  24387918.620 7 128159348.577 7      2149.543 7        45.862               
G24  23385986.983 7 122894206.237 7       943.043 7        45.646               
> 2025 07 28 06 59 10.0000000  0  5                                             
G05  26628653.447 7 139934532.788 7     -2968.274 7        47.286               
G13  26390597.682 7 138683564.871 7     -2860.675 7        42.597               
G15  23901467.456 7 125603084.016 7     -1386.929 7        46.234               
G23  24387508.749 7 128157198.172 7      2146.710 7        45.699               
G24  23385809.655 7 122893262.265 7       939.839 7        46.889               
> 2025 07 28 06 59 11.0000000  0  5                                             
G05  26629218.680 7 139937501.296 7     -2970.176 7        47.289               
G13  26391142.928 7 138686424.503 7     -2859.709 7        42.306               
G15  23901727.106 7 125604466.012 7     -1385.306 7        45.985               
G23  24387100.495 7 128155048.068 7      2153.642 7        45.498               
G24  23385628.825 7 122892319.015 7       942.807 7        46.435               
> 2025 07 28 06 59 12.0000000  0  6                                             
G05  26629782.716 7 139940470.070 7     -2970.872 7        47.586               
G13  26391693.683 7 138689284.151 7     -2861.061 7        42.777               
G14  28385354.446 7 149166038.317 7      -956.363 7        43.639               
G15  23901995.391 7 125605848.287 7     -1381.092 7        45.943               
G23  24386694.136 7 128152898.282 7      2148.193 7        45.390               
G24  23385449.902 7 122891376.426 7       942.093 7        46.101               
> 2025 07 28 06 59 13.0000000  0  6                                             
G05  26630350.165 7 139943439.090 7     -2970.813 7        47.136               
G13  26392236.053 7 138692143.803 7     -2860.004 7        42.592               
G14  28385531.171 7 149166993.877 7      -951.402 7        43.009               
G15  23902256.132 7 125607230.821 7     -1381.152 7        45.926               
G23  24386282.384 7 128150748.758 7      2151.221 7        45.232               
G24  23385267.536 7 122890434.475 7       940.103 7        45.517               
> 2025 07 28 06 59 14.0000000  0  6                                             
G05  26630912.141 7 139946408.316 7     -2971.038 7        47.657               
G13  26392779.923 7 138695003.462 7     -2859.996 7        42.700               
G14  28385706.345 6 149167949.911 6      -952.270 6        41.955               
G15  23902522.139 7 125608613.584 7     -1380.549 7        45.738               
G23  24385877.298 7 128148599.495 7      2149.766 7        45.422               
G24  23385087.335 7 122889493.164 7       938.259 7        45.536               
> 2025 07 28 06 59 15.0000000  0  6                                             
G05  26631478.343 7 139949377.864 7     -2968.295 7        47.868               
G13  26393323.320 7 138697863.189 7     -2858.099 7        43.561               
G14  28385887.604 7 149168906.518 7      -953.287 7        42.214               
G15  23902782.611 7 125609996.666 7     -1381.421 7        45.510               
G23  24385461.750 7 128146450.577 7      2142.016 7        45.137               
G24  23384907.551 7 122888552.556 7       942.634 7        44.905               
> 2025 07 28 06 59 16.0000000  0  6                                             
G05  26632044.957 7 139952347.635 7     -2971.095 7        47.878               
G13  26393868.254 7 138700722.907 7     -2857.546 7        42.859               
G14  28386071.896 7 149169863.602 7      -955.594 7        42.204               
G15  23903047.131 7 125611380.002 7     -1385.223 7        45.510               
G23  24385053.728 7 128144301.909 7      2143.838 7        44.770               
G24  23384734.757 7 122887612.587 7       939.171 7        45.517               
> 2025 07 28 06 59 17.0000000  0  6                                             
G05  26632607.326 7 139955317.679 7     -2970.954 7        47.377               
G13  26394408.550 7 138703582.731 7     -2862.563 7        42.960               
G14  28386256.130 7 149170821.232 7      -960.009 7        42.345               
G15  23903310.181 7 125612763.615 7     -1389.247 7        44.901               
G23  24384647.387 7 128142153.556 7      2148.226 7        45.264               
G24  23384555.187 7 122886673.320 7       939.681 7        46.156               
> 2025 07 28 06 59 18.0000000  0  6                                             
G05  26633172.640 7 139958287.973 7     -2968.863 7        47.686               
G13  26394952.948 7 138706442.542 7     -2858.336 7        42.963               
G14  28386443.304 7 149171779.355 7      -956.854 7        42.610               
G15  23903574.924 7 125614147.495 7     -1389.821 7        46.033               
G23  24384235.885 7 128140005.498 7      2149.308 7        45.570               
G24  23384378.449 7 122885734.688 7       938.526 7        45.893               
> 2025 07 28 06 59 19.0000000  0  6                                             
G05  26633739.820 7 139961258.535 7     -2970.856 7        47.952               
G13  26395495.501 7 138709302.378 7     -2861.662 7        42.943               
G14  28386626.033 7 149172738.006 7      -956.548 7        42.940               
G15  23903835.977 7 125615531.661 7     -1381.864 7        46.136               
G23  24383826.591 7 128137857.720 7      2149.658 7        45.832               
G24  23384197.941 7 122884796.759 7       930.128 7        46.729               
> 2025 07 28 06 59 20.0000000  0  6                                             
G05  26634308.408 8 139964229.374 8     -2969.356 8        48.231               
G13  26396036.182 7 138712162.266 7     -2857.995 7        42.942               
G14  28386815.127 7 149173697.228 7      -954.572 7        42.897               
G15  23904102.891 7 125616916.101 7     -1383.487 7        45.627               
G23  24383419.079 7 128135710.281 7      2143.658 7        45.169               
G24  23384018.495 7 122883859.491 7       937.213 7        46.136               
> 2025 07 28 06 59 21.0000000  0  6                                             
G05  26634873.525 8 139967200.459 8     -2968.473 8        48.563               
G13  26396581.200 7 138715022.171 7     -2861.011 7        43.110               
G14  28386999.178 7 149174656.916 7      -958.496 7        43.683               
G15  23904364.029 7 125618300.816 7     -1384.888 7        45.913               
G23  24383009.213 7 128133563.099 7      2146.072 7        45.718               
G24  23383839.131 7 122882922.874 7       937.001 7        45.783               
> 2025 07 28 06 59 22.0000000  0  6                                             
G05  26635436.569 8 139970171.798 8     -2974.765 8        48.473               
G13  26397128.278 7 138717882.104 7     -2860.369 7        43.268               
G14  28387181.339 7 149175617.148 7      -957.244 7        43.061               
G15  23904629.924 7 125619685.780 7     -1384.957 7        45.610               
G23  24382599.945 7 128131416.225 7      2147.820 7        44.842               
G24  23383661.477 7 122881986.913 7       938.550 7        46.233               
> 2025 07 28 06 59 23.0000000  0  6                                             
G05  26636001.150 8 139973143.376 8     -2968.998 8        48.621               
G13  26397673.015 7 138720742.042 7     -2856.374 7        42.995               
G14  28387360.400 7 149176577.862 7      -958.200 7        42.767               
G15  23904889.735 7 125621071.019 7     -1382.222 7        45.955               
G23  24382191.955 7 128129269.599 7      2146.010 7        44.825               
G24  23383484.707 7 122881051.617 7       933.924 7        46.055               
> 2025 07 28 06 59 24.0000000  0  6                                             
G05  26636567.428 8 139976115.244 8     -2972.924 8        48.002               
G13  26398219.544 7 138723602.026 7     -2861.252 7        43.133               
G14  28387541.119 7 149177539.112 7      -963.632 7        43.018               
G15  23905154.331 7 125622456.542 7     -1383.207 7        46.168               
G23  24381787.329 7 128127123.311 7      2151.137 7        45.323               
G24  23383312.003 7 122880117.013 7       929.310 7        46.505               
> 2025 07 28 06 59 25.0000000  0  6                                             
G05  26637133.652 8 139979087.401 8     -2974.986 8        48.327               
G13  26398762.177 7 138726462.046 7     -2862.045 7        42.888               
G14  28387723.597 7 149178500.901 7      -960.312 7        43.237               
G15  23905417.783 7 125623842.351 7     -1387.113 7        45.779               
G23  24381379.464 7 128124977.345 7      2143.783 7        45.923               
G24  23383127.635 7 122879183.093 7       935.238 7        46.458               
> 2025 07 28 06 59 26.0000000  0  6                                             
G05  26637697.067 8 139982059.814 8     -2970.479 8        48.305               
G13  26399309.693 7 138729322.099 7     -2855.715 7        42.744               
G14  28387905.218 7 149179463.200 7      -959.137 7        43.481               
G15  23905685.559 7 125625228.434 7     -1387.764 7        45.830               
G23  24380970.692 7 128122831.655 7      2143.338 7        45.323               
G24  23382953.645 7 122878249.829 7       933.744 7        45.992               
> 2025 07 28 06 59 27.0000000  0  6                                             
G05  26638263.270 7 139985032.464 7     -2973.984 7        47.516               
G13  26399850.615 7 138732182.143 7     -2860.696 7        42.740               
G14  28388089.430 7 149180425.985 7      -962.291 7        43.368               
G15  23905950.137 7 125626614.771 7     -1391.009 7        46.042               
G23  24380562.376 7 128120686.239 7      2145.242 7        45.752               
G24  23382772.694 7 122877317.219 7       934.493 7        46.291               
> 2025 07 28 06 59 28.0000000  0  6                                             
G05  26638828.873 7 139988005.393 7     -2970.742 7        47.621               
G13  26400396.304 7 138735042.226 7     -2858.716 7        42.402               
G14  28388274.383 7 149181389.325 7      -959.804 7        43.589               
G15  23906212.226 7 125628001.380 7     -1384.453 7        45.699               
G23  24380153.015 7 128118541.129 7      2146.204 7        45.214               
G24  23382596.242 7 122876385.283 7       929.562 7        46.306               
> 2025 07 28 06 59 29.0000000  0  6                                             
G05  26639394.419 8 139990978.606 8     -2972.412 8        48.005               
G13  26400943.400 7 138737902.382 7     -2863.123 7        43.399               
G14  28388459.216 7 149182353.198 7      -961.795 7        43.154               
G15  23906478.439 7 125629388.292 7     -1382.240 7        46.000               
G23  24379742.233 7 128116396.315 7      2144.093 7        45.702               
G24  23382421.536 7 122875454.036 7       929.992 7        46.222               
> 2025 07 28 06 59 30.0000000  0  6                                             
G05  26639959.857 7 139993952.035 7     -2973.748 7        47.625               
G13  26401482.803 7 138740762.508 7     -2860.591 7        42.880               
G14  28388644.491 7 149183317.543 7      -967.645 7        42.986               
G15  23906746.108 7 125630775.424 7     -1387.781 7        46.259               
G23  24379335.668 7 128114251.766 7      2147.012 7        45.790               
G24  23382243.637 7 122874523.409 7       934.373 7        45.886               
> 2025 07 28 06 59 31.0000000  0  6                                             
G05  26640527.981 7 139996925.724 7     -2975.114 7        47.988               
G13  26402031.949 7 138743622.637 7     -2864.679 7        43.287               
G14  28388832.844 7 149184282.408 7      -965.802 7        43.198               
G15  23907010.833 7 125632162.810 7     -1386.155 7        46.404               
G23  24378926.896 7 128112107.520 7      2143.969 7        45.148               
G24  23382069.061 7 122873593.441 7       931.660 7        46.134               
> 2025 07 28 06 59 32.0000000  0  6                                             
G05  26641091.744 7 139999899.686 7     -2973.648 7        47.133               
G13  26402573.331 7 138746482.835 7     -2861.528 7        43.439               
G14  28389016.166 7 149185247.787 7      -966.350 7        42.877               
G15  23907272.038 7 125633550.486 7     -1391.392 7        46.270               
G23  24378518.330 7 128109963.567 7      2148.082 7        45.861               
G24  23381892.113 7 122872664.166 7       925.214 7        46.268               
> 2025 07 28 06 59 33.0000000  0  6                                             
G05  26641656.409 7 140002873.844 7     -2974.309 7        46.845               
G13  26403115.442 7 138749343.003 7     -2860.285 7        42.526               
G14  28389196.420 7 149186213.659 7      -965.192 7        43.298               
G15  23907537.406 7 125634938.391 7     -1389.279 7        46.393               
G23  24378111.582 7 128107819.866 7      2140.469 7        45.778               
G24  23381713.257 7 122871735.514 7       928.355 7        46.141               
> 2025 07 28 06 59 34.0000000  0  6                                             
G05  26642222.482 7 140005848.306 7     -2975.510 7        47.183               
G13  26403653.898 7 138752203.237 7     -2853.658 7        42.514               
G14  28389378.961 7 149187180.048 7      -966.743 7        43.406               
G15  23907798.482 7 125636326.592 7     -1391.384 7        45.812               
G23  24377704.950 7 128105676.483 7      2143.796 7        46.353               
G24  23381537.708 7 122870807.544 7       926.939 7        46.620               
> 2025 07 28 06 59 35.0000000  0  6                                             
G05  26642786.504 7 140008823.018 7     -2976.369 7        46.709               
G13  26404200.981 7 138755063.468 7     -2855.211 7        42.711               
G14  28389559.501 7 149188146.973 7      -968.251 7        43.576               
G15  23908062.483 7 125637715.060 7     -1388.816 7        46.456               
G23  24377297.241 7 128103533.394 7      2139.765 7        45.635               
G24  23381362.100 7 122869880.243 7       926.567 7        45.366               
> 2025 07 28 06 59 36.0000000  0  6                                             
G05  26643355.280 7 140011797.913 7     -2975.571 7        47.254               
G13  26404744.096 7 138757923.692 7     -2853.439 7        42.371               
G14  28389742.301 7 149189114.326 7      -965.604 7        43.477               
G15  23908325.019 7 125639103.743 7     -1392.140 7        46.586               
G23  24376893.004 7 128101390.523 7      2145.905 7        46.275               
G24  23381180.993 7 122868953.551 7       928.794 7        45.661               
> 2025 07 28 06 59 37.0000000  0  6                                             
G05  26643921.558 7 140014773.135 7     -2977.414 7        46.798               
G13  26405291.040 7 138760783.979 7     -2859.808 7        42.679               
G14  28389925.731 7 149190082.237 7      -969.534 7        42.962               
G15  23908587.899 7 125640492.741 7     -1389.647 7        46.112               
G23  24376485.733 7 128099248.001 7      2140.670 7        46.102               
G24  23381008.642 7 122868027.548 7       927.025 7        45.755               
> 2025 07 28 06 59 38.0000000  0  6                                             
G05  26644488.815 7 140017748.574 7     -2977.632 7        46.773               
G13  26405828.254 6 138763644.271 6     -2861.589 6        41.981               
G14  28390114.106 7 149191050.671 7      -972.168 7        43.198               
G15  23908849.466 7 125641882.002 7     -1391.806 7        45.818               
G23  24376072.445 7 128097105.748 7      2142.779 7        46.195               
G24  23380831.198 7 122867102.222 7       925.637 7        45.965               
> 2025 07 28 06 59 39.0000000  0  6                                             
G05  26645051.774 7 140020724.300 7     -2973.573 7        47.074               
G13  26406374.519 6 138766504.613 6     -2860.201 6        41.655               
G14  28390295.914 7 149192019.638 7      -969.305 7        43.797               
G15  23909113.579 7 125643271.548 7     -1391.640 7        45.587               
G23  24375669.623 7 128094963.814 7      2141.207 7        45.509               
G24  23380655.961 7 122866177.554 7       924.333 7        46.160               
> 2025 07 28 06 59 40.0000000  0  6                                             
G05  26645619.969 7 140023700.258 7     -2976.852 7        47.228               
G13  26406920.195 6 138769364.957 6     -2860.861 6        41.894               
G14  28390483.008 7 149192989.099 7      -967.727 7        44.186               
G15  23909374.967 7 125644661.348 7     -1387.501 7        46.012               
G23  24375260.329 7 128092822.168 7      2140.422 7        46.121               
G24  23380483.525 7 122865253.543 7       925.943 7        46.494               
> 2025 07 28 06 59 41.0000000  0  6                                             
G05  26646186.944 7 140026676.470 7     -2976.575 7        46.903               
G13  26407461.327 6 138772225.306 6     -2857.622 6        41.881               
G14  28390666.795 7 149193959.055 7      -973.178 7        44.261               
G15  23909635.793 7 125646051.408 7     -1396.159 7        45.098               
G23  24374852.826 7 128090680.770 7      2139.230 7        45.781               
G24  23380306.103 7 122864330.176 7       925.408 7        46.651               
> 2025 07 28 06 59 42.0000000  0  6                                             
G05  26646753.128 7 140029652.971 7     -2978.769 7        47.050               
G13  26408014.574 7 138775085.713 7     -2861.497 7        42.283               
G14  28390852.794 7 149194929.542 7      -974.716 7        43.889               
G15  23909903.801 7 125647441.753 7     -1390.446 7        45.524               
G23  24374446.989 7 128088539.709 7      2142.406 7        45.933               
G24  23380124.255 7 122863407.497 7       921.473 7        46.682               
> 2025 07 28 06 59 43.0000000  0  6                                             
G05  26647318.835 7 140032629.729 7     -2977.895 7        47.518               
G13  26408562.697 7 138777946.146 7     -2860.723 7        42.585               
G14  28391031.234 7 149195900.576 7      -972.314 7        43.888               
G15  23910168.513 7 125648832.392 7     -1392.060 7        46.154               
G23  24374033.272 7 128086398.956 7      2140.795 7        46.563               
G24  23379951.528 7 122862485.505 7       922.959 7        46.009               
> 2025 07 28 06 59 44.0000000  0  6                                             
G05  26647885.533 7 140035606.760 7     -2975.752 7        47.493               
G13  26409104.455 7 138780806.621 7     -2858.121 7        42.574               
G14  28391214.686 7 149196872.129 7      -970.935 7        43.191               
G15  23910435.315 7 125650223.297 7     -1389.134 7        46.430               
G23  24373627.605 7 128084258.500 7      2141.640 7        46.073               
G24  23379779.481 7 122861564.184 7       922.456 7        46.024               
> 2025 07 28 06 59 45.0000000  0  6                                             
G05  26648454.116 7 140038584.099 7     -2977.225 7        47.063               
G13  26409644.318 7 138783667.151 7     -2859.403 7        42.045               
G14  28391405.893 7 149197844.232 7      -974.561 7        43.611               
G15  23910704.342 7 125651614.519 7     -1394.225 7        46.399               
G23  24373220.133 7 128082118.378 7      2137.130 7        46.488               
G24  23379599.584 7 122860643.581 7       917.364 7        46.710               
> 2025 07 28 06 59 46.0000000  0  6                                             
G05  26649021.998 7 140041563.077 7     -2977.728 7        47.604               
G13  26410183.619 7 138786529.099 7     -2868.484 7        42.184               
G14  28391589.417 7 149198818.230 7      -974.971 7        43.277               
G15  23910974.348 7 125653007.388 7     -1391.260 7        46.638               
G23  24372811.062 7 128079979.939 7      2137.065 7        45.732               
G24  23379429.203 7 122859725.002 7       917.991 7        46.540               
> 2025 07 28 06 59 47.0000000  0  6                                             
G05  26649591.171 7 140044542.418 7     -2980.191 7        47.380               
G13  26410731.166 7 138789391.212 7     -2861.483 7        42.222               
G14  28391770.171 7 149199792.866 7      -972.546 7        43.313               
G15  23911242.673 7 125654400.633 7     -1394.785 7        47.071               
G23  24372405.449 7 128077841.877 7      2136.970 7        45.694               
G24  23379252.974 7 122858807.222 7       916.014 7        47.185               
> 2025 07 28 06 59 48.0000000  0  7                                             
G05  26650155.346 7 140047521.943 7     -2979.752 7        47.316               
G12  28757392.244 6 151121144.826 6      3126.771 6        39.295               
G13  26411276.729 6 138792253.231 6     -2860.252 6        41.504               
G14  28391958.069 7 149200767.938 7      -975.917 7        43.913               
G15  23911511.727 7 125655794.070 7     -1394.270 7        46.926               
G23  24371999.174 7 128075704.073 7      2134.497 7        45.825               
G24  23379077.130 7 122857890.037 7       915.662 7        46.756               
> 2025 07 28 06 59 49.0000000  0  7                                             
G05  26650721.320 7 140050501.771 7     -2980.163 7        47.183               
G12  28756804.072 6 151118023.220 6      3116.034 6        39.172               
G13  26411816.021 6 138795115.309 6     -2864.176 6        41.985               
G14  28392149.799 7 149201743.584 7      -978.749 7        43.451               
G15  23911774.683 7 125657187.832 7     -1395.514 7        47.012               
G23  24371592.069 7 128073566.585 7      2139.081 7        46.021               
G24  23378906.954 7 122856973.544 7       917.429 7        47.012               
> 2025 07 28 06 59 50.0000000  0  7                                             
G05  26651287.446 7 140053481.845 7     -2979.456 7        46.997               
G12  28756209.583 6 151114901.413 6      3123.772 6        39.053               
G13  26412368.201 7 138797977.457 7     -2862.625 7        42.009               
G14  28392337.303 7 149202719.732 7      -978.309 7        43.859               
G15  23912039.668 7 125658581.863 7     -1397.661 7        46.552               
G23  24371183.498 7 128071429.412 7      2134.124 7        45.692               
G24  23378732.950 7 122856057.726 7       916.166 7        47.192               
> 2025 07 28 06 59 51.0000000  0  7                                             
G05  26651853.935 7 140056462.150 7     -2979.595 7        47.038               
G12  28755617.368 6 151111779.429 6      3118.186 6        39.747               
G13  26412909.721 7 138800839.566 7     -2866.378 7        42.252               
G14  28392516.775 7 149203696.361 7      -973.777 7        43.890               
G15  23912302.485 7 125659976.128 7     -1391.967 7        46.855               
G23  24370778.791 7 128069292.482 7      2136.198 7        46.277               
G24  23378557.887 7 122855142.537 7       916.802 7        46.237               
> 2025 07 28 06 59 52.0000000  0  7                                             
G05  26652422.911 7 140059442.745 7     -2979.519 7        46.531               
G12  28755025.479 6 151108657.277 6      3114.111 6        39.713               
G13  26413462.223 7 138803701.737 7     -2862.221 7        42.154               
G14  28392702.041 7 149204673.538 7      -980.913 7        43.451               
G15  23912566.781 7 125661370.684 7     -1398.008 7        47.583               
G23  24370370.350 7 128067155.852 7      2140.492 7        46.316               
G24  23378383.539 7 122854228.032 7       914.111 7        46.065               
> 2025 07 28 06 59 53.0000000  0  7                                             
G05  26652985.750 7 140062423.558 7     -2981.583 7        46.290               
G12  28754428.613 6 151105534.919 6      3117.266 6        40.125               
G13  26414005.638 7 138806563.885 7     -2862.209 7        42.165               
G14  28392888.482 7 149205651.163 7      -978.441 7        43.377               
G15  23912830.296 7 125662765.478 7     -1393.697 7        46.902               
G23  24369967.810 7 128065019.502 7      2138.265 7        46.319               
G24  23378211.724 7 122853314.166 7       913.394 7        46.539               
> 2025 07 28 06 59 54.0000000  0  7                                             
G05  26653556.156 7 140065404.686 7     -2982.935 7        46.143               
G12  28753838.868 6 151102412.442 6      3125.602 6        40.337               
G13  26414550.008 7 138809426.125 7     -2859.679 7        42.805               
G14  28393073.480 7 149206629.377 7      -978.459 7        42.684               
G15  23913096.589 7 125664160.572 7     -1391.381 7        46.451               
G23  24369562.541 7 128062883.482 7      2136.468 7        46.000               
G24  23378032.953 7 122852401.001 7       911.375 7        46.853               
> 2025 07 28 06 59 55.0000000  0  7                                             
G05  26654121.210 7 140068386.127 7     -2980.018 7        46.584               
G12  28753238.406 6 151099289.859 6      3121.196 6        40.194               
G13  26415099.262 7 138812288.416 7     -2861.369 7        42.636               
G14  28393266.371 6 149207608.141 6      -977.906 6        41.913               
G15  23913360.823 7 125665555.990 7     -1392.354 7        46.255               
G23  24369156.807 7 128060747.804 7      2136.163 7        46.818               
G24  23377861.496 7 122851488.553 7       915.782 7        46.448               
> 2025 07 28 06 59 56.0000000  0  7                                             
G05  26654687.551 7 140071367.828 7     -2985.433 7        46.199               
G12  28752646.433 6 151096167.088 6      3121.395 6        40.369               
G13  26415642.529 7 138815150.744 7     -2863.682 7        42.887               
G14  28393455.086 6 149208587.441 6      -976.911 6        41.966               
G15  23913625.945 7 125666951.697 7     -1396.913 7        46.742               
G23  24368751.448 7 128058612.438 7      2134.065 7        46.211               
G24  23377686.424 7 122850576.770 7       910.393 7        46.415               
> 2025 07 28 06 59 57.0000000  0  7                                             
G05  26655256.009 7 140074349.797 7     -2980.184 7        46.334               
G12  28752050.434 6 151093044.186 6      3120.012 6        40.225               
G13  26416191.359 7 138818013.109 7     -2861.498 7        42.586               
G14  28393638.731 7 149209567.273 7      -983.456 7        42.078               
G15  23913892.087 7 125668347.676 7     -1394.615 7        46.902               
G23  24368340.920 7 128056477.379 7      2135.057 7        46.474               
G24  23377512.898 7 122849665.680 7       909.309 7        46.392               
> 2025 07 28 06 59 58.0000000  0  7                                             
G05  26655826.969 7 140077332.041 7     -2982.378 7        46.045               
G12  28751457.915 6 151089921.099 6      3127.944 6        39.936               
G13  26416728.081 7 138820875.510 7     -2860.851 7        42.262               
G14  28393823.970 7 149210547.604 7      -980.852 7        42.287               
G15  23914155.208 7 125669743.940 7     -1397.756 7        46.216               
G23  24367937.760 7 128054342.627 7      2137.428 7        46.824               
G24  23377341.815 7 122848755.260 7       910.590 7        46.815               
> 2025 07 28 06 59 59.0000000  0  7                                             
G05  26656391.773 7 140080314.503 7     -2983.418 7        45.809               
G12  28750862.581 6 151086797.790 6      3117.270 6        39.636               
G13  26417272.385 7 138823737.904 7     -2861.910 7        42.025               
G14  28394012.229 7 149211528.444 7      -978.325 7        42.300               
G15  23914420.733 7 125671140.422 7     -1394.544 7        46.275               
G23  24367531.400 7 128052208.116 7      2132.184 7        46.689               
G24  23377167.878 7 122847845.444 7       908.662 7        46.756               
> 2025 07 28 07 00 00.0000000  0  7                                             
G05  26656961.174 7 140083297.233 7     -2983.055 7        46.235               
G12  28750262.459 6 151083674.373 6      3122.974 6        39.587               
G13  26417811.261 7 138826600.334 7     -2858.896 7        42.430               
G14  28394193.506 7 149212509.806 7      -981.717 7        42.328               
G15  23914685.829 7 125672537.216 7     -1397.898 7        46.507               
G23  24367125.251 7 128050073.933 7      2134.665 7        46.701               
G24  23376997.537 7 122846936.351 7       908.312 7        46.882               
> 2025 07 28 07 00 01.0000000  0  7                                             
G05  26657528.605 7 140086280.250 7     -2983.703 7        46.676               
G12  28749678.727 6 151080550.830 6      3125.623 6        39.597               
G13  26418358.661 7 138829462.831 7     -2863.672 7        42.234               
G14  28394383.462 7 149213491.709 7      -978.839 7        42.027               
G15  23914950.549 7 125673934.303 7     -1396.504 7        47.081               
G23  24366717.949 7 128047940.075 7      2133.558 7        47.200               
G24  23376824.203 7 122846027.943 7       906.664 7        47.123               
> 2025 07 28 07 00 02.0000000  0  7                                             
G05  26658096.496 7 140089263.461 7     -2981.861 7        47.224               
G12  28749072.905 6 151077427.031 6      3131.437 6        40.026               
G13  26418907.057 7 138832325.309 7     -2865.182 7        42.023               
G14  28394561.795 7 149214474.075 7      -981.239 7        42.124               
G15  23915216.141 7 125675331.599 7     -1395.439 7        46.182               
G23  24366313.604 7 128045806.459 7      2136.751 7        46.796               
G24  23376652.491 7 122845120.138 7       908.751 7        47.072               
> 2025 07 28 07 00 03.0000000  0  7                                             
G05  26658667.402 7 140092246.936 7     -2983.679 7        46.366               
G12  28748479.193 6 151074303.074 6      3119.954 6        40.169               
G13  26419451.044 7 138835187.801 7     -2860.422 7        42.217               
G14  28394752.686 7 149215456.976 7      -981.317 7        42.003               
G15  23915482.175 7 125676729.170 7     -1397.385 7        46.767               
G23  24365906.212 7 128043673.135 7      2132.110 7        46.195               
G24  23376477.294 7 122844213.012 7       908.093 7        46.177               
> 2025 07 28 07 00 04.0000000  0  7                                             
G05  26659234.105 7 140095230.690 7     -2981.533 7        46.450               
G12  28747889.708 6 151071178.933 6      3130.319 6        39.915               
G13  26420000.337 7 138838050.309 7     -2864.877 7        42.295               
G14  28394939.569 6 149216440.381 6      -982.755 6        40.695               
G15  23915748.017 7 125678127.029 7     -1397.680 7        46.865               
G23  24365502.944 7 128041540.139 7      2131.872 7        47.136               
G24  23376301.740 7 122843306.567 7       907.039 7        45.780               
> 2025 07 28 07 00 05.0000000  0  7                                             
G05  26659799.708 7 140098214.682 7     -2982.554 7        46.844               
G12  28747296.541 6 151068054.679 6      3117.004 6        39.993               
G13  26420544.628 7 138840912.887 7     -2864.542 7        42.122               
G14  28395134.922 6 149217424.307 6      -980.733 6        40.489               
G15  23916019.054 7 125679525.153 7     -1401.256 7        46.645               
G23  24365093.489 7 128039407.417 7      2131.471 7        46.705               
G24  23376127.919 7 122842400.776 7       903.111 7        46.471               
> 2025 07 28 07 00 06.0000000  0  7                                             
G05  26660367.434 7 140101198.967 7     -2986.707 7        47.474               
G12  28746696.526 6 151064930.260 6      3129.578 6        40.093               
G13  26421087.087 7 138843775.517 7     -2864.766 7        42.140               
G14  28395323.596 6 149218408.785 6      -987.516 6        41.069               
G15  23916284.445 7 125680923.564 7     -1395.711 7        46.509               
G23  24364690.391 7 128037275.025 7      2128.931 7        46.662               
G24  23375956.430 7 122841495.684 7       905.052 7        46.340               
> 2025 07 28 07 00 07.0000000  0  7                                             
G05  26660936.366 7 140104183.508 7     -2984.922 7        47.112               
G12  28746106.830 6 151061805.682 6      3124.500 6        40.193               
G13  26421632.891 7 138846638.124 7     -2857.089 7        42.190               
G14  28395519.088 6 149219393.774 6      -981.642 6        40.812               
G15  23916551.958 7 125682322.248 7     -1396.552 7        46.538               
G23  24364283.285 7 128035142.901 7      2132.262 7        46.383               
G24  23375784.333 7 122840591.251 7       904.392 7        46.566               
> 2025 07 28 07 00 08.0000000  0  7                                             
G05  26661506.741 7 140107168.341 7     -2985.181 7        47.388               
G12  28745522.281 6 151058680.958 6      3127.590 6        40.216               
G13  26422175.114 7 138849500.834 7     -2858.130 7        42.184               
G14  28395698.538 6 149220379.328 6      -991.462 6        40.967               
G15  23916817.232 7 125683721.247 7     -1400.669 7        46.247               
G23  24363875.554 7 128033011.134 7      2133.351 7        46.081               
G24  23375615.123 7 122839687.526 7       903.502 7        46.602               
> 2025 07 28 07 00 09.0000000  0  7                                             
G05  26662073.238 7 140110153.415 7     -2984.317 7        47.227               
G12  28744921.850 6 151055556.040 6      3128.824 6        40.763               
G13  26422719.078 7 138852363.549 7     -2858.307 7        42.391               
G14  28395879.497 6 149221365.334 6      -985.981 6        39.701               
G15  23917082.529 7 125685120.483 7     -1400.248 7        46.472               
G23  24363470.468 7 128030879.654 7      2131.223 7        47.037               
G24  23375444.174 7 122838784.461 7       899.756 7        46.614               
> 2025 07 28 07 00 10.0000000  0  7                                             
G05  26662639.963 7 140113138.745 7     -2983.544 7        47.168               
G12  28744328.237 6 151052430.970 6      3121.407 6        40.615               
G13  26423262.622 7 138855226.280 7     -2859.344 7        42.024               
G14  28396060.653 6 149222351.902 6      -980.244 6        38.865               
G15  23917348.778 7 125686519.991 7     -1404.575 7        46.747               
G23  24363065.172 7 128028748.447 7      2131.724 7        46.789               
G24  23375275.710 7 122837882.034 7       902.513 7        46.166               
> 2025 07 28 07 00 11.0000000  0  7                                             
G05  26663208.448 7 140116124.310 7     -2985.778 7        47.355               
G12  28743732.386 6 151049305.706 6      3125.492 6        41.081               
G13  26423809.781 7 138858089.022 7     -2858.698 7        42.872               
G14  28396250.382 6 149223338.944 6      -986.112 6        39.698               
G15  23917614.575 7 125687919.750 7     -1401.557 7        47.113               
G23  24362659.831 7 128026617.530 7      2129.573 7        46.484               
G24  23375100.696 7 122836980.273 7       899.620 7        46.417               
> 2025 07 28 07 00 12.0000000  0  7                                             
G05  26663775.660 7 140119110.107 7     -2986.188 7        46.884               
G12  28743138.741 6 151046180.241 6      3123.939 6        41.013               
G13  26424352.074 7 138860951.759 7     -2865.539 7        42.019               
G14  28396444.114 6 149224326.424 6      -989.521 6        38.204               
G15  23917881.194 7 125689319.743 7     -1399.599 7        46.268               
G23  24362253.655 7 128024486.858 7      2130.524 7        46.239               
G24  23374932.441 7 122836079.142 7       900.087 7        46.594               
> 2025 07 28 07 00 13.0000000  0  7                                             
G05  26664344.878 7 140122096.180 7     -2987.424 7        47.594               
G12  28742540.240 6 151043054.632 6      3124.206 6        40.559               
G13  26424898.527 7 138863814.551 7     -2861.045 7        42.203               
G14  28396628.035 6 149225314.518 6      -987.936 6        38.439               
G15  23918143.453 7 125690720.037 7     -1399.790 7        45.876               
G23  24361845.781 7 128022356.533 7      2130.684 7        46.326               
G24  23374754.595 7 122835178.703 7       893.512 7        46.412               
> 2025 07 28 07 00 14.0000000  0  7                                             
G05  26664911.576 7 140125082.472 7     -2987.777 7        47.931               
G12  28741948.052 6 151039928.822 6      3123.300 6        40.651               
G13  26425443.202 7 138866677.315 7     -2862.843 7        42.848               
G14  28396816.459 6 149226303.080 6      -986.515 6        38.864               
G15  23918411.234 7 125692120.555 7     -1399.400 7        45.788               
G23  24361443.790 7 128020226.461 7      2133.739 7        46.483               
G24  23374581.556 7 122834278.885 7       900.894 7        46.629               
> 2025 07 28 07 00 15.0000000  0  7                                             
G05  26665482.339 7 140128068.887 7     -2987.184 7        47.713               
G12  28741352.853 6 151036802.713 6      3121.315 6        40.937               
G13  26425988.354 7 138869539.973 7     -2859.292 7        43.127               
G14  28397007.314 6 149227291.997 6      -989.190 6        39.157               
G15  23918674.722 7 125693521.222 7     -1403.056 7        46.149               
G23  24361035.698 7 128018096.546 7      2132.195 7        46.936               
G24  23374411.269 7 122833379.596 7       900.858 7        46.472               
> 2025 07 28 07 00 16.0000000  0  7                                             
G05  26666051.575 7 140131055.082 7     -2986.299 7        47.640               
G12  28740758.516 6 151033675.955 6      3126.847 6        39.960               
G13  26426531.604 7 138872402.161 7     -2861.723 7        43.095               
G14  28397197.373 6 149228280.952 6      -993.395 6        39.446               
G15  23918946.349 7 125694921.675 7     -1397.041 7        46.039               
G23  24360631.983 7 128015966.460 7      2129.694 7        46.051               
G24  23374242.389 7 122832480.498 7       899.852 7        45.744               
> 2025 07 28 07 00 17.0000000  0  7                                             
G05  26666618.403 7 140134041.508 7     -2983.273 7        47.618               
G12  28740160.091 6 151030549.030 6      3130.457 6        40.297               
G13  26427077.462 7 138875264.398 7     -2861.800 7        42.770               
G14  28397397.707 6 149229270.447 6      -988.885 6        38.886               
G15  23919216.944 7 125696322.392 7     -1407.222 7        46.506               
G23  24360229.546 7 128013836.644 7      2131.246 7        46.078               
G24  23374071.275 7 122831582.061 7       898.114 7        46.399               
> 2025 07 28 07 00 18.0000000  0  7                                             
G05  26667185.253 8 140137028.173 8     -2988.025 8        48.298               
G12  28739564.396 6 151027421.919 6      3128.734 6        40.621               
G13  26427617.125 7 138878126.624 7     -2861.208 7        42.211               
G14  28397586.118 6 149230260.385 6      -989.654 6        39.194               
G15  23919482.518 7 125697723.334 7     -1403.743 7        47.033               
G23  24359825.165 7 128011707.084 7      2125.713 7        46.732               
G24  23373904.503 7 122830684.257 7       899.688 7        46.940               
> 2025 07 28 07 00 19.0000000  0  7                                             
G05  26667755.105 8 140140015.114 8     -2986.419 8        48.215               
G12  28738970.434 6 151024294.641 6      3130.922 6        40.882               
G13  26428163.184 7 138880988.879 7     -2861.704 7        43.064               
G14  28397772.273 6 149231250.866 6      -992.334 6        38.112               
G15  23919753.126 7 125699124.555 7     -1401.375 7        46.804               
G23  24359417.742 7 128009577.866 7      2128.293 7        46.319               
G24  23373732.063 7 122829787.136 7       897.284 7        46.443               
> 2025 07 28 07 00 20.0000000  0  7                                             
G05  26668324.001 7 140143002.337 7     -2988.926 7        47.400               
G12  28738372.536 6 151021167.201 6      3136.989 6        40.536               
G13  26428707.783 7 138883851.204 7     -2865.527 7        42.890               
G14  28397954.470 6 149232241.914 6      -990.299 6        38.489               
G15  23920015.895 7 125700526.090 7     -1397.835 7        46.439               
G23  24359008.980 7 128007448.939 7      2125.672 7        46.318               
G24  23373562.995 7 122828890.720 7       892.722 7        45.958               
> 2025 07 28 07 00 21.0000000  0  7                                             
G05  26668891.597 7 140145989.772 7     -2987.969 7        47.266               
G12  28737772.615 6 151018039.602 6      3123.618 6        39.954               
G13  26429254.905 7 138886713.472 7     -2856.799 7        42.647               
G14  28398132.156 6 149233233.395 6      -995.692 6        37.690               
G15  23920285.913 7 125701927.838 7     -1403.110 7        46.629               
G23  24358605.658 7 128005320.292 7      2129.479 7        46.142               
G24  23373388.111 7 122827994.917 7       894.576 7        45.945               
> 2025 07 28 07 00 22.0000000  0  7                                             
G05  26669459.407 7 140148977.458 7     -2987.075 7        47.346               
G12  28737181.285 6 151014911.800 6      3128.147 6        40.219               
G13  26429803.458 7 138889575.801 7     -2863.982 7        43.310               
G14  28398318.217 6 149234225.422 6     -1000.566 6        37.588               
G15  23920551.818 7 125703329.877 7     -1401.363 7        46.823               
G23  24358198.204 7 128003191.940 7      2127.979 7        46.908               
G24  23373218.744 7 122827099.772 7       895.619 7        46.228               
> 2025 07 28 07 00 23.0000000  0  7                                             
G05  26670030.399 7 140151965.448 7     -2991.516 7        47.458               
G12  28736592.380 6 151011783.847 6      3135.899 6        40.687               
G13  26430348.132 7 138892438.155 7     -2859.496 7        43.644               
G14  28398510.340 6 149235217.940 6      -996.446 6        37.595               
G15  23920817.463 7 125704732.197 7     -1403.020 7        47.403               
G23  24357792.537 7 128001063.900 7      2128.185 7        46.583               
G24  23373047.970 7 122826205.312 7       891.613 7        47.177               
> 2025 07 28 07 00 24.0000000  0  7                                             
G05  26670598.424 7 140154953.707 7     -2988.497 7        47.595               
G12  28735992.874 6 151008655.766 6      3133.033 6        40.511               
G13  26430893.834 7 138895300.580 7     -2861.153 7        43.804               
G14  28398716.441 6 149236211.019 6      -995.152 6        37.642               
G15  23921085.606 7 125706134.805 7     -1400.388 7        47.008               
G23  24357388.366 7 127998936.186 7      2127.701 7        46.236               
G24  23372881.283 7 122825311.566 7       888.945 7        46.765               
> 2025 07 28 07 00 25.0000000  0  7                                             
G05  26671168.664 7 140157942.238 7     -2988.496 7        47.083               
G12  28735391.161 6 151005527.509 6      3132.707 6        40.826               
G13  26431439.688 7 138898163.019 7     -2866.665 7        43.921               
G14  28398894.814 6 149237204.639 6      -998.664 6        37.960               
G15  23921353.637 7 125707537.701 7     -1403.135 7        46.762               
G23  24356984.062 7 127996808.769 7      2128.491 7        46.362               
G24  23372711.456 7 122824418.482 7       895.008 7        46.852               
> 2025 07 28 07 00 26.0000000  0  7                                             
G05  26671733.728 7 140160931.081 7     -2989.467 7        46.362               
G12  28734802.690 6 151002399.149 6      3125.156 6        40.353               
G13  26431988.044 7 138901025.533 7     -2862.561 7        43.846               
G14  28399089.042 6 149238198.833 6      -991.697 6        38.621               
G15  23921618.800 7 125708940.899 7     -1400.844 7        46.600               
G23  24356579.230 7 127994681.697 7      2125.996 7        46.733               
G24  23372543.241 7 122823526.112 7       892.005 7        46.459               
> 2025 07 28 07 00 27.0000000  0  7                                             
G05  26672302.905 7 140163920.160 7     -2990.020 7        46.970               
G12  28734202.157 6 150999270.578 6      3127.882 6        40.159               
G13  26432528.122 7 138903888.030 7     -2867.488 7        43.443               
G14  28399286.517 6 149239193.485 6      -993.183 6        38.386               
G15  23921885.066 7 125710344.332 7     -1401.438 7        46.481               
G23  24356173.063 7 127992554.884 7      2127.222 7        46.861               
G24  23372370.568 7 122822634.376 7       892.131 7        46.470               
> 2025 07 28 07 00 28.0000000  0  7                                             
G05  26672871.100 7 140166909.415 7     -2989.079 7        46.345               
G12  28733612.077 6 150996141.757 6      3129.282 6        40.544               
G13  26433073.118 7 138906750.479 7     -2864.470 7        42.990               
G14  28399478.457 6 149240188.591 6      -994.587 6        38.162               
G15  23922153.959 7 125711747.969 7     -1400.936 7        46.919               
G23  24355771.671 7 127990428.296 7      2126.865 7        46.055               
G24  23372198.883 7 122821743.212 7       890.395 7        46.117               
> 2025 07 28 07 00 29.0000000  0  7                                             
G05  26673440.630 7 140169898.925 7     -2990.281 7        46.839               
G12  28733011.883 6 150993012.784 6      3136.202 6        40.194               
G13  26433618.204 7 138909612.941 7     -2865.046 7        43.128               
G14  28399670.116 6 149241184.211 6      -990.823 6        37.969               
G15  23922419.694 7 125713151.855 7     -1404.573 7        46.721               
G23  24355370.074 7 127988301.990 7      2127.600 7        46.659               
G24  23372030.539 7 122820852.712 7       891.207 7        46.255               
> 2025 07 28 07 00 30.0000000  0  7                                             
G05  26674010.737 7 140172888.719 7     -2993.259 7        46.934               
G12  28732420.168 6 150989883.639 6      3140.034 6        41.078               
G13  26434162.490 7 138912475.462 7     -2860.310 7        43.286               
G14  28399853.639 6 149242180.333 6      -997.947 6        38.167               
G15  23922687.010 7 125714556.032 7     -1403.633 7        47.330               
G23  24354960.802 7 127986176.011 7      2126.421 7        46.074               
G24  23371862.976 7 122819962.900 7       892.464 7        46.119               
> 2025 07 28 07 00 31.0000000  0  7                                             
G05  26674577.614 7 140175878.794 7     -2991.247 7        47.099               
G12  28731822.592 6 150986754.402 6      3129.978 6        40.414               
G13  26434710.555 7 138915338.049 7     -2864.429 7        43.389               
G14  28400023.355 6 149243177.014 6      -998.769 6        36.466               
G15  23922951.887 7 125715960.526 7     -1402.675 7        46.944               
G23  24354558.137 7 127984050.377 7      2125.713 7        46.073               
G24  23371694.270 7 122819073.796 7       886.055 7        45.984               
> 2025 07 28 07 00 32.0000000  0  7                                             
G05  26675146.751 7 140178869.145 7     -2989.400 7        46.893               
G12  28731227.844 6 150983624.990 6      3128.728 6        39.837               
G13  26435253.818 7 138918200.675 7     -2860.066 7        43.203               
G14  28400201.790 5 149244174.235 5     -1000.250 5        34.526               
G15  23923221.517 7 125717365.295 7     -1404.308 7        46.796               
G23  24354152.157 7 127981925.033 7      2126.572 7        46.664               
G24  23371524.801 7 122818185.375 7       888.925 7        46.352               
> 2025 07 28 07 00 33.0000000  0  7                                             
G05  26675716.255 7 140181859.755 7     -2993.306 7        47.006               
G12  28730630.706 6 150980495.408 6      3126.142 6        39.892               
G13  26435799.301 7 138921063.307 7     -2860.684 7        43.088               
G14  28400381.772 5 149245171.938 5      -998.614 5        34.952               
G15  23923487.354 7 125718770.332 7     -1405.089 7        47.133               
G23  24353751.591 7 127979800.012 7      2125.801 7        46.646               
G24  23371353.195 7 122817297.625 7       890.507 7        46.248               
> 2025 07 28 07 00 34.0000000  0  7                                             
G05  26676286.013 7 140184850.625 7     -2990.198 7        47.414               
G12  28730035.936 6 150977365.680 6      3128.396 6        40.298               
G13  26436342.086 7 138923925.986 7     -2863.683 7        43.239               
G14  28400588.860 5 149246170.189 5      -988.248 5        34.206               
G15  23923756.279 7 125720175.655 7     -1404.813 7        47.485               
G23  24353348.037 7 127977675.276 7      2123.450 7        46.662               
G24  23371186.518 7 122816410.556 7       886.783 7        46.023               
> 2025 07 28 07 00 35.0000000  0  7                                             
G05  26676857.138 7 140187841.664 7     -2992.328 7        47.772               
G12  28729434.447 6 150974235.702 6      3131.819 6        40.175               
G13  26436885.702 7 138926788.607 7     -2859.870 7        42.893               
G14  28400769.869 5 149247168.868 5      -985.280 5        34.246               
G15  23924022.304 7 125721581.164 7     -1406.083 7        46.992               
G23  24352941.933 7 127975550.794 7      2125.063 7        46.973               
G24  23371016.217 7 122815524.042 7       886.667 7        45.904               
> 2025 07 28 07 00 36.0000000  0  7                                             
G05  26677422.322 7 140190832.960 7     -2989.516 7        47.923               
G12  28728842.741 6 150971105.565 6      3127.722 6        40.593               
G13  26437428.938 7 138929651.240 7     -2857.243 7        42.183               
G14  28400967.014 5 149248168.102 5      -993.716 5        35.217               
G15  23924286.962 7 125722986.938 7     -1408.308 7        46.539               
G23  24352538.035 7 127973426.564 7      2123.782 7        46.941               
G24  23370849.450 7 122814638.197 7       886.609 7        46.574               
> 2025 07 28 07 00 37.0000000  0  6                                             
G05  26677995.033 7 140193824.483 7     -2991.783 7        47.866               
G12  28728244.598 6 150967975.216 6      3124.498 6        40.457               
G13  26437971.178 7 138932513.876 7     -2863.271 7        42.343               
G15  23924553.331 7 125724392.983 7     -1407.875 7        46.689               
G23  24352132.064 7 127971302.644 7      2119.255 7        46.437               
G24  23370678.148 7 122813753.033 7       886.939 7        46.526               
> 2025 07 28 07 00 38.0000000  0  6                                             
G05  26678565.051 7 140196816.331 7     -2993.099 7        47.711               
G12  28727645.114 6 150964844.782 6      3137.149 6        40.518               
G13  26438517.041 6 138935376.592 6     -2866.582 6        41.944               
G15  23924819.597 7 125725799.328 7     -1405.126 7        46.065               
G23  24351730.158 7 127969179.053 7      2127.445 7        46.816               
G24  23370513.570 7 122812868.559 7       880.609 7        45.794               
> 2025 07 28 07 00 39.0000000  0  6                                             
G05  26679135.675 8 140199808.416 8     -2994.075 8        48.486               
G12  28727055.025 6 150961714.141 6      3129.753 6        39.772               
G13  26439061.242 7 138938239.284 7     -2864.435 7        42.022               
G15  23925086.266 7 125727205.912 7     -1410.291 7        46.611               
G23  24351323.079 7 127967055.726 7      2123.132 7        46.768               
G24  23370345.423 7 122811984.722 7       881.192 7        46.386               
> 2025 07 28 07 00 40.0000000  0  6                                             
G05  26679709.217 8 140202800.772 8     -2991.565 8        48.521               
G12  28726454.680 6 150958583.339 6      3127.988 6        39.785               
G13  26439607.109 7 138941102.048 7     -2858.412 7        42.203               
G15  23925352.224 7 125728612.782 7     -1410.908 7        46.578               
G23  24350917.819 7 127964932.719 7      2125.231 7        47.155               
G24  23370174.175 7 122811101.581 7       885.383 7        46.949               
> 2025 07 28 07 00 41.0000000  0  6                                             
G05  26680275.313 7 140205793.378 7     -2993.790 7        47.811               
G12  28725862.085 6 150955452.403 6      3131.963 6        40.518               
G13  26440151.293 7 138943964.796 7     -2862.836 7        42.031               
G15  23925620.791 7 125730019.912 7     -1408.163 7        46.573               
G23  24350519.773 7 127962810.000 7      2119.499 7        46.672               
G24  23370009.802 7 122810219.075 7       882.132 7        46.545               
> 2025 07 28 07 00 42.0000000  0  6                                             
G05  26680844.459 7 140208786.249 7     -2994.427 7        47.771               
G12  28725269.763 6 150952321.245 6      3126.822 6        40.648               
G13  26440698.156 7 138946827.592 7     -2861.161 7        42.195               
G15  23925890.537 7 125731427.327 7     -1406.849 7        46.007               
G23  24350115.701 7 127960687.584 7      2124.283 7        46.586               
G24  23369842.035 7 122809337.255 7       880.939 7        46.713               
> 2025 07 28 07 00 43.0000000  0  6                                             
G05  26681414.668 7 140211779.367 7     -2995.870 7        47.962               
G12  28724673.290 6 150949189.942 6      3138.359 6        40.300               
G13  26441237.832 7 138949690.404 7     -2865.402 7        42.566               
G15  23926159.787 7 125732835.000 7     -1406.854 7        46.311               
G23  24349712.929 7 127958565.475 7      2124.375 7        47.514               
G24  23369669.969 7 122808456.109 7       883.033 7        46.298               
> 2025 07 28 07 00 44.0000000  0  6                                             
G05  26681984.029 7 140214772.768 7     -2996.152 7        47.742               
G12  28724078.940 6 150946058.523 6      3136.167 6        40.335               
G13  26441791.803 6 138952553.278 6     -2861.418 6        41.799               
G15  23926427.577 7 125734242.970 7     -1408.439 7        47.009               
G23  24349306.520 7 127956443.684 7      2122.301 7        47.018               
G24  23369500.790 7 122807575.659 7       879.625 7        46.058               
> 2025 07 28 07 00 45.0000000  0  6                                             
G05  26682553.899 7 140217766.497 7     -2994.599 7        47.582               
G12  28723487.176 6 150942926.986 6      3130.890 6        40.640               
G13  26442332.068 7 138955416.225 7     -2863.377 7        42.371               
G15  23926697.958 7 125735651.276 7     -1411.049 7        46.790               
G23  24348903.087 7 127954322.274 7      2124.560 7        47.011               
G24  23369338.754 7 122806695.937 7       876.381 7        46.217               
> 2025 07 28 07 00 46.0000000  0  6                                             
G05  26683118.913 7 140220760.461 7     -2991.929 7        47.459               
G12  28722876.895 6 150939795.279 6      3127.421 6        40.127               
G13  26442877.846 7 138958279.188 7     -2867.705 7        42.347               
G15  23926967.985 7 125737059.845 7     -1408.100 7        46.452               
G23  24348501.074 7 127952201.126 7      2123.349 7        46.178               
G24  23369170.843 7 122805816.861 7       874.454 7        45.735               
> 2025 07 28 07 00 47.0000000  0  6                                             
G05  26683689.998 7 140223754.653 7     -2993.837 7        47.396               
G12  28722289.102 6 150936663.361 6      3138.485 6        40.383               
G13  26443423.714 6 138961142.137 6     -2860.064 6        41.679               
G15  23927235.645 7 125738468.634 7     -1412.776 7        46.461               
G23  24348098.346 7 127950080.250 7      2122.665 7        46.474               
G24  23369003.857 7 122804938.412 7       878.010 7        46.107               
> 2025 07 28 07 00 48.0000000  0  6                                             
G05  26684260.583 7 140226749.143 7     -2993.435 7        47.312               
G12  28721689.681 6 150933531.318 6      3132.873 6        39.354               
G13  26443965.806 6 138964005.165 6     -2858.760 6        41.952               
G15  23927505.419 7 125739877.733 7     -1408.687 7        46.462               
G23  24347692.670 7 127947959.729 7      2121.455 7        46.535               
G24  23368836.701 7 122804060.696 7       877.897 7        46.780               
> 2025 07 28 07 00 49.0000000  0  6                                             
G05  26684831.578 7 140229743.816 7     -2994.798 7        47.153               
G12  28721094.165 6 150930399.117 6      3132.773 6        40.270               
G13  26444513.617 6 138966868.130 6     -2860.240 6        41.395               
G15  23927773.097 7 125741287.054 7     -1411.774 7        46.884               
G23  24347290.389 7 127945839.439 7      2120.394 7        46.677               
G24  23368666.409 7 122803183.565 7       875.346 7        46.442               
> 2025 07 28 07 00 50.0000000  0  6                                             
G05  26685398.982 8 140232738.747 8     -2993.313 8        48.252               
G12  28720499.399 6 150927266.690 6      3133.215 6        40.169               
G13  26445054.977 6 138969731.171 6     -2863.091 6        41.149               
G15  23928038.304 7 125742696.625 7     -1406.288 7        46.514               
G23  24346883.878 7 127943719.465 7      2119.683 7        46.633               
G24  23368495.327 7 122802307.101 7       877.252 7        46.356               
> 2025 07 28 07 00 51.0000000  0  6                                             
G05  26685969.969 8 140235733.875 8     -2995.197 8        48.303               
G12  28719908.511 6 150924134.067 6      3128.198 6        40.415               
G13  26445602.569 6 138972594.173 6     -2865.231 6        41.302               
G15  23928309.498 7 125744106.431 7     -1412.159 7        47.053               
G23  24346478.979 7 127941599.734 7      2116.479 7        46.653               
G24  23368331.718 7 122801431.269 7       876.476 7        46.524               
> 2025 07 28 07 00 52.0000000  0  6                                             
G05  26686539.620 7 140238729.225 7     -2996.315 7        47.526               
G12  28719312.190 6 150921001.262 6      3135.427 6        40.283               
G13  26446135.843 6 138975457.157 6     -2864.064 6        40.694               
G15  23928576.318 7 125745516.473 7     -1410.963 7        47.291               
G23  24346078.334 7 127939480.262 7      2123.367 7        46.589               
G24  23368162.588 7 122800556.059 7       878.550 7        45.964               
> 2025 07 28 07 00 53.0000000  0  6                                             
G05  26687112.144 8 140241724.869 8     -2997.129 8        48.025               
G12  28718714.310 6 150917868.316 6      3134.970 6        39.919               
G13  26446686.861 6 138978320.191 6     -2860.452 6        41.116               
G15  23928843.125 7 125746926.818 7     -1409.608 7        46.915               
G23  24345675.061 7 127937361.130 7      2121.661 7        47.024               
G24  23367999.314 7 122799681.560 7       873.383 7        45.922               
> 2025 07 28 07 00 54.0000000  0  6                                             
G05  26687680.593 8 140244720.717 8     -2997.588 8        48.352               
G12  28718113.925 6 150914735.155 6      3135.571 6        40.285               
G13  26447228.560 6 138981183.230 6     -2863.601 6        40.822               
G15  23929112.961 7 125748337.376 7     -1408.526 7        46.607               
G23  24345269.345 7 127935242.243 7      2120.085 7        47.100               
G24  23367837.148 7 122798807.675 7       875.564 7        46.376               
> 2025 07 28 07 00 55.0000000  0  6                                             
G05  26688249.744 8 140247716.858 8     -2996.476 8        48.566               
G12  28717524.131 6 150911601.897 6      3134.197 6        40.758               
G13  26447775.285 6 138984046.310 6     -2857.806 6        41.463               
G15  23929380.205 7 125749748.251 7     -1408.844 7        46.230               
G23  24344870.209 7 127933123.709 7      2120.826 7        46.583               
G24  23367668.549 7 122797934.511 7       871.564 7        46.521               
> 2025 07 28 07 00 56.0000000  0  6                                             
G05  26688823.393 8 140250713.212 8     -2995.116 8        48.526               
G12  28716924.558 6 150908468.408 6      3131.377 6        40.789               
G13  26448322.766 6 138986909.369 6     -2866.668 6        40.935               
G15  23929647.352 7 125751159.348 7     -1408.808 7        46.471               
G23  24344465.556 7 127931005.440 7      2118.488 7        46.515               
G24  23367504.208 7 122797061.961 7       871.456 7        45.740               
> 2025 07 28 07 00 57.0000000  0  6                                             
G05  26689393.165 8 140253709.781 8     -2996.313 8        48.336               
G12  28716324.945 6 150905334.746 6      3133.632 6        40.591               
G13  26448869.482 6 138989772.425 6     -2863.106 6        41.593               
G15  23929912.380 7 125752570.686 7     -1406.704 7        46.298               
G23  24344066.201 7 127928887.410 7      2119.144 7        46.156               
G24  23367336.628 7 122796190.037 7       869.662 7        45.748               
> 2025 07 28 07 00 58.0000000  0  6                                             
G05  26689964.160 8 140256706.615 8     -2996.648 8        48.608               
G12  28715727.342 6 150902200.906 6      3133.945 6        39.700               
G13  26449414.407 6 138992635.491 6     -2861.786 6        41.295               
G15  23930186.062 7 125753982.285 7     -1407.167 7        46.884               
G23  24343659.945 7 127926769.693 7      2118.043 7        46.136               
G24  23367173.318 7 122795318.780 7       870.485 7        45.767               
> 2025 07 28 07 00 59.0000000  0  6                                             
G05  26690534.093 8 140259703.659 8     -2996.984 8        49.069               
G12  28715132.912 6 150899066.891 6      3132.765 6        40.120               
G13  26449954.172 6 138995498.566 6     -2866.573 6        41.222               
G15  23930451.668 7 125755394.124 7     -1410.609 7        46.285               
G23  24343257.391 7 127924652.222 7      2112.576 7        45.861               
G24  23367007.887 7 122794448.148 7       866.914 7        45.579               
> 2025 07 28 07 01 00.0000000  0  6                                             
G05  26691104.798 8 140262700.990 8     -2999.783 8        48.468               
G12  28714534.840 6 150895932.703 6      3134.786 6        40.509               
G13  26450499.932 6 138998361.671 6     -2862.890 6        41.320               
G15  23930717.813 7 125756806.258 7     -1410.153 7        46.202               
G23  24342856.781 7 127922535.088 7      2116.428 7        46.125               
G24  23366843.912 7 122793578.225 7       869.523 7        46.298               
> 2025 07 28 07 01 01.0000000  0  6                                             
G05  26691673.529 8 140265698.564 8     -2996.927 8        48.115               
G12  28713936.196 6 150892798.393 6      3135.395 6        38.994               
G13  26451041.645 6 139001224.789 6     -2862.376 6        40.528               
G15  23930991.893 7 125758218.649 7     -1411.030 7        47.561               
G23  24342451.212 7 127920418.246 7      2115.131 7        46.806               
G24  23366684.234 7 122792708.947 7       868.802 7        46.150               
> 2025 07 28 07 01 02.0000000  0  6                                             
G05  26692242.559 8 140268696.387 8     -2996.730 8        48.292               
G12  28713349.096 6 150889663.838 6      3128.340 6        39.215               
G13  26451585.493 6 139004087.928 6     -2864.241 6        40.077               
G15  23931260.737 7 125759631.295 7     -1412.187 7        47.103               
G23  24342047.444 7 127918301.708 7      2120.272 7        46.818               
G24  23366514.277 7 122791840.338 7       868.236 7        46.121               
> 2025 07 28 07 01 03.0000000  0  6                                             
G05  26692813.416 8 140271694.474 8     -3000.940 8        48.433               
G12  28712742.778 6 150886529.155 6      3140.102 6        39.824               
G13  26452132.035 6 139006951.118 6     -2863.983 6        40.965               
G15  23931531.470 7 125761044.224 7     -1413.795 7        46.966               
G23  24341647.298 7 127916185.458 7      2116.265 7        46.725               
G24  23366346.469 7 122790972.408 7       870.443 7        46.763               
> 2025 07 28 07 01 04.0000000  0  6                                             
G05  26693386.436 8 140274692.816 8     -2997.329 8        48.033               
G12  28712156.719 6 150883394.316 6      3137.269 6        39.453               
G13  26452676.339 6 139009814.283 6     -2869.219 6        40.622               
G15  23931800.292 7 125762457.406 7     -1412.729 7        47.354               
G23  24341241.350 7 127914069.499 7      2114.690 7        46.496               
G24  23366173.680 7 122790105.115 7       868.377 7        46.472               
> 2025 07 28 07 01 05.0000000  0  6                                             
G05  26693954.858 7 140277691.380 7     -2998.778 7        47.974               
G12  28711550.776 6 150880259.307 6      3133.691 6        39.384               
G13  26453220.843 6 139012677.472 6     -2861.162 6        40.415               
G15  23932070.583 7 125763870.842 7     -1412.753 7        46.798               
G23  24340836.438 7 127911953.827 7      2115.981 7        46.879               
G24  23366011.349 7 122789238.474 7       867.349 7        45.890               
> 2025 07 28 07 01 06.0000000  0  7                                             
G05  26694525.072 7 140280690.167 7     -2999.021 7        47.530               
G12  28710963.112 6 150877124.090 6      3133.251 6        39.846               
G13  26453767.095 6 139015540.647 6     -2860.158 6        40.851               
G15  23932339.342 7 125765284.509 7     -1415.501 7        46.523               
G18  24740519.468 6 130012278.090 6     -1199.306 6        38.172               
G23  24340436.435 7 127909838.429 7      2119.651 7        46.585               
G24  23365852.168 7 122788372.474 7       862.218 7        45.784               
> 2025 07 28 07 01 07.0000000  0  7                                             
G05  26695093.647 7 140283689.221 7     -2999.571 7        47.293               
G12  28710364.188 6 150873988.714 6      3141.437 6        39.382               
G13  26454317.492 6 139018403.865 6     -2859.669 6        41.271               
G15  23932607.382 7 125766698.461 7     -1412.833 7        46.433               
G18  24740750.323 6 130013481.280 6     -1210.372 6        37.896               
G23  24340035.888 7 127907723.350 7      2117.523 7        46.060               
G24  23365685.905 7 122787507.148 7       865.992 7        46.070               
> 2025 07 28 07 01 08.0000000  0  7                                             
G05  26695667.649 7 140286688.563 7     -3000.918 7        47.308               
G12  28709765.249 6 150870853.220 6      3135.323 6        39.605               
G13  26454862.381 6 139021267.127 6     -2864.427 6        41.424               
G15  23932874.859 7 125768112.704 7     -1411.274 7        46.393               
G18  24740971.608 6 130014685.127 6     -1194.770 6        37.986               
G23  24339635.331 7 127905608.593 7      2113.965 7        46.726               
G24  23365525.214 7 122786642.538 7       863.955 7        46.018               
> 2025 07 28 07 01 09.0000000  0  7                                             
G05  26696236.710 7 140289688.215 7     -2999.140 7        47.453               
G12  28709164.796 6 150867717.606 6      3143.994 6        39.353               
G13  26455407.436 6 139024130.461 6     -2861.748 6        41.527               
G15  23933142.242 7 125769527.278 7     -1411.727 7        46.427               
G18  24741202.681 6 130015889.625 6     -1202.831 6        38.523               
G23  24339234.230 7 127903494.200 7      2115.381 7        46.874               
G24  23365360.180 7 122785778.636 7       861.812 7        46.477               
> 2025 07 28 07 01 10.0000000  0  7                                             
G05  26696807.576 7 140292688.109 7     -3001.576 7        47.548               
G12  28708571.683 6 150864581.822 6      3132.825 6        39.494               
G13  26455951.208 7 139026993.787 7     -2864.023 7        42.241               
G15  23933409.281 7 125770942.111 7     -1415.444 7        46.307               
G18  24741434.956 6 130017094.791 6     -1205.810 6        38.401               
G23  24338829.626 7 127901380.085 7      2114.757 7        47.016               
G24  23365193.270 7 122784915.380 7       862.790 7        46.059               
> 2025 07 28 07 01 11.0000000  0  7                                             
G05  26697380.368 7 140295688.237 7     -2999.617 7        47.403               
G12  28707974.724 6 150861445.874 6      3129.646 6        40.288               
G13  26456503.499 6 139029857.149 6     -2865.406 6        41.993               
G15  23933677.585 7 125772357.189 7     -1410.981 7        46.220               
G18  24741659.123 6 130018300.557 6     -1212.968 6        39.293               
G23  24338427.180 7 127899266.251 7      2111.446 7        46.587               
G24  23365026.936 7 122784052.771 7       865.122 7        46.065               
> 2025 07 28 07 01 12.0000000  0  7                                             
G05  26697953.289 7 140298688.597 7     -3002.460 7        47.902               
G12  28707376.429 6 150858309.719 6      3133.464 6        40.461               
G13  26457043.014 7 139032720.493 7     -2862.181 7        42.155               
G15  23933946.348 7 125773772.502 7     -1414.964 7        46.090               
G18  24741891.103 6 130019506.915 6     -1210.214 6        39.174               
G23  24338024.752 7 127897152.699 7      2113.674 7        47.123               
G24  23364859.432 7 122783190.789 7       864.474 7        45.926               
> 2025 07 28 07 01 13.0000000  0  7                                             
G05  26698521.564 8 140301689.270 8     -3002.032 8        48.055               
G12  28706775.074 6 150855173.443 6      3138.225 6        39.916               
G13  26457588.260 7 139035583.928 7     -2861.028 7        42.384               
G15  23934217.131 7 125775188.136 7     -1414.525 7        46.121               
G18  24742119.041 6 130020713.993 6     -1209.607 6        38.379               
G23  24337621.260 7 127895039.489 7      2112.058 7        47.349               
G24  23364695.948 7 122782329.569 7       858.727 7        45.661               
> 2025 07 28 07 01 14.0000000  0  7                                             
G05  26699094.177 8 140304690.226 8     -2999.331 8        48.061               
G12  28706180.125 6 150852037.063 6      3140.541 6        39.826               
G13  26458134.043 7 139038447.394 7     -2866.464 7        42.028               
G15  23934486.703 7 125776604.089 7     -1417.753 7        45.890               
G18  24742341.170 6 130021921.735 6     -1204.204 6        38.224               
G23  24337219.962 7 127892926.648 7      2112.604 7        47.029               
G24  23364533.907 7 122781469.028 7       859.420 7        45.829               
> 2025 07 28 07 01 15.0000000  0  7                                             
G05  26699664.373 7 140307691.459 7     -3002.858 7        47.994               
G12  28705579.417 6 150848900.532 6      3131.290 6        39.667               
G13  26458679.285 6 139041310.933 6     -2867.912 6        41.661               
G15  23934760.086 7 125778020.318 7     -1414.980 7        46.520               
G18  24742583.358 6 130023130.125 6     -1210.866 6        38.292               
G23  24336820.174 7 127890814.096 7      2112.719 7        46.629               
G24  23364373.287 7 122780609.170 7       861.104 7        45.904               
> 2025 07 28 07 01 16.0000000  0  7                                             
G05  26700235.476 8 140310692.936 8     -3000.994 8        48.072               
G12  28704985.286 6 150845763.844 6      3137.197 6        39.882               
G13  26459216.097 6 139044174.491 6     -2865.448 6        41.451               
G15  23935026.834 7 125779436.814 7     -1413.695 7        46.380               
G18  24742808.602 6 130024339.189 6     -1228.116 6        39.075               
G23  24336415.990 7 127888701.858 7      2111.120 7        46.899               
G24  23364210.022 7 122779749.990 7       856.803 7        46.516               
> 2025 07 28 07 01 17.0000000  0  7                                             
G05  26700808.174 7 140313694.693 7     -3001.457 7        47.963               
G12  28704392.512 6 150842626.999 6      3137.640 6        39.945               
G13  26459758.980 6 139047038.081 6     -2868.047 6        41.178               
G15  23935298.515 7 125780853.593 7     -1418.217 7        45.989               
G18  24743035.851 6 130025548.872 6     -1208.024 6        38.088               
G23  24336017.761 7 127886589.927 7      2113.344 7        46.850               
G24  23364050.318 7 122778891.475 7       854.637 7        46.648               
> 2025 07 28 07 01 18.0000000  0  8                                             
G05  26701377.767 7 140316696.658 7     -3003.284 7        47.945               
G10  28104509.357 6 147690207.147 6      3211.263 6        38.260               
G12  28703800.547 6 150839489.986 6      3134.150 6        39.478               
G13  26460303.257 6 139049901.659 6     -2863.692 6        41.152               
G15  23935570.522 7 125782270.601 7     -1416.476 7        45.987               
G18  24743265.517 6 130026759.145 6     -1220.307 6        38.035               
G23  24335614.926 7 127884478.265 7      2109.077 7        47.058               
G24  23363885.744 7 122778033.601 7       860.668 7        46.794               
> 2025 07 28 07 01 19.0000000  0  8                                             
G05  26701947.855 7 140319698.878 7     -3003.070 7        47.208               
G10  28103902.928 6 147687000.554 6      3198.970 6        37.801               
G12  28703200.452 6 150836352.753 6      3131.014 6        40.170               
G13  26460852.261 6 139052765.252 6     -2868.458 6        41.016               
G15  23935841.036 7 125783687.853 7     -1413.686 7        46.218               
G18  24743490.426 6 130027970.069 6     -1215.298 6        36.928               
G23  24335212.011 7 127882366.901 7      2113.945 7        46.954               
G24  23363719.196 7 122777176.382 7       855.101 7        46.877               
> 2025 07 28 07 01 20.0000000  0  8                                             
G05  26702518.159 7 140322701.378 7     -3002.663 7        47.498               
G10  28103292.124 6 147683793.937 6      3204.710 6        38.506               
G12  28702603.631 6 150833215.426 6      3131.715 6        39.749               
G13  26461399.442 6 139055628.887 6     -2861.668 6        41.203               
G15  23936106.910 7 125785105.419 7     -1416.738 7        46.417               
G18  24743728.602 6 130029181.665 6     -1218.364 6        37.666               
G23  24334810.472 7 127880255.862 7      2111.124 7        46.826               
G24  23363556.619 7 122776319.871 7       856.910 7        46.329               
> 2025 07 28 07 01 21.0000000  0  8                                             
G05  26703092.675 7 140325704.130 7     -3004.702 7        47.686               
G10  28102682.134 6 147680587.271 6      3204.707 6        39.205               
G12  28702009.503 6 150830077.906 6      3137.842 6        40.102               
G13  26461939.448 6 139058492.548 6     -2869.214 6        40.465               
G15  23936375.972 7 125786523.249 7     -1421.672 7        46.740               
G18  24743955.431 6 130030393.853 6     -1186.030 6        37.644               
G23  24334409.401 7 127878145.129 7      2111.278 7        46.390               
G24  23363394.695 7 122775464.003 7       855.875 7        46.005               
> 2025 07 28 07 01 22.0000000  0  8                                             
G05  26703664.381 7 140328707.202 7     -3005.593 7        47.907               
G10  28102070.044 6 147677380.611 6      3212.169 6        38.590               
G12  28701407.148 6 150826940.292 6      3145.009 6        39.920               
G13  26462490.140 6 139061356.295 6     -2867.238 6        40.498               
G15  23936645.473 7 125787941.399 7     -1417.497 7        46.646               
G18  24744189.824 6 130031606.761 6     -1214.350 6        38.861               
G23  24334006.218 7 127876034.727 7      2112.239 7        46.800               
G24  23363233.395 7 122774608.863 7       852.919 7        45.690               
> 2025 07 28 07 01 23.0000000  0  8                                             
G05  26704236.712 8 140331710.513 8     -3004.238 8        48.084               
G10  28101462.711 6 147674173.881 6      3197.816 6        38.283               
G12  28700813.583 6 150823802.525 6      3139.959 6        40.547               
G13  26463043.611 6 139064220.032 6     -2869.274 6        40.586               
G15  23936919.226 7 125789359.812 7     -1416.029 7        46.439               
G18  24744428.549 6 130032820.295 6     -1213.453 6        39.592               
G23  24333604.509 7 127873924.639 7      2111.226 7        47.218               
G24  23363070.707 7 122773754.380 7       856.042 7        46.402               
> 2025 07 28 07 01 24.0000000  0  8                                             
G05  26704805.599 7 140334714.049 7     -3005.206 7        47.914               
G10  28100843.769 6 147670967.109 6      3208.355 6        38.373               
G12  28700215.101 6 150820664.564 6      3134.820 6        39.457               
G13  26463581.491 6 139067083.780 6     -2864.169 6        41.112               
G15  23937188.178 7 125790778.461 7     -1411.628 7        46.931               
G18  24744663.330 6 130034034.442 6     -1215.947 6        39.771               
G23  24333204.324 7 127871814.825 7      2108.339 7        46.250               
G24  23362906.821 7 122772900.541 7       855.171 7        46.011               
> 2025 07 28 07 01 25.0000000  0  8                                             
G05  26705378.417 7 140337717.854 7     -3001.655 7        47.926               
G10  28100241.824 6 147667760.274 6      3215.809 6        38.480               
G12  28699610.587 6 150817526.460 6      3137.614 6        40.775               
G13  26464127.796 6 139069947.543 6     -2867.751 6        40.901               
G15  23937459.340 7 125792197.374 7     -1417.519 7        46.662               
G18  24744888.065 6 130035249.185 6     -1210.276 6        39.316               
G23  24332800.877 7 127869705.320 7      2106.721 7        46.633               
G24  23362742.819 7 122772047.376 7       851.004 7        46.143               
> 2025 07 28 07 01 26.0000000  0  8                                             
G05  26705950.409 7 140340721.948 7     -3004.487 7        47.704               
G10  28099630.252 6 147664553.431 6      3202.426 6        38.707               
G12  28699019.297 6 150814388.206 6      3135.721 6        40.429               
G13  26464672.131 6 139072811.370 6     -2864.148 6        40.730               
G15  23937727.876 7 125793616.605 7     -1422.279 7        46.842               
G18  24745118.646 6 130036464.640 6     -1218.724 6        39.753               
G23  24332400.847 7 127867596.144 7      2111.099 7        46.626               
G24  23362581.498 7 122771194.911 7       855.059 7        46.482               
> 2025 07 28 07 01 27.0000000  0  8                                             
G05  26706517.353 7 140343726.288 7     -3004.779 7        47.718               
G10  28099020.851 6 147661346.536 6      3206.444 6        38.253               
G12  28698425.018 6 150811249.786 6      3141.129 6        39.934               
G13  26465214.621 6 139075675.180 6     -2858.064 6        41.015               
G15  23937996.711 7 125795036.079 7     -1420.719 7        47.171               
G18  24745346.530 6 130037680.690 6     -1214.822 6        39.899               
G23  24331997.561 7 127865487.260 7      2109.601 7        45.777               
G24  23362418.724 7 122770343.087 7       854.493 7        46.520               
> 2025 07 28 07 01 28.0000000  0  8                                             
G05  26707091.221 7 140346730.958 7     -3002.892 7        47.901               
G10  28098408.525 6 147658139.674 6      3205.712 6        37.974               
G12  28697825.119 6 150808111.297 6      3138.461 6        39.902               
G13  26465761.735 6 139078539.140 6     -2857.782 6        40.589               
G15  23938270.464 7 125796455.901 7     -1418.427 7        47.279               
G18  24745574.615 6 130038897.478 6     -1216.672 6        38.727               
G23  24331599.913 7 127863378.758 7      2106.267 7        46.297               
G24  23362259.172 7 122769492.009 7       853.918 7        46.557               
> 2025 07 28 07 01 29.0000000  0  8                                             
G05  26707661.538 7 140349735.798 7     -3007.836 7        47.677               
G10  28097800.075 6 147654932.662 6      3200.263 6        38.285               
G12  28697230.916 6 150804972.540 6      3136.846 6        39.461               
G13  26466300.781 6 139081403.031 6     -2863.759 6        41.473               
G15  23938538.205 7 125797875.901 7     -1423.638 7        46.283               
G18  24745800.506 6 130040114.838 6     -1224.780 6        38.806               
G23  24331198.115 7 127861270.477 7      2110.548 7        46.767               
G24  23362097.917 7 122768641.531 7       849.768 7        46.065               
> 2025 07 28 07 01 30.0000000  0  8                                             
G05  26708233.311 7 140352740.943 7     -3005.538 7        47.779               
G10  28097192.019 6 147651725.668 6      3207.478 6        38.596               
G12  28696633.988 6 150801833.684 6      3133.815 6        39.717               
G13  26466837.789 6 139084266.989 6     -2864.077 6        40.869               
G15  23938808.246 7 125799296.228 7     -1422.303 7        47.105               
G18  24746033.027 6 130041332.878 6     -1221.345 6        38.557               
G23  24330792.072 7 127859162.549 7      2107.768 7        46.345               
G24  23361934.907 7 122767791.763 7       853.401 7        46.624               
> 2025 07 28 07 01 31.0000000  0  8                                             
G05  26708806.799 7 140355746.308 7     -3007.661 7        47.559               
G10  28096580.979 6 147648518.605 6      3205.638 6        39.045               
G12  28696034.692 6 150798694.648 6      3135.416 6        39.375               
G13  26467385.980 6 139087130.940 6     -2861.092 6        40.985               
G15  23939077.746 7 125800716.776 7     -1419.621 7        46.682               
G18  24746269.952 6 130042551.505 6     -1218.086 6        38.918               
G23  24330393.066 7 127857054.888 7      2106.936 7        47.012               
G24  23361774.640 7 122766942.629 7       847.224 7        46.903               
> 2025 07 28 07 01 32.0000000  0  8                                             
G05  26709377.742 7 140358751.921 7     -3007.115 7        47.558               
G10  28095963.564 6 147645311.472 6      3211.331 6        38.300               
G12  28695438.054 6 150795555.446 6      3141.929 6        40.138               
G13  26467925.620 6 139089994.899 6     -2865.170 6        41.297               
G15  23939352.322 7 125802137.597 7     -1424.075 7        46.931               
G18  24746504.389 6 130043770.766 6     -1221.904 6        38.687               
G23  24329991.022 7 127854947.535 7      2105.316 7        46.552               
G24  23361614.623 7 122766094.155 7       849.608 7        46.586               
> 2025 07 28 07 01 33.0000000  0  8                                             
G05  26709949.220 8 140361757.784 8     -3003.315 8        48.437               
G10  28095360.556 6 147642104.277 6      3207.011 6        38.350               
G12  28694842.770 6 150792416.059 6      3135.279 6        40.281               
G13  26468475.959 6 139092858.861 6     -2862.866 6        41.162               
G15  23939621.188 7 125803558.682 7     -1423.874 7        46.433               
G18  24746730.397 6 130044990.643 6     -1217.781 6        38.817               
G23  24329589.349 7 127852840.464 7      2107.668 7        46.300               
G24  23361447.686 7 122765246.360 7       845.905 7        46.860               
> 2025 07 28 07 01 34.0000000  0  8                                             
G05  26710520.117 7 140364763.893 7     -3004.992 7        47.818               
G10  28094745.303 6 147638897.044 6      3206.927 6        38.846               
G12  28694245.703 6 150789276.475 6      3137.459 6        39.887               
G13  26469026.410 6 139095722.856 6     -2864.748 6        41.054               
G15  23939893.369 7 125804980.011 7     -1420.444 7        46.651               
G18  24746964.400 6 130046211.154 6     -1209.240 6        39.619               
G23  24329189.266 7 127850733.688 7      2105.235 7        46.257               
G24  23361286.056 7 122764399.187 7       849.000 7        45.622               
> 2025 07 28 07 01 35.0000000  0  8                                             
G05  26711092.529 7 140367770.262 7     -3003.272 7        47.889               
G10  28094132.481 6 147635689.789 6      3211.878 6        38.446               
G12  28693645.604 6 150786136.774 6      3137.679 6        39.900               
G13  26469578.254 7 139098586.860 7     -2864.292 7        42.302               
G15  23940162.463 7 125806401.625 7     -1422.453 7        46.609               
G18  24747196.336 6 130047432.336 6     -1215.410 6        38.975               
G23  24328786.083 7 127848627.233 7      2103.326 7        46.314               
G24  23361123.908 7 122763552.721 7       847.266 7        45.916               
> 2025 07 28 07 01 36.0000000  0  8                                             
G05  26711668.242 7 140370776.872 7     -3009.430 7        47.865               
G10  28093527.838 6 147632482.449 6      3207.063 6        38.549               
G12  28693052.334 6 150782996.882 6      3141.119 6        39.462               
G13  26470126.266 6 139101450.878 6     -2860.676 6        41.892               
G15  23940433.130 7 125807823.483 7     -1417.734 7        45.722               
G18  24747423.724 6 130048654.102 6     -1229.200 6        39.031               
G23  24328385.656 7 127846521.052 7      2102.380 7        46.606               
G24  23360962.859 7 122762706.885 7       841.098 7        45.468               
> 2025 07 28 07 01 37.0000000  0  8                                             
G05  26712240.439 8 140373783.795 8     -3005.843 8        48.714               
G10  28092907.537 6 147629275.094 6      3203.558 6        37.741               
G12  28692458.631 6 150779856.895 6      3139.327 6        39.509               
G13  26470669.980 7 139104314.966 7     -2865.277 7        42.480               
G15  23940704.229 7 125809245.660 7     -1421.327 7        46.405               
G18  24747662.744 6 130049876.575 6     -1234.206 6        39.249               
G23  24327983.741 7 127844415.231 7      2102.990 7        46.751               
G24  23360801.850 7 122761861.779 7       844.837 7        45.613               
> 2025 07 28 07 01 38.0000000  0  8                                             
G05  26712814.727 8 140376790.962 8     -3007.209 8        48.957               
G10  28092304.775 6 147626067.728 6      3215.858 6        37.793               
G12  28691855.431 6 150776716.721 6      3142.870 6        39.797               
G13  26471213.641 7 139107179.067 7     -2861.821 7        42.554               
G15  23940971.242 7 125810668.101 7     -1418.831 7        46.170               
G18  24747897.699 6 130051099.673 6     -1221.709 6        38.778               
G23  24327581.737 7 127842309.696 7      2101.140 7        45.889               
G24  23360641.766 7 122761017.309 7       846.809 7        45.735               
> 2025 07 28 07 01 39.0000000  0  8                                             
G05  26713386.197 8 140379798.426 8     -3007.370 8        48.978               
G10  28091698.019 6 147622860.350 6      3210.702 6        37.853               
G12  28691259.910 6 150773576.440 6      3142.222 6        39.420               
G13  26471748.166 7 139110043.243 7     -2863.815 7        42.512               
G15  23941239.125 7 125812090.847 7     -1422.000 7        46.260               
G18  24748130.685 6 130052323.423 6     -1222.865 6        39.064               
G23  24327183.178 7 127840204.505 7      2104.140 7        45.647               
G24  23360480.619 7 122760173.570 7       845.803 7        45.512               
> 2025 07 28 07 01 40.0000000  0  8                                             
G05  26713962.263 8 140382806.138 8     -3007.299 8        49.230               
G10  28091083.114 6 147619652.897 6      3203.598 6        38.408               
G12  28690657.546 6 150770436.012 6      3135.109 6        39.513               
G13  26472300.251 6 139112907.429 6     -2865.497 6        41.548               
G15  23941511.793 7 125813513.855 7     -1424.660 7        46.628               
G18  24748367.034 6 130053547.798 6     -1220.127 6        39.448               
G23  24326783.345 7 127838099.601 7      2107.288 7        46.389               
G24  23360316.657 7 122759330.461 7       846.521 7        45.321               
> 2025 07 28 07 01 41.0000000  0  8                                             
G05  26714534.951 8 140385814.051 8     -3009.717 8        49.040               
G10  28090469.215 6 147616445.337 6      3201.729 6        37.733               
G12  28690057.352 6 150767295.336 6      3136.635 6        39.862               
G13  26472840.825 6 139115771.567 6     -2859.514 6        41.562               
G15  23941783.291 7 125814937.082 7     -1422.955 7        46.798               
G18  24748604.196 6 130054772.765 6     -1224.176 6        39.670               
G23  24326387.363 7 127835994.969 7      2106.043 7        46.244               
G24  23360160.196 7 122758487.994 7       841.310 7        45.349               
> 2025 07 28 07 01 42.0000000  0  8                                             
G05  26715103.459 8 140388822.271 8     -3008.219 8        48.406               
G10  28089869.986 6 147613237.792 6      3195.099 6        37.602               
G12  28689463.073 6 150764154.589 6      3148.636 6        39.253               
G13  26473381.162 6 139118635.804 6     -2866.227 6        41.079               
G15  23942052.447 7 125816360.631 7     -1418.853 7        46.802               
G18  24748826.022 6 130055998.462 6     -1234.522 6        38.989               
G23  24325984.398 7 127833890.681 7      2104.536 7        46.109               
G24  23359997.659 7 122757646.235 7       840.907 7        45.419               
> 2025 07 28 07 01 43.0000000  0  8                                             
G05  26715680.173 8 140391830.796 8     -3010.283 8        48.247               
G10  28089250.740 6 147610030.283 6      3192.756 6        37.712               
G12  28688864.076 6 150761013.696 6      3143.802 6        39.700               
G13  26473931.090 6 139121500.094 6     -2862.607 6        40.933               
G15  23942323.775 7 125817784.494 7     -1423.574 7        46.599               
G18  24749062.907 6 130057224.800 6     -1226.157 6        39.284               
G23  24325586.683 7 127831786.748 7      2102.337 7        46.568               
G24  23359838.084 7 122756805.188 7       841.087 7        45.183               
> 2025 07 28 07 01 44.0000000  0  8                                             
G05  26716247.005 7 140394839.534 7     -3008.702 7        47.945               
G10  28088642.822 6 147606822.660 6      3221.423 6        37.838               
G12  28688268.627 6 150757872.650 6      3134.658 6        40.474               
G13  26474477.190 6 139124364.393 6     -2861.796 6        41.203               
G15  23942596.188 7 125819208.604 7     -1429.510 7        46.388               
G18  24749294.231 6 130058451.749 6     -1225.321 6        39.597               
G23  24325186.131 7 127829683.090 7      2101.773 7        46.539               
G24  23359680.051 7 122755964.783 7       840.244 7        45.078               
> 2025 07 28 07 01 45.0000000  0  8                                             
G05  26716821.490 8 140397848.535 8     -3009.444 8        48.145               
G10  28088025.800 6 147603614.999 6      3210.277 6        37.574               
G12  28687662.621 6 150754731.430 6      3139.833 6        41.010               
G13  26475026.761 6 139127228.706 6     -2866.851 6        41.525               
G15  23942863.089 7 125820632.970 7     -1424.930 7        46.299               
G18  24749526.045 6 130059679.354 6     -1234.102 6        39.858               
G23  24324783.613 7 127827579.734 7      2105.608 7        45.968               
G24  23359516.263 7 122755125.059 7       840.040 7        46.076               
> 2025 07 28 07 01 46.0000000  0  8                                             
G05  26717393.075 7 140400857.787 7     -3008.812 7        47.984               
G10  28087417.977 6 147600407.315 6      3210.323 6        38.422               
G12  28687066.153 6 150751590.062 6      3145.689 6        40.237               
G13  26475573.950 6 139130093.060 6     -2865.716 6        41.671               
G15  23943136.717 7 125822057.615 7     -1425.643 7        45.735               
G18  24749765.741 6 130060907.589 6     -1230.146 6        39.140               
G23  24324383.477 7 127825476.693 7      2105.079 7        46.009               
G24  23359358.944 7 122754285.993 7       839.548 7        45.842               
> 2025 07 28 07 01 47.0000000  0  8                                             
G05  26717964.397 7 140403867.312 7     -3011.450 7        47.842               
G10  28086811.136 6 147597199.596 6      3208.590 6        38.186               
G12  28686477.677 6 150748448.518 6      3143.480 6        40.132               
G13  26476120.081 7 139132957.414 7     -2865.511 7        42.121               
G15  23943407.156 7 125823482.528 7     -1423.947 7        45.786               
G18  24750008.125 6 130062136.457 6     -1221.692 6        39.323               
G23  24323983.649 7 127823373.961 7      2096.528 7        45.708               
G24  23359202.340 7 122753447.607 7       830.343 7        45.825               
> 2025 07 28 07 01 48.0000000  0  9                                             
G05  26718534.950 7 140406877.049 7     -3008.997 7        47.243               
G10  28086199.211 6 147593991.822 6      3208.007 6        38.112               
G12  28685879.699 6 150745306.815 6      3139.111 6        40.114               
G13  26476670.121 7 139135821.801 7     -2865.711 7        42.215               
G15  23943679.922 7 125824907.695 7     -1420.541 7        46.644               
G18  24750234.164 6 130063365.940 6     -1231.087 6        39.862               
G22  28099098.010 6 147661748.304 6      -424.140 6        38.413               
G23  24323583.624 7 127821271.513 7      2102.324 7        46.042               
G24  23359041.010 7 122752609.848 7       838.106 7        45.302               
> 2025 07 28 07 01 49.0000000  0  9                                             
G05  26719109.131 7 140409887.092 7     -3009.928 7        47.407               
G10  28085591.910 6 147590784.027 6      3212.420 6        38.218               
G12  28685280.864 6 150742164.993 6      3142.936 6        39.533               
G13  26477213.683 7 139138686.223 7     -2862.783 7        42.355               
G15  23943953.184 7 125826333.187 7     -1427.086 7        47.080               
G18  24750466.095 6 130064596.118 6     -1224.998 6        39.826               
G22  28099190.513 6 147662170.871 6      -421.170 6        39.102               
G23  24323181.437 7 127819169.414 7      2100.489 7        45.691               
G24  23358885.616 7 122751772.827 7       839.793 7        45.988               
> 2025 07 28 07 01 50.0000000  0  9                                             
G05  26719682.914 7 140412897.322 7     -3012.362 7        47.968               
G10  28084981.750 6 147587576.109 6      3205.355 6        37.913               
G12  28684685.334 6 150739022.966 6      3134.468 6        40.435               
G13  26477757.800 7 139141550.604 7     -2865.501 7        43.180               
G15  23944224.691 7 125827758.865 7     -1427.750 7        46.595               
G18  24750706.826 6 130065826.866 6     -1234.121 6        39.723               
G22  28099268.654 6 147662593.953 6      -425.183 6        38.955               
G23  24322781.099 7 127817067.556 7      2104.971 7        46.412               
G24  23358727.091 7 122750936.403 7       832.279 7        45.776               
> 2025 07 28 07 01 51.0000000  0  9                                             
G05  26720257.144 7 140415907.839 7     -3011.796 7        47.841               
G10  28084365.496 6 147584368.223 6      3208.933 6        38.014               
G12  28684083.787 6 150735880.797 6      3143.615 6        40.699               
G13  26478308.670 7 139144415.054 7     -2862.142 7        42.832               
G15  23944493.190 7 125829184.846 7     -1425.687 7        46.343               
G18  24750934.781 6 130067058.250 6     -1229.901 6        39.793               
G22  28099354.024 6 147663017.591 6      -426.235 6        39.347               
G23  24322380.918 7 127814966.038 7      2101.152 7        46.526               
G24  23358567.807 7 122750100.685 7       835.060 7        46.112               
> 2025 07 28 07 01 52.0000000  0  9                                             
G05  26720829.569 8 140418918.588 8     -3010.892 8        48.281               
G10  28083758.128 6 147581160.243 6      3211.811 6        38.079               
G12  28683483.142 6 150732738.448 6      3133.663 6        40.508               
G13  26478844.875 7 139147279.522 7     -2863.412 7        42.529               
G15  23944767.274 7 125830611.075 7     -1422.690 7        46.593               
G18  24751174.052 6 130068290.294 6     -1233.900 6        40.455               
G22  28099437.119 6 147663441.757 6      -428.718 6        39.346               
G23  24321983.761 7 127812864.813 7      2101.780 7        46.556               
G24  23358408.093 7 122749265.614 7       837.120 7        46.083               
> 2025 07 28 07 01 53.0000000  0  9                                             
G05  26721400.324 8 140421929.649 8     -3010.981 8        48.061               
G10  28083140.633 6 147577952.302 6      3203.592 6        37.911               
G12  28682888.715 6 150729595.997 6      3137.000 6        40.492               
G13  26479384.792 7 139150144.047 7     -2865.350 7        42.723               
G15  23945036.967 7 125832037.629 7     -1421.495 7        46.635               
G18  24751403.450 6 130069522.996 6     -1234.887 6        40.147               
G22  28099509.918 6 147663866.474 6      -427.440 6        39.357               
G23  24321585.702 7 127810763.935 7      2098.851 7        46.585               
G24  23358247.161 7 122748431.261 7       837.125 7        45.506               
> 2025 07 28 07 01 54.0000000  0  9                                             
G05  26721974.514 7 140424941.008 7     -3011.970 7        47.994               
G10  28082534.685 6 147574744.308 6      3213.153 6        38.028               
G12  28682280.262 6 150726453.449 6      3134.467 6        40.531               
G13  26479930.851 7 139153008.637 7     -2867.594 7        43.037               
G15  23945310.788 7 125833464.482 7     -1424.779 7        46.542               
G18  24751640.161 6 130070756.404 6     -1239.553 6        40.390               
G22  28099579.111 6 147664291.758 6      -421.074 6        38.645               
G23  24321189.273 7 127808663.394 7      2101.157 7        45.684               
G24  23358083.074 7 122747597.622 7       831.065 7        45.390               
> 2025 07 28 07 01 55.0000000  0  9                                             
G05  26722546.541 8 140427952.609 8     -3012.070 8        48.258               
G10  28081920.911 6 147571536.291 6      3220.726 6        37.874               
G12  28681696.119 6 150723310.720 6      3144.885 6        39.831               
G13  26480474.141 7 139155873.247 7     -2862.645 7        42.766               
G15  23945578.501 7 125834891.613 7     -1428.296 7        46.238               
G18  24751871.672 6 130071990.411 6     -1241.534 6        39.869               
G22  28099653.482 6 147664717.563 6      -420.850 6        38.694               
G23  24320786.389 7 127806563.164 7      2097.759 7        46.462               
G24  23357924.727 7 122746764.641 7       830.857 7        45.481               
> 2025 07 28 07 01 56.0000000  0  9                                             
G05  26723120.409 8 140430964.446 8     -3011.372 8        48.157               
G10  28081306.574 6 147568328.209 6      3217.614 6        38.136               
G12  28681094.161 6 150720167.845 6      3139.699 6        39.983               
G13  26481020.344 7 139158737.891 7     -2865.240 7        42.671               
G15  23945850.048 7 125836318.989 7     -1427.805 7        46.322               
G18  24752103.272 6 130073225.039 6     -1231.408 6        39.268               
G22  28099745.646 6 147665143.915 6      -428.278 6        38.482               
G23  24320389.866 7 127804463.230 7      2099.871 7        45.884               
G24  23357769.602 7 122745932.310 7       833.346 7        45.213               
> 2025 07 28 07 01 57.0000000  0  9                                             
G05  26723694.188 8 140433976.511 8     -3011.400 8        48.758               
G10  28080699.242 6 147565120.073 6      3209.738 6        38.317               
G12  28680491.689 6 150717024.764 6      3147.482 6        40.175               
G13  26481565.420 7 139161602.514 7     -2866.130 7        43.164               
G15  23946120.625 7 125837746.626 7     -1431.065 7        46.318               
G18  24752338.062 6 130074460.320 6     -1238.336 6        39.791               
G22  28099825.266 6 147665570.748 6      -424.379 6        38.569               
G23  24319986.183 7 127802363.576 7      2100.731 7        45.949               
G24  23357615.848 7 122745100.642 7       832.675 7        46.122               
> 2025 07 28 07 01 58.0000000  0  9                                             
G05  26724267.275 8 140436988.904 8     -3011.954 8        48.688               
G10  28080085.325 6 147561911.947 6      3208.520 6        37.845               
G12  28679892.357 6 150713881.621 6      3138.071 6        40.176               
G13  26482112.860 7 139164467.223 7     -2866.253 7        43.293               
G15  23946394.441 7 125839174.576 7     -1431.663 7        46.202               
G18  24752570.998 6 130075696.267 6     -1240.699 6        39.287               
G22  28099908.544 6 147665998.190 6      -428.147 6        39.064               
G23  24319589.553 7 127800264.300 7      2094.841 7        45.662               
G24  23357456.014 7 122744269.696 7       827.686 7        46.621               
> 2025 07 28 07 01 59.0000000  0  9                                             
G05  26724840.231 8 140440001.571 8     -3011.688 8        48.901               
G10  28079475.754 6 147558703.809 6      3209.131 6        37.670               
G12  28679304.882 6 150710738.303 6      3142.684 6        40.487               
G13  26482664.651 7 139167331.983 7     -2863.292 7        43.769               
G15  23946663.660 7 125840602.815 7     -1430.120 7        45.873               
G18  24752809.943 6 130076932.880 6     -1240.596 6        39.514               
G22  28099995.178 6 147666426.183 6      -429.406 6        39.987               
G23  24319186.334 7 127798165.340 7      2101.135 7        46.408               
G24  23357300.219 7 122743439.436 7       830.714 7        46.244               
> 2025 07 28 07 02 00.0000000  0  9                                             
G05  26725413.890 8 140443014.442 8     -3011.538 8        49.061               
G10  28078867.770 6 147555495.590 6      3204.595 6        37.764               
G12  28678700.860 6 150707594.828 6      3147.743 6        40.767               
G13  26483209.035 7 139170196.705 7     -2863.569 7        43.932               
G15  23946936.543 7 125842031.294 7     -1429.375 7        45.895               
G18  24753051.622 6 130078170.070 6     -1234.596 6        40.622               
G22  28100075.946 6 147666854.681 6      -433.278 6        39.772               
G23  24318787.466 7 127796066.643 7      2099.710 7        46.172               
G24  23357139.960 7 122742609.797 7       828.173 7        46.081               
> 2025 07 28 07 02 01.0000000  0  9                                             
G05  26725987.959 8 140446027.625 8     -3012.187 8        48.573               
G10  28078261.224 6 147552287.363 6      3211.289 6        37.607               
G12  28678092.897 6 150704451.214 6      3141.348 6        40.329               
G13  26483755.653 7 139173061.502 7     -2862.194 7        43.924               
G15  23947207.634 7 125843460.083 7     -1425.219 7        45.401               
G18  24753289.941 6 130079407.970 6     -1235.953 6        40.457               
G22  28100162.280 6 147667283.769 6      -430.192 6        40.350               
G23  24318387.356 7 127793968.305 7      2102.164 7        45.947               
G24  23356982.172 7 122741780.864 7       828.104 7        46.263               
> 2025 07 28 07 02 02.0000000  0  9                                             
G05  26726560.509 8 140449041.037 8     -3013.862 8        48.740               
G10  28077651.984 6 147549079.068 6      3209.056 6        37.596               
G12  28677494.620 6 150701307.423 6      3141.306 6        39.789               
G13  26484303.236 7 139175926.307 7     -2865.626 7        43.818               
G15  23947485.081 7 125844889.127 7     -1428.246 7        45.870               
G18  24753528.854 6 130080646.472 6     -1239.368 6        41.660               
G22  28100231.303 6 147667713.347 6      -426.833 6        40.053               
G23  24317987.600 7 127791870.255 7      2099.578 7        45.763               
G24  23356822.249 7 122740952.602 7       831.089 7        46.299               
> 2025 07 28 07 02 03.0000000  0  9                                             
G05  26727134.994 8 140452054.685 8     -3013.972 8        48.570               
G10  28077047.689 6 147545870.714 6      3211.385 6        38.255               
G12  28676903.901 6 150698163.488 6      3138.198 6        39.825               
G13  26484843.979 7 139178791.107 7     -2866.058 7        43.498               
G15  23947756.485 7 125846318.399 7     -1425.933 7        46.814               
G18  24753763.380 6 130081885.588 6     -1237.645 6        41.470               
G22  28100321.185 6 147668143.447 6      -421.682 6        39.422               
G23  24317590.130 7 127789772.489 7      2096.369 7        45.516               
G24  23356668.428 7 122740124.976 7       827.884 7        46.371               
> 2025 07 28 07 02 04.0000000  0  9                                             
G05  26727707.097 8 140455068.606 8     -3016.151 8        48.310               
G10  28076429.818 6 147542662.346 6      3206.622 6        38.302               
G12  28676300.688 6 150695019.422 6      3145.301 6        39.601               
G13  26485385.782 7 139181655.956 7     -2866.015 7        42.979               
G15  23948030.533 7 125847747.994 7     -1434.336 7        46.144               
G18  24753994.896 6 130083125.362 6     -1243.146 6        41.097               
G22  28100403.503 6 147668574.098 6      -427.970 6        39.348               
G23  24317187.675 7 127787675.065 7      2093.617 7        45.678               
G24  23356510.698 7 122739298.057 7       825.533 7        46.025               
> 2025 07 28 07 02 05.0000000  0  9                                             
G05  26728281.644 8 140458082.749 8     -3014.280 8        48.675               
G10  28075816.755 6 147539453.913 6      3204.314 6        37.819               
G12  28675705.288 6 150691875.133 6      3144.858 6        39.480               
G13  26485928.987 7 139184520.810 7     -2865.887 7        43.424               
G15  23948301.495 7 125849177.800 7     -1426.069 7        46.718               
G18  24754226.988 6 130084365.764 6     -1243.505 6        41.005               
G22  28100485.245 6 147669005.259 6      -431.043 6        40.270               
G23  24316786.301 7 127785577.915 7      2095.935 7        45.758               
G24  23356353.817 7 122738471.766 7       827.394 7        46.507               
> 2025 07 28 07 02 06.0000000  0  9                                             
G05  26728853.199 8 140461097.154 8     -3016.549 8        48.399               
G10  28075209.279 6 147536245.424 6      3205.163 6        38.373               
G12  28675105.112 6 150688730.711 6      3148.019 6        39.839               
G13  26486477.186 7 139187385.685 7     -2863.323 7        42.940               
G15  23948571.152 7 125850607.902 7     -1426.750 7        46.577               
G18  24754460.907 6 130085606.798 6     -1239.824 6        40.862               
G22  28100568.961 6 147669436.964 6      -433.156 6        40.488               
G23  24316387.589 7 127783481.072 7      2096.648 7        45.711               
G24  23356198.633 7 122737646.166 7       826.353 7        46.401               
> 2025 07 28 07 02 07.0000000  0  9                                             
G05  26729429.122 7 140464111.817 7     -3016.108 7        47.996               
G10  28074603.162 6 147533036.919 6      3205.084 6        38.293               
G12  28674510.936 6 150685586.126 6      3144.821 6        40.079               
G13  26487010.607 7 139190250.581 7     -2868.858 7        42.700               
G15  23948845.486 7 125852038.270 7     -1429.542 7        46.894               
G18  24754698.690 6 130086848.447 6     -1237.419 6        40.650               
G22  28100657.484 6 147669869.200 6      -433.352 6        41.293               
G23  24315988.570 7 127781384.536 7      2096.182 7        45.809               
G24  23356044.330 7 122736821.224 7       820.450 7        45.902               
> 2025 07 28 07 02 08.0000000  0  9                                             
G05  26730003.597 7 140467126.739 7     -3015.285 7        47.945               
G10  28073983.232 6 147529828.368 6      3206.635 6        38.362               
G12  28673908.450 6 150682441.402 6      3139.405 6        40.440               
G13  26487558.829 7 139193115.529 7     -2861.705 7        42.606               
G15  23949113.812 7 125853468.895 7     -1433.053 7        46.709               
G18  24754936.303 6 130088090.755 6     -1238.477 6        40.795               
G22  28100739.043 6 147670301.979 6      -432.271 6        41.234               
G23  24315589.514 7 127779288.331 7      2091.489 7        45.952               
G24  23355881.445 7 122735996.956 7       826.469 7        45.845               
> 2025 07 28 07 02 09.0000000  0  9                                             
G05  26730575.902 8 140470141.924 8     -3014.481 8        48.033               
G10  28073374.626 6 147526619.753 6      3211.074 6        38.762               
G12  28673312.581 6 150679296.529 6      3147.859 6        39.980               
G13  26488103.008 7 139195980.469 7     -2864.056 7        42.475               
G15  23949387.462 7 125854899.802 7     -1428.934 7        46.252               
G18  24755175.038 6 130089333.698 6     -1243.266 6        40.778               
G22  28100820.508 6 147670735.303 6      -431.195 6        40.994               
G23  24315192.733 7 127777192.418 7      2099.641 7        45.580               
G24  23355728.307 7 122735173.368 7       819.774 7        46.237               
> 2025 07 28 07 02 10.0000000  0  9                                             
G05  26731146.956 7 140473157.378 7     -3016.057 7        47.941               
G10  28072766.919 6 147523411.145 6      3210.075 6        38.635               
G12  28672712.602 6 150676151.521 6      3147.685 6        40.877               
G13  26488651.739 6 139198845.462 6     -2861.375 6        41.984               
G15  23949663.092 7 125856330.976 7     -1429.708 7        46.370               
G18  24755413.406 6 130090577.297 6     -1250.613 6        40.900               
G22  28100891.126 6 147671169.147 6      -434.668 6        39.972               
G23  24314796.742 7 127775096.827 7      2095.710 7        46.061               
G24  23355574.192 7 122734350.429 7       821.542 7        45.896               
> 2025 07 28 07 02 11.0000000  0  9                                             
G05  26731723.969 7 140476173.074 7     -3015.919 7        47.949               
G10  28072156.115 6 147520202.464 6      3213.298 6        38.530               
G12  28672120.427 6 150673006.328 6      3150.863 6        40.620               
G13  26489190.646 6 139201710.469 6     -2860.907 6        41.997               
G15  23949933.799 7 125857762.429 7     -1433.188 7        45.963               
G18  24755650.113 6 130091821.507 6     -1240.688 6        40.582               
G22  28100972.381 6 147671603.523 6      -434.576 6        38.814               
G23  24314396.931 7 127773001.540 7      2095.314 7        45.318               
G24  23355417.275 7 122733528.174 7       821.781 7        46.580               
> 2025 07 28 07 02 12.0000000  0  9                                             
G05  26732298.574 7 140479188.989 7     -3014.361 7        47.849               
G10  28071540.027 6 147516993.730 6      3208.440 6        38.940               
G12  28671514.555 6 150669860.964 6      3147.210 6        40.212               
G13  26489743.978 6 139204575.463 6     -2866.661 6        41.906               
G15  23950204.479 7 125859194.099 7     -1432.524 7        46.178               
G18  24755886.077 6 130093066.334 6     -1252.477 6        40.289               
G22  28101052.876 6 147672038.389 6      -436.777 6        39.387               
G23  24314001.423 7 127770906.513 7      2095.716 7        45.833               
G24  23355261.564 7 122732706.555 7       816.685 7        46.739               
> 2025 07 28 07 02 13.0000000  0  9                                             
G05  26732872.375 8 140482205.164 8     -3019.843 8        48.177               
G10  28070932.315 6 147513784.917 6      3207.493 6        38.888               
G12  28670920.776 6 150666715.455 6      3145.265 6        39.913               
G13  26490286.616 6 139207440.474 6     -2862.651 6        41.998               
G15  23950477.473 7 125860626.033 7     -1430.533 7        45.761               
G18  24756122.096 6 130094311.766 6     -1242.068 6        41.186               
G22  28101136.360 6 147672473.758 6      -432.131 6        38.939               
G23  24313602.457 7 127768811.795 7      2095.371 7        46.239               
G24  23355103.722 7 122731885.608 7       822.355 7        47.091               
> 2025 07 28 07 02 14.0000000  0  9                                             
G05  26733447.065 8 140485221.581 8     -3018.447 8        48.238               
G10  28070324.411 6 147510576.113 6      3205.609 6        38.779               
G12  28670322.097 6 150663569.773 6      3144.678 6        39.483               
G13  26490838.818 7 139210305.518 7     -2865.863 7        42.221               
G15  23950748.023 7 125862058.277 7     -1430.369 7        45.977               
G18  24756359.839 6 130095557.868 6     -1244.335 6        41.580               
G22  28101225.773 6 147672909.692 6      -433.436 6        39.485               
G23  24313201.400 7 127766717.405 7      2095.245 7        46.077               
G24  23354944.335 7 122731065.348 7       817.966 7        46.384               
> 2025 07 28 07 02 15.0000000  0  9                                             
G05  26734020.545 7 140488238.241 7     -3018.225 7        47.951               
G10  28069718.562 6 147507367.237 6      3205.784 6        39.084               
G12  28669725.852 6 150660423.966 6      3141.944 6        39.620               
G13  26491386.771 7 139213170.567 7     -2869.647 7        42.784               
G15  23951021.785 7 125863490.754 7     -1440.835 7        45.978               
G18  24756595.111 7 130096804.590 7     -1244.376 7        42.017               
G22  28101318.298 6 147673346.162 6      -439.590 6        40.163               
G23  24312801.446 7 127764623.304 7      2094.049 7        45.820               
G24  23354788.535 7 122730245.721 7       818.557 7        45.656               
> 2025 07 28 07 02 16.0000000  0  9                                             
G05  26734595.280 8 140491255.220 8     -3015.980 8        48.049               
G10  28069107.942 6 147504158.345 6      3218.073 6        39.345               
G12  28669128.169 6 150657278.005 6      3148.917 6        39.052               
G13  26491928.069 7 139216035.690 7     -2866.749 7        42.526               
G15  23951298.023 7 125864923.536 7     -1436.772 7        45.830               
G18  24756838.063 6 130098051.976 6     -1249.682 6        41.714               
G22  28101408.841 6 147673783.212 6      -436.435 6        40.431               
G23  24312403.794 7 127762529.547 7      2094.910 7        45.455               
G24  23354632.565 7 122729426.828 7       818.093 7        45.357               
> 2025 07 28 07 02 17.0000000  0  9                                             
G05  26735170.555 8 140494272.395 8     -3016.014 8        48.865               
G10  28068500.993 6 147500949.377 6      3210.309 6        39.493               
G12  28668527.529 6 150654131.869 6      3144.096 6        39.765               
G13  26492474.472 7 139218900.795 7     -2861.565 7        42.601               
G15  23951571.575 7 125866356.556 7     -1431.896 7        45.667               
G18  24757074.685 6 130099299.980 6     -1253.757 6        41.829               
G22  28101482.970 6 147674220.754 6      -437.335 6        40.764               
G23  24312005.238 7 127760436.062 7      2093.051 7        45.302               
G24  23354479.124 7 122728608.546 7       817.920 7        45.838               
> 2025 07 28 07 02 18.0000000  0  9                                             
G05  26735742.837 8 140497289.868 8     -3018.565 8        48.385               
G10  28067879.973 6 147497740.410 6      3206.192 6        38.378               
G12  28667923.632 6 150650985.622 6      3143.941 6        39.890               
G13  26493017.190 7 139221765.953 7     -2865.898 7        42.457               
G15  23951845.409 7 125867789.870 7     -1437.822 7        46.284               
G18  24757311.811 6 130100548.626 6     -1249.843 6        40.941               
G22  28101567.290 6 147674658.832 6      -438.405 6        40.650               
G23  24311607.291 7 127758342.919 7      2094.925 7        46.345               
G24  23354324.906 7 122727790.972 7       817.493 7        46.343               
> 2025 07 28 07 02 19.0000000  0  9                                             
G05  26736318.425 8 140500307.605 8     -3019.877 8        48.449               
G10  28067274.209 6 147494531.416 6      3217.582 6        38.412               
G12  28667327.847 6 150647839.221 6      3140.302 6        39.959               
G13  26493561.860 7 139224631.146 7     -2871.187 7        42.516               
G15  23952117.295 7 125869223.474 7     -1434.402 7        47.340               
G18  24757545.578 6 130101797.946 6     -1248.189 6        41.410               
G22  28101637.185 6 147675097.467 6      -433.724 6        40.538               
G23  24311206.971 7 127756250.100 7      2092.618 7        45.922               
G24  23354168.324 7 122726974.069 7       816.219 7        46.507               
> 2025 07 28 07 02 20.0000000  0  9                                             
G05  26736892.727 8 140503325.612 8     -3014.389 8        48.579               
G10  28066663.459 6 147491322.380 6      3216.800 6        38.916               
G12  28666732.125 6 150644692.698 6      3147.703 6        39.500               
G13  26494104.038 7 139227496.378 7     -2869.309 7        42.560               
G15  23952391.495 7 125870657.365 7     -1436.052 7        47.105               
G18  24757783.643 6 130103047.896 6     -1253.866 6        41.621               
G22  28101720.955 6 147675536.670 6      -437.747 6        39.901               
G23  24310811.695 7 127754157.605 7      2097.595 7        45.970               
G24  23354012.104 7 122726157.880 7       816.582 7        46.400               
> 2025 07 28 07 02 21.0000000  0  9                                             
G05  26737466.921 8 140506343.868 8     -3020.803 8        48.461               
G10  28066049.113 6 147488113.327 6      3215.264 6        39.189               
G12  28666134.974 6 150641546.009 6      3154.773 6        39.569               
G13  26494650.933 6 139230361.637 6     -2866.587 6        41.939               
G15  23952666.620 7 125872091.523 7     -1433.498 7        47.226               
G18  24758020.273 6 130104298.514 6     -1253.419 6        41.630               
G22  28101800.418 6 147675976.406 6      -443.032 6        39.430               
G23  24310412.671 7 127752065.441 7      2091.543 7        45.718               
G24  23353856.733 7 122725342.351 7       815.318 7        46.280               
> 2025 07 28 07 02 22.0000000  0  9                                             
G05  26738042.353 8 140509362.349 8     -3018.740 8        48.531               
G10  28065436.349 6 147484904.199 6      3211.569 6        38.733               
G12  28665531.689 6 150638399.186 6      3154.108 6        39.825               
G13  26495191.234 6 139233226.875 6     -2861.994 6        41.447               
G15  23952936.304 7 125873525.900 7     -1432.272 7        46.445               
G18  24758261.317 6 130105549.714 6     -1255.222 6        40.898               
G22  28101895.834 6 147676416.637 6      -440.592 6        39.413               
G23  24310014.370 7 127749973.527 7      2090.493 7        45.938               
G24  23353701.974 7 122724527.441 7       815.183 7        46.382               
> 2025 07 28 07 02 23.0000000  0  9                                             
G05  26738613.183 8 140512381.070 8     -3018.089 8        48.336               
G10  28064824.634 6 147481695.004 6      3206.182 6        38.928               
G12  28664932.621 6 150635252.126 6      3147.452 6        40.073               
G13  26495738.991 6 139236092.146 6     -2866.258 6        41.639               
G15  23953211.514 7 125874960.543 7     -1435.649 7        46.794               
G18  24758499.078 6 130106801.527 6     -1252.194 6        41.461               
G22  28101986.390 6 147676857.379 6      -443.217 6        39.598               
G23  24309615.837 7 127747881.917 7      2096.104 7        45.712               
G24  23353545.566 7 122723713.200 7       814.040 7        46.310               
> 2025 07 28 07 02 24.0000000  0  9                                             
G05  26739189.061 7 140515400.050 7     -3020.312 7        47.990               
G10  28064213.143 6 147478485.769 6      3207.193 6        38.895               
G12  28664344.422 6 150632104.936 6      3149.281 6        39.228               
G13  26496284.907 6 139238957.425 6     -2860.219 6        41.499               
G15  23953481.130 7 125876395.464 7     -1437.012 7        46.667               
G18  24758737.201 6 130108054.009 6     -1258.299 6        41.937               
G22  28102068.141 6 147677298.657 6      -445.454 6        39.651               
G23  24309218.578 7 127745790.637 7      2091.700 7        45.877               
G24  23353391.727 7 122722899.628 7       816.386 7        46.141               
> 2025 07 28 07 02 25.0000000  0  9                                             
G05  26739763.072 8 140518419.309 8     -3017.671 8        48.364               
G10  28063602.661 6 147475276.550 6      3197.934 6        39.630               
G12  28663741.115 6 150628957.586 6      3147.272 6        40.112               
G13  26496829.560 6 139241822.743 6     -2866.212 6        41.579               
G15  23953753.651 7 125877830.677 7     -1440.413 7        46.719               
G18  24758979.737 7 130109307.113 7     -1253.555 7        42.434               
G22  28102151.647 6 147677740.502 6      -438.190 6        39.790               
G23  24308817.235 7 127743699.667 7      2093.272 7        45.981               
G24  23353240.645 7 122722086.756 7       813.779 7        46.070               
> 2025 07 28 07 02 26.0000000  0  9                                             
G05  26740338.183 8 140521438.829 8     -3018.030 8        48.019               
G10  28062993.300 6 147472067.264 6      3212.091 6        38.629               
G12  28663142.266 6 150625810.172 6      3151.460 6        40.179               
G13  26497374.350 6 139244688.110 6     -2863.965 6        41.115               
G15  23954027.074 7 125879266.157 7     -1437.670 7        46.529               
G18  24759214.938 7 130110560.878 7     -1251.940 7        42.267               
G22  28102231.745 6 147678182.923 6      -439.201 6        39.493               
G23  24308425.028 7 127741609.028 7      2094.671 7        46.186               
G24  23353083.451 7 122721274.554 7       813.509 7        46.337               
> 2025 07 28 07 02 27.0000000  0  9                                             
G05  26740911.595 8 140524458.588 8     -3019.714 8        48.169               
G10  28062380.304 6 147468857.916 6      3209.665 6        38.741               
G12  28662547.723 6 150622662.523 6      3143.506 6        40.154               
G13  26497918.409 6 139247553.489 6     -2867.560 6        41.708               
G15  23954296.574 7 125880701.895 7     -1435.250 7        46.460               
G18  24759456.679 7 130111815.259 7     -1262.438 7        42.261               
G22  28102313.054 6 147678625.815 6      -443.688 6        39.508               
G23  24308025.870 7 127739518.670 7      2091.638 7        46.154               
G24  23352930.300 7 122720463.018 7       812.565 7        46.038               
> 2025 07 28 07 02 28.0000000  0  9                                             
G05  26741487.402 7 140527478.641 7     -3019.094 7        47.789               
G10  28061768.727 6 147465648.584 6      3207.092 6        38.786               
G12  28661942.253 6 150619514.778 6      3143.998 6        40.238               
G13  26498464.919 7 139250418.886 7     -2865.696 7        42.405               
G15  23954570.538 7 125882137.931 7     -1434.476 7        46.701               
G18  24759691.241 7 130113070.305 7     -1253.739 7        42.235               
G22  28102391.217 6 147679069.259 6      -440.364 6        38.710               
G23  24307630.942 7 127737428.661 7      2087.896 7        46.459               
G24  23352775.340 7 122719652.171 7       809.084 7        46.328               
> 2025 07 28 07 02 29.0000000  0  9                                             
G05  26742060.966 7 140530498.983 7     -3019.866 7        47.811               
G10  28061157.187 6 147462439.242 6      3210.820 6        39.143               
G12  28661341.122 6 150616366.883 6      3152.057 6        39.865               
G13  26499008.776 7 139253284.376 7     -2865.046 7        42.944               
G15  23954842.107 7 125883574.277 7     -1437.494 7        45.750               
G18  24759928.546 7 130114326.027 7     -1257.109 7        42.339               
G22  28102456.417 6 147679513.269 6      -441.828 6        37.338               
G23  24307233.888 7 127735338.997 7      2085.963 7        46.601               
G24  23352617.306 7 122718842.034 7       810.049 7        46.011               
> 2025 07 28 07 02 30.0000000  0  9                                             
G05  26742637.671 7 140533519.578 7     -3020.948 7        47.444               
G10  28060547.447 6 147459229.844 6      3209.803 6        38.485               
G12  28660746.503 6 150613218.888 6      3148.153 6        39.464               
G13  26499555.662 7 139256149.881 7     -2865.979 7        42.390               
G15  23955113.716 7 125885010.890 7     -1434.735 7        45.761               
G18  24760170.256 7 130115582.392 7     -1258.857 7        42.522               
G22  28102539.610 6 147679957.836 6      -450.199 6        36.620               
G23  24306836.061 7 127733249.650 7      2090.806 7        46.162               
G24  23352460.782 7 122718032.575 7       806.672 7        45.290               
> 2025 07 28 07 02 31.0000000  0 10                                             
G05  26743209.936 7 140536540.468 7     -3020.414 7        47.530               
G10  28059934.441 6 147456020.439 6      3203.784 6        39.034               
G12  28660142.383 6 150610070.765 6      3150.982 6        40.125               
G13  26500099.908 7 139259015.431 7     -2860.912 7        42.689               
G14  28423497.216 6 149364192.908 6     -1056.031 6        38.689               
G15  23955386.790 7 125886447.814 7     -1438.539 7        46.448               
G18  24760410.510 7 130116839.399 7     -1260.321 7        42.825               
G22  28102642.755 6 147680402.943 6      -432.369 6        37.176               
G23  24306435.799 7 127731160.628 7      2088.537 7        46.361               
G24  23352311.058 7 122717223.805 7       807.695 7        46.349               
> 2025 07 28 07 02 32.0000000  0 10                                             
G05  26743782.526 7 140539561.558 7     -3020.579 7        47.401               
G10  28059326.367 6 147452810.987 6      3207.388 6        39.216               
G12  28659547.858 6 150606922.414 6      3145.961 6        40.360               
G13  26500643.368 7 139261880.987 7     -2872.280 7        42.490               
G14  28423699.167 6 149365252.031 6     -1056.770 6        38.927               
G15  23955661.951 7 125887884.955 7     -1439.155 7        46.148               
G18  24760651.527 7 130118097.014 7     -1260.635 7        42.875               
G22  28102739.082 6 147680848.591 6      -445.012 6        37.855               
G23  24306038.383 7 127729071.901 7      2088.275 7        46.565               
G24  23352159.636 7 122716415.682 7       807.983 7        46.387               
> 2025 07 28 07 02 33.0000000  0 10                                             
G05  26744356.975 7 140542582.955 7     -3021.408 7        47.490               
G10  28058718.239 6 147449601.489 6      3211.908 6        39.447               
G12  28658949.902 6 150603773.959 6      3149.861 6        40.450               
G13  26501193.068 7 139264746.571 7     -2866.622 7        42.592               
G14  28423897.227 6 149366311.648 6     -1055.862 6        39.049               
G15  23955933.931 7 125889322.400 7     -1439.825 7        45.952               
G18  24760892.826 7 130119355.306 7     -1259.529 7        42.225               
G22  28102821.950 6 147681294.780 6      -452.112 6        38.525               
G23  24305640.994 7 127726983.500 7      2088.528 7        46.888               
G24  23352007.767 7 122715608.243 7       805.453 7        46.748               
> 2025 07 28 07 02 34.0000000  0 10                                             
G05  26744934.095 7 140545604.570 7     -3019.329 7        47.695               
G10  28058099.395 6 147446391.969 6      3207.351 6        39.057               
G12  28658342.700 6 150600625.346 6      3149.198 6        40.584               
G13  26501739.060 7 139267612.158 7     -2868.329 7        42.634               
G14  28424098.160 6 149367371.788 6     -1056.454 6        38.530               
G15  23956208.050 7 125890760.095 7     -1436.682 7        46.152               
G18  24761132.686 7 130120614.186 7     -1255.944 7        42.284               
G22  28102910.375 6 147681741.496 6      -447.141 6        38.474               
G23  24305242.068 7 127724895.376 7      2089.681 7        46.480               
G24  23351853.414 7 122714801.462 7       805.137 7        46.494               
> 2025 07 28 07 02 35.0000000  0 10                                             
G05  26745509.643 7 140548626.441 7     -3022.203 7        47.611               
G10  28057497.678 6 147443182.366 6      3206.542 6        38.886               
G12  28657753.790 6 150597476.580 6      3143.641 6        40.670               
G13  26502284.043 6 139270477.772 6     -2865.523 6        41.995               
G14  28424304.230 6 149368432.416 6     -1052.449 6        38.281               
G15  23956487.620 7 125892198.053 7     -1438.878 7        46.387               
G18  24761370.862 7 130121873.709 7     -1262.801 7        42.437               
G22  28103001.476 6 147682188.713 6      -448.676 6        37.709               
G23  24304845.947 7 127722807.576 7      2086.781 7        46.776               
G24  23351698.919 7 122713995.341 7       809.700 7        46.105               
> 2025 07 28 07 02 36.0000000  0 10                                             
G05  26746085.937 8 140551648.574 8     -3023.140 8        48.143               
G10  28056882.756 6 147439972.740 6      3201.325 6        38.470               
G12  28657144.425 6 150594327.655 6      3150.465 6        40.353               
G13  26502832.685 7 139273343.411 7     -2867.819 7        42.167               
G14  28424505.118 6 149369493.555 6     -1064.338 6        38.399               
G15  23956759.609 7 125893636.293 7     -1436.821 7        46.847               
G18  24761611.880 7 130123133.870 7     -1258.701 7        42.043               
G22  28103081.274 6 147682636.488 6      -444.740 6        38.501               
G23  24304449.407 7 127720720.081 7      2091.045 7        46.338               
G24  23351543.941 7 122713189.904 7       799.455 7        45.980               
> 2025 07 28 07 02 37.0000000  0 10                                             
G05  26746659.935 7 140554670.985 7     -3019.541 7        47.901               
G10  28056274.141 6 147436763.118 6      3207.998 6        38.775               
G12  28656550.213 6 150591178.614 6      3143.364 6        39.921               
G13  26503372.959 6 139276209.102 6     -2861.423 6        41.423               
G14  28424705.363 6 149370555.254 6     -1058.193 6        38.753               
G15  23957034.073 7 125895074.829 7     -1439.985 7        46.532               
G18  24761851.892 7 130124394.724 7     -1261.311 7        42.531               
G22  28103160.715 6 147683084.832 6      -455.197 6        37.779               
G23  24304047.676 7 127718632.942 7      2087.355 7        46.225               
G24  23351386.729 7 122712385.164 7       803.159 7        45.597               
> 2025 07 28 07 02 38.0000000  0 10                                             
G05  26747237.122 8 140557693.589 8     -3021.665 8        48.285               
G10  28055661.430 6 147433553.381 6      3218.919 6        38.542               
G12  28655952.351 6 150588029.345 6      3151.431 6        39.579               
G13  26503917.236 6 139279074.756 6     -2867.534 6        41.692               
G14  28424913.640 6 149371617.431 6     -1068.545 6        38.623               
G15  23957308.206 7 125896513.553 7     -1439.027 7        47.147               
G18  24762089.309 7 130125656.110 7     -1257.256 7        42.533               
G22  28103242.506 6 147683533.635 6      -442.962 6        37.220               
G23  24303651.640 7 127716546.043 7      2087.386 7        46.203               
G24  23351233.279 7 122711581.020 7       805.470 7        45.035               
> 2025 07 28 07 02 39.0000000  0 10                                             
G05  26747814.805 8 140560716.469 8     -3022.521 8        48.018               
G10  28055047.603 6 147430343.614 6      3214.818 6        38.382               
G12  28655350.022 6 150584879.964 6      3142.550 6        39.569               
G13  26504464.176 7 139281940.497 7     -2864.918 7        42.213               
G14  28425119.263 6 149372680.097 6     -1057.068 6        38.932               
G15  23957581.982 7 125897952.581 7     -1440.024 7        46.563               
G18  24762334.798 7 130126918.174 7     -1260.885 7        42.546               
G22  28103324.467 6 147683983.026 6      -443.104 6        36.563               
G23  24303254.398 7 127714459.476 7      2085.896 7        46.552               
G24  23351078.479 7 122710777.565 7       800.968 7        45.547               
> 2025 07 28 07 02 40.0000000  0 10                                             
G05  26748389.325 8 140563739.575 8     -3023.586 8        48.564               
G10  28054443.857 6 147427133.790 6      3204.895 6        38.751               
G12  28654749.025 6 150581730.397 6      3144.321 6        39.168               
G13  26505005.241 6 139284806.219 6     -2863.442 6        41.889               
G14  28425318.324 6 149373743.286 6     -1063.881 6        38.885               
G15  23957854.194 7 125899391.854 7     -1441.957 7        46.493               
G18  24762569.289 7 130128180.841 7     -1266.491 7        42.909               
G22  28103423.573 6 147684432.872 6      -446.029 6        36.668               
G23  24302857.925 7 127712373.192 7      2085.465 7        46.546               
G24  23350928.590 7 122709974.765 7       804.882 7        45.183               
> 2025 07 28 07 02 41.0000000  0 10                                             
G05  26748962.716 8 140566762.939 8     -3024.432 8        48.535               
G10  28053831.446 6 147423923.922 6      3212.213 6        38.897               
G12  28654150.488 6 150578580.678 6      3156.658 6        39.541               
G13  26505553.476 6 139287671.946 6     -2872.479 6        41.960               
G14  28425514.477 6 149374807.006 6     -1073.325 6        38.751               
G15  23958131.209 7 125900831.391 7     -1437.659 7        46.565               
G18  24762811.436 7 130129444.131 7     -1264.025 7        43.559               
G22  28103510.283 6 147684883.281 6      -449.179 6        36.974               
G23  24302464.712 7 127710287.222 7      2089.282 7        47.034               
G24  23350776.100 7 122709172.635 7       803.008 7        45.173               
> 2025 07 28 07 02 42.0000000  0 10                                             
G05  26749538.353 8 140569786.514 8     -3024.946 8        48.058               
G10  28053217.229 6 147420713.997 6      3212.243 6        38.632               
G12  28653552.479 6 150575430.784 6      3150.930 6        39.439               
G13  26506100.625 7 139290537.671 7     -2871.404 7        42.675               
G14  28425716.495 6 149375871.178 6     -1065.238 6        38.480               
G15  23958400.999 7 125902271.163 7     -1438.713 7        46.321               
G18  24763055.460 7 130130708.039 7     -1270.077 7        43.007               
G22  28103600.186 6 147685334.179 6      -457.958 6        37.029               
G23  24302065.308 7 127708201.521 7      2084.426 7        46.889               
G24  23350625.526 7 122708371.132 7       799.278 7        45.040               
> 2025 07 28 07 02 43.0000000  0 10                                             
G05  26750111.466 7 140572810.406 7     -3023.951 7        47.614               
G10  28052612.546 6 147417504.044 6      3209.450 6        38.696               
G12  28652953.304 6 150572280.793 6      3153.440 6        40.438               
G13  26506643.236 7 139293403.441 7     -2865.651 7        42.160               
G14  28425924.267 6 149376935.907 6     -1066.106 6        39.379               
G15  23958676.446 7 125903711.250 7     -1441.433 7        46.355               
G18  24763293.056 7 130131972.627 7     -1257.126 7        42.395               
G22  28103689.366 6 147685785.693 6      -452.564 6        36.683               
G23  24301669.358 7 127706116.199 7      2084.309 7        46.295               
G24  23350471.165 7 122707570.353 7       801.413 7        45.234               
> 2025 07 28 07 02 44.0000000  0 10                                             
G05  26750687.693 7 140575834.564 7     -3023.543 7        47.768               
G10  28052000.483 6 147414294.095 6      3213.139 6        38.659               
G12  28652350.872 6 150569130.673 6      3149.551 6        40.348               
G13  26507193.633 7 139296269.278 7     -2865.039 7        42.633               
G14  28426120.580 6 149378001.183 6     -1061.542 6        38.905               
G15  23958949.087 7 125905151.619 7     -1436.863 7        46.018               
G18  24763528.931 6 130133237.870 6     -1266.416 6        41.730               
G22  28103762.307 6 147686237.706 6      -448.299 6        37.173               
G23  24301271.812 7 127704031.194 7      2086.749 7        46.658               
G24  23350320.922 7 122706770.278 7       803.041 7        45.204               
> 2025 07 28 07 02 45.0000000  0 10                                             
G05  26751263.124 7 140578859.015 7     -3025.095 7        47.682               
G10  28051388.683 6 147411084.171 6      3209.684 6        38.094               
G12  28651755.016 6 150565980.443 6      3149.851 6        40.968               
G13  26507734.872 7 139299135.174 7     -2864.249 7        42.696               
G14  28426329.451 6 149379067.011 6     -1068.997 6        38.959               
G15  23959221.934 7 125906592.302 7     -1440.852 7        45.855               
G18  24763769.269 6 130134503.782 6     -1263.914 6        41.999               
G22  28103844.773 6 147686690.340 6      -448.099 6        36.138               
G23  24300877.773 7 127701946.529 7      2083.949 7        46.601               
G24  23350170.402 7 122705970.904 7       796.585 7        45.498               
> 2025 07 28 07 02 46.0000000  0 10                                             
G05  26751838.981 7 140581883.793 7     -3028.113 7        47.396               
G10  28050772.309 6 147407874.233 6      3206.077 6        39.083               
G12  28651150.878 6 150562830.092 6      3153.868 6        41.280               
G13  26508282.437 7 139302001.143 7     -2865.407 7        42.553               
G14  28426529.647 6 149380133.400 6     -1066.945 6        38.885               
G15  23959496.741 7 125908033.301 7     -1440.505 7        46.404               
G18  24764009.943 6 130135770.381 6     -1268.563 6        41.805               
G22  28103913.979 5 147687143.527 5      -460.992 5        34.855               
G23  24300479.937 7 127699862.244 7      2082.929 7        46.937               
G24  23350018.578 7 122705172.241 7       797.348 7        45.904               
> 2025 07 28 07 02 47.0000000  0 10                                             
G05  26752413.523 7 140584908.721 7     -3025.030 7        47.840               
G10  28050166.004 6 147404664.188 6      3202.527 6        38.626               
G12  28650554.039 6 150559679.536 6      3150.811 6        40.279               
G13  26508826.768 7 139304867.040 7     -2869.581 7        42.947               
G14  28426731.348 6 149381200.230 6     -1070.634 6        38.540               
G15  23959772.112 7 125909474.481 7     -1442.156 7        45.901               
G18  24764254.311 7 130137037.518 7     -1263.582 7        42.408               
G22  28104013.358 5 147687597.201 5      -457.934 5        33.937               
G23  24300084.643 7 127697778.193 7      2079.609 7        46.915               
G24  23349870.542 7 122704374.183 7       799.489 7        46.165               
> 2025 07 28 07 02 48.0000000  0 10                                             
G05  26752989.415 7 140587933.989 7     -3027.251 7        47.504               
G10  28049555.773 6 147401454.139 6      3208.173 6        39.170               
G12  28649954.609 6 150556528.903 6      3150.107 6        40.898               
G13  26509376.794 7 139307733.037 7     -2866.638 7        43.075               
G14  28426934.313 6 149382267.639 6     -1064.723 6        39.033               
G15  23960046.468 7 125910916.021 7     -1442.168 7        45.850               
G18  24764500.220 7 130138305.391 7     -1272.569 7        42.298               
G22  28104101.774 5 147688051.440 5      -458.231 5        34.390               
G23  24299690.649 7 127695694.520 7      2085.631 7        46.390               
G24  23349719.370 7 122703576.870 7       795.079 7        46.497               
> 2025 07 28 07 02 49.0000000  0 10                                             
G05  26753565.722 7 140590959.439 7     -3025.225 7        47.266               
G10  28048942.968 6 147398244.014 6      3203.254 6        38.872               
G12  28649356.975 6 150553378.030 6      3155.633 6        41.342               
G13  26509923.247 7 139310598.981 7     -2863.578 7        43.265               
G14  28427141.840 6 149383335.498 6     -1076.560 6        39.572               
G15  23960322.049 7 125912357.749 7     -1440.388 7        46.488               
G18  24764740.093 7 130139573.800 7     -1269.769 7        42.506               
G22  28104198.981 5 147688506.170 5      -465.379 5        35.578               
G23  24299291.138 7 127693611.089 7      2081.087 7        46.817               
G24  23349566.756 7 122702780.152 7       801.395 7        46.454               
> 2025 07 28 07 02 50.0000000  0 10                                             
G05  26754144.026 8 140593985.139 8     -3024.671 8        48.001               
G10  28048333.599 6 147395033.848 6      3206.331 6        38.980               
G12  28648760.302 6 150550227.019 6      3152.748 6        41.677               
G13  26510471.522 7 139313464.929 7     -2865.414 7        42.983               
G14  28427346.981 6 149384403.859 6     -1068.190 6        38.934               
G15  23960596.276 7 125913799.748 7     -1441.464 7        46.305               
G18  24764981.343 7 130140842.863 7     -1271.504 7        42.370               
G22  28104287.384 5 147688961.457 5      -460.539 5        35.408               
G23  24298893.637 7 127691527.970 7      2084.067 7        46.456               
G24  23349411.179 7 122701984.108 7       793.887 7        46.141               
> 2025 07 28 07 02 51.0000000  0 10                                             
G05  26754720.606 7 140597011.100 7     -3025.483 7        47.590               
G10  28047719.034 6 147391823.640 6      3213.500 6        38.972               
G12  28648159.608 6 150547075.863 6      3151.366 6        40.783               
G13  26511015.728 7 139316330.924 7     -2863.395 7        43.009               
G14  28427547.216 6 149385472.746 6     -1068.948 6        38.232               
G15  23960870.869 7 125915242.017 7     -1445.753 7        45.369               
G18  24765221.811 7 130142112.544 7     -1272.529 7        42.417               
G22  28104377.011 5 147689417.288 5      -455.759 5        35.900               
G23  24298496.199 7 127689445.159 7      2082.503 7        46.172               
G24  23349257.362 7 122701188.714 7       794.306 7        46.549               
> 2025 07 28 07 02 52.0000000  0 10                                             
G05  26755297.646 7 140600037.293 7     -3025.546 7        47.640               
G10  28047114.815 6 147388613.376 6      3207.060 6        38.698               
G12  28647558.606 6 150543924.540 6      3152.543 6        41.273               
G13  26511560.246 7 139319196.914 7     -2865.559 7        42.939               
G14  28427748.136 6 149386542.125 6     -1069.944 6        38.660               
G15  23961146.561 7 125916684.526 7     -1446.889 7        45.961               
G18  24765460.537 7 130143382.841 7     -1262.879 7        42.373               
G22  28104456.760 5 147689873.589 5      -445.299 5        34.804               
G23  24298100.092 7 127687362.652 7      2082.716 7        47.038               
G24  23349103.358 7 122700393.988 7       793.122 7        45.888               
> 2025 07 28 07 02 53.0000000  0 10                                             
G05  26755870.290 8 140603063.691 8     -3025.020 8        48.014               
G10  28046497.677 6 147385403.000 6      3210.937 6        38.409               
G12  28646950.313 6 150540773.021 6      3150.361 6        41.413               
G13  26512101.740 7 139322062.871 7     -2859.848 7        43.254               
G14  28427955.747 6 149387611.986 6     -1068.557 6        38.390               
G15  23961419.475 7 125918127.263 7     -1442.642 7        46.444               
G18  24765698.628 7 130144653.731 7     -1267.449 7        42.842               
G22  28104545.766 5 147690330.373 5      -460.787 5        35.429               
G23  24297705.182 7 127685280.398 7      2081.307 7        47.121               
G24  23348955.273 7 122699599.877 7       794.482 7        46.035               
> 2025 07 28 07 02 54.0000000  0 10                                             
G05  26756447.652 8 140606090.324 8     -3026.927 8        48.138               
G10  28045890.041 6 147382192.586 6      3210.295 6        38.453               
G12  28646356.802 6 150537621.334 6      3155.562 6        41.431               
G13  26512644.266 6 139324928.851 6     -2867.864 6        41.889               
G14  28428158.980 6 149388682.328 6     -1072.127 6        37.625               
G15  23961693.287 7 125919570.247 7     -1445.087 7        46.658               
G18  24765940.914 7 130145925.248 7     -1276.091 7        42.212               
G22  28104625.336 5 147690787.718 5      -462.241 5        34.575               
G23  24297308.847 7 127683198.446 7      2081.506 7        46.965               
G24  23348805.276 7 122698806.424 7       792.388 7        45.707               
> 2025 07 28 07 02 55.0000000  0 10                                             
G05  26757021.480 8 140609117.213 8     -3026.453 8        48.226               
G10  28045276.289 6 147378982.156 6      3212.102 6        38.178               
G12  28645757.265 6 150534469.489 6      3152.471 6        41.611               
G13  26513192.255 7 139327794.859 7     -2863.210 7        42.187               
G14  28428353.623 6 149389753.178 6     -1073.814 6        37.854               
G15  23961971.561 7 125921013.509 7     -1443.614 7        46.586               
G18  24766184.732 6 130147197.404 6     -1271.071 6        41.948               
G22  28104698.394 5 147691245.542 5      -451.664 5        34.091               
G23  24296913.316 7 127681116.807 7      2082.221 7        47.454               
G24  23348652.572 7 122698013.655 7       792.249 7        45.222               
> 2025 07 28 07 02 56.0000000  0 10                                             
G05  26757600.454 8 140612144.375 8     -3027.489 8        48.516               
G10  28044667.894 6 147375771.704 6      3207.679 6        38.696               
G12  28645154.699 6 150531317.518 6      3157.337 6        41.216               
G13  26513739.423 7 139330660.907 7     -2866.159 7        42.926               
G14  28428568.235 6 149390824.576 6     -1070.198 6        38.113               
G15  23962247.928 7 125922457.068 7     -1445.650 7        46.576               
G18  24766434.050 7 130148470.222 7     -1277.734 7        42.403               
G22  28104777.773 5 147691703.960 5      -461.883 5        33.548               
G23  24296517.075 7 127679035.505 7      2079.819 7        47.545               
G24  23348500.127 7 122697221.574 7       790.006 7        45.370               
> 2025 07 28 07 02 57.0000000  0 10                                             
G05  26758176.439 8 140615171.806 8     -3026.707 8        48.178               
G10  28044049.532 6 147372561.172 6      3217.631 6        38.443               
G12  28644553.425 6 150528165.396 6      3156.538 6        41.640               
G13  26514280.934 7 139333526.983 7     -2863.580 7        42.881               
G14  28428769.225 6 149391896.517 6     -1075.501 6        37.926               
G15  23962522.199 7 125923900.899 7     -1445.081 7        46.674               
G18  24766676.939 7 130149743.654 7     -1277.040 7        42.392               
G22  28104867.940 5 147692162.867 5      -465.108 5        33.527               
G23  24296119.891 7 127676954.516 7      2082.038 7        47.208               
G24  23348348.204 7 122696430.152 7       789.424 7        45.260               
> 2025 07 28 07 02 58.0000000  0 10                                             
G05  26758750.415 8 140618199.378 8     -3029.064 8        48.778               
G10  28043442.789 6 147369350.536 6      3208.092 6        38.322               
G12  28643957.363 6 150525013.033 6      3153.086 6        41.578               
G13  26514831.890 7 139336392.961 7     -2864.151 7        43.735               
G14  28428984.663 6 149392968.828 6     -1066.171 6        38.770               
G15  23962798.839 7 125925344.891 7     -1442.993 7        46.846               
G18  24766917.005 7 130151017.619 7     -1277.606 7        42.872               
G22  28104976.820 5 147692622.250 5      -455.826 5        33.421               
G23  24295723.597 7 127674873.738 7      2081.723 7        47.593               
G24  23348196.438 7 122695639.300 7       794.478 7        45.262               
> 2025 07 28 07 02 59.0000000  0  9                                             
G05  26759326.932 8 140621227.207 8     -3028.872 8        48.929               
G10  28042827.232 6 147366139.853 6      3215.824 6        38.033               
G12  28643358.215 6 150521860.508 6      3156.143 6        41.682               
G13  26515379.620 7 139339258.971 7     -2867.337 7        43.444               
G14  28429186.266 6 149394041.672 6     -1072.530 6        38.230               
G15  23963072.476 7 125926789.139 7     -1448.596 7        47.210               
G18  24767163.950 7 130152292.219 7     -1276.352 7        42.783               
G23  24295329.022 7 127672793.269 7      2076.564 7        47.241               
G24  23348048.309 7 122694849.120 7       791.034 7        45.845               
> 2025 07 28 07 03 00.0000000  0  9                                             
G05  26759905.665 8 140624255.346 8     -3031.038 8        48.831               
G10  28042222.960 6 147362929.220 6      3217.931 6        38.434               
G12  28642756.020 6 150518707.926 6      3151.021 6        41.105               
G13  26515925.666 7 139342125.049 7     -2864.477 7        43.193               
G14  28429392.653 6 149395115.102 6     -1076.430 6        38.516               
G15  23963347.824 7 125928233.722 7     -1443.843 7        47.175               
G18  24767405.508 7 130153567.526 7     -1273.755 7        42.587               
G23  24294932.151 7 127670713.174 7      2079.721 7        46.893               
G24  23347899.013 7 122694059.659 7       792.808 7        46.236               
> 2025 07 28 07 03 01.0000000  0  9                                             
G05  26760479.064 8 140627283.711 8     -3029.014 8        48.269               
G10  28041602.731 6 147359718.493 6      3207.361 6        37.419               
G12  28642156.264 6 150515555.147 6      3148.751 6        41.242               
G13  26516466.785 7 139344991.137 7     -2867.251 7        43.590               
G14  28429596.552 6 149396189.016 6     -1066.961 6        39.155               
G15  23963622.797 7 125929678.566 7     -1443.830 7        47.579               
G18  24767647.303 7 130154843.432 7     -1277.505 7        42.333               
G23  24294537.446 7 127668633.393 7      2079.341 7        46.407               
G24  23347757.003 7 122693270.876 7       786.866 7        46.362               
> 2025 07 28 07 03 02.0000000  0  9                                             
G05  26761059.231 8 140630312.334 8     -3028.483 8        48.669               
G10  28040997.525 6 147356507.745 6      3209.375 6        37.933               
G12  28641557.786 6 150512402.215 6      3153.575 6        41.309               
G13  26517013.264 7 139347857.245 7     -2864.175 7        42.962               
G14  28429797.503 6 149397263.453 6     -1078.818 6        38.792               
G15  23963899.003 7 125931123.659 7     -1447.160 7        47.453               
G18  24767883.746 7 130156119.971 7     -1274.227 7        42.303               
G23  24294140.857 7 127666553.894 7      2076.745 7        47.378               
G24  23347606.077 7 122692482.748 7       787.197 7        46.272               
> 2025 07 28 07 03 03.0000000  0  9                                             
G05  26761634.971 8 140633341.213 8     -3028.735 8        48.035               
G10  28040392.230 6 147353296.958 6      3213.255 6        38.408               
G12  28640951.056 6 150509249.146 6      3154.094 6        41.039               
G13  26517558.220 7 139350723.371 7     -2867.015 7        43.103               
G14  28429992.012 6 149398338.378 6     -1070.282 6        38.595               
G15  23964172.560 7 125932569.021 7     -1446.780 7        46.679               
G18  24768123.432 7 130157397.149 7     -1278.342 7        42.708               
G23  24293746.939 7 127664474.722 7      2079.759 7        47.303               
G24  23347455.289 7 122691695.308 7       786.243 7        46.175               
> 2025 07 28 07 03 04.0000000  0  9                                             
G05  26762212.154 8 140636370.330 8     -3030.608 8        48.045               
G10  28039780.292 6 147350086.101 6      3209.916 6        37.998               
G12  28640353.762 6 150506095.915 6      3157.217 6        40.891               
G13  26518101.738 7 139353589.515 7     -2866.492 7        43.180               
G14  28430197.291 6 149399413.806 6     -1075.620 6        37.909               
G15  23964447.426 7 125934014.637 7     -1449.057 7        47.193               
G18  24768367.161 7 130158674.926 7     -1277.973 7        42.508               
G23  24293348.710 7 127662395.854 7      2075.498 7        47.585               
G24  23347306.418 7 122690908.509 7       789.300 7        46.629               
> 2025 07 28 07 03 05.0000000  0  9                                             
G05  26762787.108 8 140639399.691 8     -3031.715 8        48.314               
G10  28039167.777 6 147346875.193 6      3210.069 6        38.144               
G12  28639757.866 6 150502942.512 6      3146.927 6        41.601               
G13  26518652.662 7 139356455.656 7     -2864.276 7        43.632               
G14  28430394.011 6 149400489.740 6     -1079.243 6        38.517               
G15  23964725.678 7 125935460.516 7     -1446.303 7        47.093               
G18  24768610.162 6 130159953.349 6     -1278.541 6        41.444               
G23  24292956.954 7 127660317.267 7      2079.278 7        47.426               
G24  23347153.030 7 122690122.353 7       784.560 7        46.016               
> 2025 07 28 07 03 06.0000000  0  9                                             
G05  26763365.170 8 140642429.296 8     -3030.446 8        48.379               
G10  28038556.657 6 147343664.299 6      3193.717 6        37.927               
G12  28639159.964 6 150499788.968 6      3149.351 6        40.906               
G13  26519195.505 7 139359321.820 7     -2864.981 7        43.910               
G14  28430604.968 6 149401566.161 6     -1076.268 6        37.394               
G15  23964999.860 7 125936906.659 7     -1445.905 7        46.899               
G18  24768853.623 6 130161232.385 6     -1281.291 6        41.193               
G23  24292560.078 7 127658238.998 7      2077.916 7        47.956               
G24  23347001.367 7 122689336.898 7       781.193 7        46.026               
> 2025 07 28 07 03 07.0000000  0  9                                             
G05  26763938.846 8 140645459.150 8     -3031.420 8        48.015               
G10  28037944.477 6 147340453.278 6      3207.304 6        39.072               
G12  28638554.048 6 150496635.241 6      3151.360 6        40.484               
G13  26519737.888 7 139362187.996 7     -2868.477 7        43.604               
G14  28430810.381 6 149402643.123 6     -1077.477 6        37.326               
G15  23965273.220 7 125938353.045 7     -1447.700 7        46.478               
G18  24769095.726 6 130162512.055 6     -1278.561 6        41.472               
G23  24292168.966 7 127656161.042 7      2076.183 7        47.789               
G24  23346852.804 7 122688552.068 7       785.494 7        45.622               
> 2025 07 28 07 03 08.0000000  0  9                                             
G05  26764519.268 7 140648489.317 7     -3031.245 7        47.899               
G10  28037333.920 6 147337242.308 6      3211.240 6        38.173               
G12  28637951.352 6 150493481.467 6      3156.292 6        40.763               
G13  26520280.374 7 139365054.236 7     -2863.222 7        43.346               
G14  28431023.487 6 149403720.637 6     -1078.531 6        37.958               
G15  23965548.573 7 125939799.767 7     -1447.844 7        46.917               
G18  24769341.974 6 130163792.411 6     -1279.233 6        41.398               
G23  24291772.635 8 127654083.441 8      2078.694 8        48.115               
G24  23346705.304 7 122687767.980 7       780.464 7        45.452               
> 2025 07 28 07 03 09.0000000  0  9                                             
G05  26765091.372 7 140651519.715 7     -3030.850 7        47.456               
G10  28036723.063 6 147334031.284 6      3213.544 6        38.107               
G12  28637353.129 6 150490327.469 6      3158.025 6        40.719               
G13  26520824.991 7 139367920.492 7     -2867.948 7        43.387               
G14  28431237.143 6 149404798.653 6     -1076.581 6        37.495               
G15  23965821.871 7 125941246.746 7     -1448.818 7        46.866               
G18  24769588.299 6 130165073.389 6     -1285.184 6        41.284               
G23  24291379.088 8 127652006.142 8      2079.216 8        48.078               
G24  23346558.805 7 122686984.545 7       782.785 7        45.816               
> 2025 07 28 07 03 10.0000000  0  9                                             
G05  26765667.022 7 140654550.383 7     -3031.095 7        47.311               
G10  28036115.641 6 147330820.226 6      3204.949 6        38.333               
G12  28636754.986 6 150487173.353 6      3156.608 6        41.190               
G13  26521364.992 7 139370786.806 7     -2868.895 7        42.913               
G14  28431446.809 6 149405877.198 6     -1081.783 6        37.646               
G15  23966096.178 7 125942694.001 7     -1444.842 7        46.536               
G18  24769833.985 6 130166355.004 6     -1282.720 6        41.911               
G23  24290982.404 8 127649929.164 8      2078.942 8        48.259               
G24  23346407.195 7 122686201.790 7       782.519 7        45.377               
> 2025 07 28 07 03 11.0000000  0  9                                             
G05  26766242.164 7 140657581.337 7     -3029.772 7        47.040               
G10  28035503.140 6 147327609.173 6      3210.771 6        39.191               
G12  28636161.922 6 150484019.173 6      3153.531 6        41.298               
G13  26521914.929 7 139373653.142 7     -2869.405 7        43.079               
G14  28431641.894 6 149406956.278 6     -1076.690 6        38.222               
G15  23966370.213 7 125944141.568 7     -1448.951 7        45.918               
G18  24770077.048 6 130167637.278 6     -1282.449 6        41.949               
G23  24290584.760 8 127647852.546 8      2075.613 8        48.299               
G24  23346252.793 7 122685419.741 7       783.766 7        45.554               
> 2025 07 28 07 03 12.0000000  0  9                                             
G05  26766819.641 7 140660612.551 7     -3032.707 7        46.929               
G10  28034896.929 6 147324398.114 6      3214.879 6        38.845               
G12  28635554.670 6 150480864.816 6      3153.072 6        41.477               
G13  26522461.297 7 139376519.533 7     -2867.371 7        42.516               
G14  28431850.787 6 149408035.913 6     -1078.403 6        38.540               
G15  23966643.135 7 125945589.411 7     -1447.655 7        46.312               
G18  24770318.677 7 130168920.215 7     -1287.836 7        42.420               
G23  24290189.587 7 127645776.254 7      2075.451 7        47.626               
G24  23346103.417 7 122684638.370 7       780.214 7        45.698               
> 2025 07 28 07 03 13.0000000  0  9                                             
G05  26767397.347 7 140663644.021 7     -3030.331 7        46.871               
G10  28034284.531 6 147321186.999 6      3207.022 6        39.359               
G12  28634962.075 6 150477710.339 6      3155.223 6        41.116               
G13  26523001.299 7 139379385.931 7     -2863.392 7        42.212               
G14  28432040.110 6 149409116.051 6     -1077.608 6        37.731               
G15  23966919.659 7 125947037.523 7     -1447.614 7        46.320               
G18  24770563.014 6 130170203.764 6     -1282.119 6        41.978               
G23  24289793.641 7 127643700.272 7      2075.009 7        47.358               
G24  23345955.873 7 122683857.660 7       783.363 7        45.641               
> 2025 07 28 07 03 14.0000000  0  9                                             
G05  26767971.322 7 140666675.760 7     -3031.646 7        47.188               
G10  28033676.273 6 147317975.855 6      3212.323 6        38.442               
G12  28634359.826 6 150474555.715 6      3155.172 6        41.109               
G13  26523549.078 7 139382252.410 7     -2865.797 7        42.373               
G14  28432243.531 6 149410196.703 6     -1078.525 6        37.427               
G15  23967199.255 7 125948485.920 7     -1446.476 7        45.994               
G18  24770807.315 7 130171487.983 7     -1288.945 7        42.271               
G23  24289398.248 7 127641624.615 7      2077.097 7        47.870               
G24  23345811.768 7 122683077.650 7       782.805 7        45.550               
> 2025 07 28 07 03 15.0000000  0  9                                             
G05  26768552.624 7 140669707.784 7     -3032.888 7        47.019               
G10  28033061.883 6 147314764.704 6      3210.013 6        39.566               
G12  28633754.964 6 150471400.976 6      3156.645 6        40.990               
G13  26524098.622 7 139385118.890 7     -2865.254 7        43.013               
G14  28432443.740 6 149411277.850 6     -1072.560 6        37.195               
G15  23967473.018 7 125949934.608 7     -1452.339 7        45.442               
G18  24771051.071 6 130172772.861 6     -1284.291 6        41.489               
G23  24289003.544 7 127639549.303 7      2074.940 7        47.587               
G24  23345671.023 7 122682298.333 7       782.207 7        46.202               
> 2025 07 28 07 03 16.0000000  0  9                                             
G05  26769130.280 7 140672740.074 7     -3030.213 7        47.385               
G10  28032454.595 6 147311553.540 6      3211.143 6        38.608               
G12  28633156.951 6 150468246.095 6      3151.742 6        40.986               
G13  26524646.527 7 139387985.431 7     -2863.259 7        43.048               
G14  28432655.072 6 149412359.597 6     -1081.212 6        37.230               
G15  23967748.111 7 125951383.572 7     -1447.026 7        46.001               
G18  24771299.950 6 130174058.365 6     -1288.056 6        41.000               
G23  24288608.514 7 127637474.310 7      2075.902 7        47.179               
G24  23345523.576 7 122681519.725 7       778.902 7        46.458               
> 2025 07 28 07 03 17.0000000  0  9                                             
G05  26769706.324 7 140675772.595 7     -3034.012 7        47.233               
G10  28031840.687 6 147308342.288 6      3216.714 6        38.384               
G12  28632558.865 6 150465091.076 6      3152.413 6        41.316               
G13  26525188.199 7 139390851.960 7     -2865.421 7        43.487               
G14  28432862.951 6 149413441.835 6     -1086.839 6        36.691               
G15  23968025.349 7 125952832.799 7     -1444.045 7        46.489               
G18  24771543.760 6 130175344.488 6     -1279.377 6        41.599               
G23  24288215.118 7 127635399.630 7      2072.804 7        47.872               
G24  23345372.302 7 122680741.747 7       779.035 7        46.604               
> 2025 07 28 07 03 18.0000000  0  9                                             
G05  26770282.828 8 140678805.382 8     -3033.417 8        48.121               
G10  28031234.002 6 147305131.063 6      3208.154 6        38.698               
G12  28631958.323 6 150461935.920 6      3158.270 6        41.905               
G13  26525737.399 7 139393718.544 7     -2872.046 7        43.077               
G14  28433071.943 6 149414524.582 6     -1090.093 6        37.928               
G15  23968297.914 7 125954282.311 7     -1448.904 7        45.812               
G18  24771783.669 6 130176631.263 6     -1283.198 6        41.143               
G23  24287821.816 7 127633325.274 7      2073.819 7        47.709               
G24  23345222.162 7 122679964.477 7       772.636 7        46.564               
> 2025 07 28 07 03 19.0000000  0  9                                             
G05  26770861.896 7 140681838.453 7     -3031.136 7        47.932               
G10  28030620.166 6 147301919.832 6      3205.936 6        38.763               
G12  28631356.696 6 150458780.634 6      3153.346 6        41.894               
G13  26526289.369 7 139396585.162 7     -2869.196 7        43.195               
G14  28433284.205 6 149415607.874 6     -1084.415 6        38.257               
G15  23968571.797 7 125955732.137 7     -1449.662 7        46.846               
G18  24772032.987 6 130177918.719 6     -1285.351 6        41.456               
G23  24287425.535 8 127631251.270 8      2072.286 8        48.045               
G24  23345069.248 7 122679187.890 7       774.937 7        46.126               
> 2025 07 28 07 03 20.0000000  0  9                                             
G05  26771437.627 7 140684871.732 7     -3033.431 7        47.589               
G10  28030013.441 6 147298708.466 6      3218.061 6        39.218               
G12  28630755.747 7 150455625.149 7      3153.784 7        42.164               
G13  26526834.218 7 139399451.757 7     -2865.153 7        43.638               
G14  28433500.608 6 149416691.671 6     -1080.579 6        38.357               
G15  23968848.923 7 125957182.179 7     -1449.104 7        45.664               
G18  24772281.496 6 130179206.748 6     -1290.406 6        41.988               
G23  24287031.349 7 127629177.527 7      2071.837 7        47.322               
G24  23344919.845 7 122678411.919 7       775.785 7        45.360               
> 2025 07 28 07 03 21.0000000  0  9                                             
G05  26772013.804 8 140687905.320 8     -3033.409 8        48.236               
G10  28029403.719 6 147295497.168 6      3214.519 6        38.682               
G12  28630149.737 7 150452469.585 7      3155.858 7        42.466               
G13  26527381.412 7 139402318.451 7     -2865.919 7        44.010               
G14  28433711.350 6 149417775.992 6     -1081.033 6        38.761               
G15  23969120.349 7 125958632.555 7     -1448.995 7        45.796               
G18  24772521.499 6 130180495.477 6     -1284.422 6        41.746               
G23  24286637.480 7 127627104.171 7      2070.516 7        47.384               
G24  23344773.940 7 122677636.702 7       772.051 7        45.838               
> 2025 07 28 07 03 22.0000000  0  9                                             
G05  26772592.506 8 140690939.199 8     -3032.482 8        48.807               
G10  28028794.702 6 147292285.858 6      3212.919 6        40.100               
G12  28629553.448 6 150449313.898 6      3151.413 6        41.598               
G13  26527917.125 7 139405185.204 7     -2866.467 7        43.793               
G14  28433908.598 6 149418860.908 6     -1086.453 6        38.194               
G15  23969401.201 7 125960083.221 7     -1457.535 7        46.002               
G18  24772765.885 6 130181784.874 6     -1291.581 6        41.362               
G23  24286239.112 7 127625031.167 7      2073.585 7        47.873               
G24  23344632.515 7 122676862.188 7       774.969 7        45.529               
> 2025 07 28 07 03 23.0000000  0  9                                             
G05  26773171.445 8 140693973.324 8     -3035.086 8        48.208               
G10  28028179.641 6 147289074.520 6      3214.494 6        39.512               
G12  28628950.801 6 150446158.072 6      3156.678 6        41.237               
G13  26528460.656 7 139408051.973 7     -2867.242 7        43.201               
G14  28434114.565 6 149419946.343 6     -1084.458 6        37.928               
G15  23969678.881 7 125961534.173 7     -1450.933 7        45.333               
G18  24773011.789 7 130183074.904 7     -1288.615 7        42.281               
G23  24285844.645 7 127622958.481 7      2071.071 7        47.240               
G24  23344489.554 7 122676088.357 7       770.640 7        45.850               
> 2025 07 28 07 03 24.0000000  0  9                                             
G05  26773749.744 8 140697007.693 8     -3034.856 8        48.520               
G10  28027566.506 6 147285863.114 6      3214.312 6        39.733               
G12  28628352.042 6 150443002.086 6      3156.880 6        40.172               
G13  26529003.901 7 139410918.746 7     -2869.475 7        43.680               
G14  28434308.614 6 149421032.275 6     -1093.088 6        38.068               
G15  23969957.987 7 125962985.374 7     -1448.828 7        46.405               
G18  24773257.278 7 130184365.557 7     -1292.376 7        42.312               
G23  24285449.637 7 127620886.088 7      2071.295 7        47.323               
G24  23344342.389 7 122675315.174 7       770.480 7        46.135               
> 2025 07 28 07 03 25.0000000  0  9                                             
G05  26774328.406 8 140700042.327 8     -3033.475 8        49.113               
G10  28026954.684 6 147282651.694 6      3214.767 6        39.717               
G12  28627753.309 6 150439845.929 6      3159.865 6        40.080               
G13  26529551.658 7 139413785.535 7     -2866.734 7        43.539               
G14  28434509.426 6 149422118.670 6     -1085.805 6        37.512               
G15  23970234.170 7 125964436.837 7     -1453.319 7        46.774               
G18  24773500.744 7 130185656.851 7     -1292.274 7        42.180               
G23  24285055.660 8 127618814.027 8      2071.075 8        48.050               
G24  23344193.241 7 122674542.678 7       771.526 7        46.072               
> 2025 07 28 07 03 26.0000000  0  9                                             
G05  26774903.453 8 140703077.200 8     -3033.834 8        48.962               
G10  28026342.134 6 147279440.217 6      3209.570 6        40.136               
G12  28627150.010 6 150436689.679 6      3149.016 6        39.754               
G13  26530104.039 7 139416652.338 7     -2868.371 7        43.557               
G14  28434713.566 6 149423205.605 6     -1093.282 6        36.994               
G15  23970514.321 7 125965888.554 7     -1449.354 7        46.896               
G18  24773747.184 7 130186948.768 7     -1290.654 7        42.721               
G23  24284660.585 8 127616742.260 8      2072.360 8        48.334               
G24  23344042.788 7 122673770.832 7       775.009 7        45.769               
> 2025 07 28 07 03 27.0000000  0  9                                             
G05  26775480.480 8 140706112.309 8     -3036.340 8        49.126               
G10  28025731.777 6 147276228.684 6      3209.940 6        40.180               
G12  28626555.584 6 150433533.233 6      3158.742 6        41.116               
G13  26530648.464 7 139419519.169 7     -2864.403 7        43.168               
G14  28434917.049 6 149424293.020 6     -1077.124 6        36.151               
G15  23970789.883 7 125967340.532 7     -1451.288 7        47.305               
G18  24773996.350 7 130188241.281 7     -1295.581 7        42.125               
G23  24284268.700 7 127614670.791 7      2074.972 7        47.605               
G24  23343888.874 7 122672999.636 7       769.408 7        45.350               
> 2025 07 28 07 03 28.0000000  0  9                                             
G05  26776059.918 8 140709147.685 8     -3037.170 8        48.664               
G10  28025123.422 6 147273017.139 6      3213.711 6        39.308               
G12  28625953.300 6 150430376.687 6      3156.340 6        41.197               
G13  26531193.330 7 139422386.022 7     -2869.331 7        43.748               
G14  28435135.610 6 149425381.026 6     -1086.422 6        36.911               
G15  23971067.287 7 125968792.796 7     -1452.504 7        46.092               
G18  24774242.460 6 130189534.439 6     -1294.551 6        41.701               
G23  24283877.243 8 127612599.661 8      2072.088 8        48.227               
G24  23343747.543 7 122672229.133 7       766.325 7        45.523               
> 2025 07 28 07 03 29.0000000  0  9                                             
G05  26776636.775 8 140712183.383 8     -3036.584 8        48.615               
G10  28024511.457 6 147269805.639 6      3210.114 6        39.712               
G12  28625350.653 6 150427220.077 6      3154.035 6        41.164               
G13  26531741.606 7 139425252.975 7     -2867.781 7        43.681               
G14  28435357.128 6 149426469.561 6     -1083.310 6        36.926               
G15  23971342.103 7 125970245.389 7     -1450.767 7        46.507               
G18  24774490.205 7 130190828.316 7     -1292.279 7        42.397               
G23  24283481.203 8 127610528.914 8      2072.583 8        48.187               
G24  23343603.067 7 122671459.363 7       768.585 7        45.446               
> 2025 07 28 07 03 30.0000000  0  9                                             
G05  26777214.382 7 140715219.316 7     -3035.927 7        47.534               
G10  28023905.684 6 147266594.070 6      3208.515 6        39.478               
G12  28624749.571 6 150424063.267 6      3164.521 6        41.892               
G13  26532286.396 7 139428119.919 7     -2865.827 7        43.065               
G14  28435579.860 6 149427558.590 6     -1085.375 6        38.193               
G15  23971619.506 7 125971698.250 7     -1455.769 7        46.970               
G18  24774742.489 7 130192122.815 7     -1292.594 7        42.191               
G23  24283088.308 7 127608458.471 7      2070.676 7        47.334               
G24  23343456.617 7 122670690.260 7       769.127 7        46.078               
> 2025 07 28 07 03 31.0000000  0  9                                             
G05  26777790.636 7 140718255.486 7     -3035.960 7        47.484               
G10  28023290.748 6 147263382.439 6      3217.500 6        39.964               
G12  28624144.074 6 150420906.312 6      3160.290 6        41.835               
G13  26532831.634 7 139430986.885 7     -2870.202 7        43.325               
G14  28435782.013 6 149428648.133 6     -1086.835 6        37.964               
G15  23971892.215 7 125973151.349 7     -1450.816 7        46.975               
G18  24774984.574 6 130193417.903 6     -1295.846 6        41.842               
G23  24282693.545 7 127606388.329 7      2067.339 7        47.926               
G24  23343311.257 7 122669921.800 7       770.885 7        45.895               
> 2025 07 28 07 03 32.0000000  0  9                                             
G05  26778365.536 7 140721291.888 7     -3036.709 7        47.714               
G10  28022682.402 6 147260170.737 6      3214.117 6        40.516               
G12  28623545.051 6 150417749.163 6      3162.630 6        41.591               
G13  26533378.681 7 139433853.800 7     -2869.396 7        43.792               
G14  28435997.352 6 149429738.165 6     -1094.029 6        37.342               
G15  23972173.294 7 125974604.670 7     -1455.393 7        46.902               
G18  24775227.709 7 130194713.606 7     -1289.774 7        42.296               
G23  24282300.056 8 127604318.449 8      2071.487 8        48.198               
G24  23343162.659 7 122669153.983 7       767.935 7        45.441               
> 2025 07 28 07 03 33.0000000  0  9                                             
G05  26778946.637 7 140724328.504 7     -3033.482 7        47.055               
G10  28022075.949 6 147256958.980 6      3209.771 6        40.814               
G12  28622946.412 6 150414591.820 6      3165.851 6        41.184               
G13  26533917.945 7 139436720.745 7     -2863.599 7        43.403               
G14  28436192.268 6 149430828.674 6     -1088.207 6        37.545               
G15  23972445.967 7 125976058.234 7     -1450.664 7        47.067               
G18  24775477.326 7 130196009.908 7     -1300.620 7        42.495               
G23  24281906.357 8 127602248.858 8      2068.090 8        48.448               
G24  23343012.121 7 122668386.797 7       768.496 7        45.725               
> 2025 07 28 07 03 34.0000000  0  9                                             
G05  26779526.496 7 140727365.408 7     -3036.912 7        47.437               
G10  28021463.926 6 147253747.210 6      3207.925 6        40.873               
G12  28622343.904 6 150411434.415 6      3156.546 6        40.132               
G13  26534460.596 7 139439587.720 7     -2868.449 7        43.229               
G14  28436384.864 6 149431919.735 6     -1097.063 6        36.434               
G15  23972720.538 7 125977512.103 7     -1453.967 7        46.857               
G18  24775719.366 6 130197306.877 6     -1291.230 6        41.821               
G23  24281513.229 8 127600179.624 8      2069.994 8        48.251               
G24  23342861.101 7 122667620.316 7       763.858 7        45.309               
> 2025 07 28 07 03 35.0000000  0  9                                             
G05  26780101.851 7 140730402.549 7     -3038.926 7        47.793               
G10  28020851.667 6 147250535.416 6      3207.209 6        40.001               
G12  28621735.545 6 150408276.822 6      3154.431 6        41.279               
G13  26535006.808 7 139442454.728 7     -2868.175 7        43.130               
G14  28436574.700 5 149433011.288 5     -1087.475 5        34.764               
G15  23972998.258 7 125978966.225 7     -1452.882 7        46.883               
G18  24775966.763 6 130198604.471 6     -1303.802 6        41.833               
G23  24281119.722 8 127598110.682 8      2066.660 8        48.571               
G24  23342719.306 7 122666854.487 7       763.728 7        45.239               
> 2025 07 28 07 03 36.0000000  0  9                                             
G05  26780679.503 7 140733439.975 7     -3039.560 7        47.463               
G10  28020238.375 6 147247323.559 6      3211.295 6        40.222               
G12  28621146.202 6 150405119.121 6      3157.708 6        41.040               
G13  26535550.071 7 139445321.776 7     -2867.160 7        43.446               
G14  28436775.186 5 149434103.374 5     -1093.481 5        34.432               
G15  23973275.451 7 125980420.641 7     -1456.536 7        46.360               
G18  24776215.151 7 130199902.724 7     -1297.192 7        42.010               
G23  24280726.684 8 127596042.095 8      2066.866 8        48.524               
G24  23342579.369 7 122666089.347 7       769.637 7        45.701               
> 2025 07 28 07 03 37.0000000  0  9                                             
G05  26781258.602 7 140736477.575 7     -3037.401 7        47.560               
G10  28019631.074 6 147244111.657 6      3216.583 6        40.607               
G12  28620542.738 7 150401961.213 7      3159.639 7        42.194               
G13  26536097.644 7 139448188.755 7     -2865.222 7        42.935               
G14  28436991.960 5 149435195.919 5     -1109.526 5        34.546               
G15  23973550.286 7 125981875.263 7     -1458.369 7        46.357               
G18  24776463.035 7 130201201.517 7     -1298.282 7        42.025               
G23  24280332.216 7 127593973.755 7      2071.679 7        47.894               
G24  23342437.958 7 122665324.844 7       765.850 7        45.722               
> 2025 07 28 07 03 38.0000000  0  9                                             
G05  26781837.523 7 140739515.455 7     -3041.971 7        47.291               
G10  28019012.131 6 147240899.698 6      3210.123 6        40.479               
G12  28619939.069 6 150398803.165 6      3153.904 6        41.931               
G13  26536643.539 7 139451055.783 7     -2866.178 7        43.804               
G14  28437210.038 6 149436288.933 6     -1103.522 6        36.344               
G15  23973827.421 7 125983330.160 7     -1452.291 7        46.255               
G18  24776713.125 7 130202500.963 7     -1298.809 7        42.069               
G23  24279941.430 8 127591905.750 8      2068.929 8        48.201               
G24  23342294.251 7 122664561.018 7       765.591 7        45.247               
> 2025 07 28 07 03 39.0000000  0  9                                             
G05  26782415.555 7 140742553.607 7     -3038.036 7        47.623               
G10  28018403.240 6 147237687.765 6      3215.449 6        40.011               
G12  28619338.375 6 150395645.017 6      3159.190 6        41.468               
G13  26537193.266 7 139453922.876 7     -2868.208 7        43.744               
G14  28437429.224 6 149437382.540 6     -1099.884 6        36.098               
G15  23974105.418 7 125984785.370 7     -1455.895 7        46.600               
G18  24776957.037 7 130203801.088 7     -1296.373 7        42.566               
G23  24279547.128 8 127589838.102 8      2064.912 8        48.404               
G24  23342148.851 7 122663797.908 7       766.411 7        45.596               
> 2025 07 28 07 03 40.0000000  0  9                                             
G05  26782995.891 7 140745592.071 7     -3038.683 7        47.793               
G10  28017787.201 6 147234475.805 6      3223.526 6        40.974               
G12  28618735.867 6 150392486.746 6      3163.093 6        41.835               
G13  26537738.954 7 139456790.014 7     -2861.924 7        43.448               
G14  28437644.179 6 149438476.728 6     -1096.043 6        36.809               
G15  23974385.569 7 125986240.888 7     -1456.421 7        46.686               
G18  24777208.428 7 130205101.891 7     -1302.202 7        42.373               
G23  24279155.005 8 127587770.797 8      2067.622 8        48.375               
G24  23341996.276 7 122663035.483 7       763.695 7        45.885               
> 2025 07 28 07 03 41.0000000  0  9                                             
G05  26783571.462 8 140748630.792 8     -3039.485 8        48.085               
G10  28017172.663 6 147231263.854 6      3215.135 6        40.193               
G12  28618135.330 7 150389328.358 7      3161.316 7        42.033               
G13  26538287.216 7 139459657.188 7     -2866.603 7        43.141               
G14  28437856.754 6 149439571.439 6     -1086.440 6        36.888               
G15  23974660.403 7 125987696.675 7     -1454.635 7        46.806               
G18  24777449.159 7 130206403.332 7     -1300.744 7        42.644               
G23  24278760.229 7 127585703.836 7      2066.421 7        47.970               
G24  23341849.625 7 122662273.759 7       763.699 7        45.868               
> 2025 07 28 07 03 42.0000000  0  9                                             
G05  26784151.155 7 140751669.767 7     -3039.209 7        47.947               
G10  28016570.459 6 147228051.871 6      3205.944 6        40.067               
G12  28617530.374 6 150386169.814 6      3162.634 6        41.139               
G13  26538829.394 7 139462524.401 7     -2866.575 7        42.976               
G14  28438074.774 6 149440666.670 6     -1101.149 6        37.173               
G15  23974937.315 7 125989152.749 7     -1451.633 7        46.648               
G18  24777696.172 7 130207705.408 7     -1306.291 7        42.355               
G23  24278366.338 8 127583637.193 8      2065.636 8        48.236               
G24  23341702.934 7 122661512.718 7       758.552 7        45.568               
> 2025 07 28 07 03 43.0000000  0  9                                             
G05  26784730.822 8 140754708.933 8     -3040.085 8        48.791               
G10  28015958.083 6 147224839.790 6      3210.631 6        40.398               
G12  28616926.128 6 150383011.084 6      3155.486 6        41.151               
G13  26539373.389 7 139465391.573 7     -2865.036 7        43.289               
G14  28438277.475 6 149441762.371 6     -1092.685 6        37.327               
G15  23975216.103 7 125990609.027 7     -1458.987 7        46.982               
G18  24777945.074 7 130209008.079 7     -1311.819 7        42.259               
G23  24277971.835 8 127581570.815 8      2067.578 8        48.210               
G24  23341559.316 7 122660752.276 7       759.758 7        45.177               
> 2025 07 28 07 03 44.0000000  0  9                                             
G05  26785306.691 8 140757748.416 8     -3038.168 8        48.017               
G10  28015345.269 6 147221627.730 6      3209.086 6        39.831               
G12  28616327.503 6 150379852.274 6      3153.172 6        40.943               
G13  26539916.523 7 139468258.858 7     -2872.196 7        43.318               
G14  28438471.064 6 149442858.630 6     -1098.136 6        36.388               
G15  23975494.136 7 125992065.639 7     -1456.154 7        46.988               
G18  24778196.888 6 130210311.437 6     -1308.236 6        41.935               
G23  24277579.753 8 127579504.806 8      2063.373 8        48.494               
G24  23341421.550 7 122659992.581 7       762.750 7        45.027               
> 2025 07 28 07 03 45.0000000  0  9                                             
G05  26785885.804 8 140760788.141 8     -3041.345 8        48.402               
G10  28014737.995 6 147218415.606 6      3218.304 6        40.091               
G12  28615727.170 6 150376693.301 6      3161.472 6        40.591               
G13  26540460.563 7 139471126.108 7     -2864.291 7        43.241               
G14  28438684.031 6 149443955.356 6     -1090.921 6        36.117               
G15  23975772.705 7 125993522.512 7     -1455.815 7        46.875               
G18  24778444.200 6 130211615.391 6     -1308.475 6        41.888               
G23  24277186.505 8 127577439.115 8      2063.858 8        48.082               
G24  23341279.362 7 122659233.558 7       758.031 7        45.588               
> 2025 07 28 07 03 46.0000000  0  9                                             
G05  26786463.116 8 140763828.162 8     -3041.544 8        48.098               
G10  28014119.025 6 147215203.524 6      3211.345 6        40.092               
G12  28615127.808 6 150373534.217 6      3164.088 6        40.604               
G13  26541011.090 7 139473993.446 7     -2867.907 7        42.885               
G14  28438884.772 5 149445052.624 5     -1094.101 5        35.983               
G15  23976050.412 7 125994979.675 7     -1455.851 7        46.734               
G18  24778688.045 6 130212920.019 6     -1302.276 6        41.491               
G23  24276792.001 7 127575373.766 7      2062.039 7        47.764               
G24  23341133.229 7 122658475.218 7       753.379 7        45.789               
> 2025 07 28 07 03 47.0000000  0  9                                             
G05  26787042.247 8 140766868.432 8     -3040.424 8        48.971               
G10  28013506.824 6 147211991.377 6      3211.375 6        39.818               
G12  28614522.999 6 150370374.993 6      3158.928 6        40.291               
G13  26541555.469 7 139476860.793 7     -2869.149 7        42.504               
G14  28439093.085 5 149446150.439 5     -1092.662 5        35.957               
G15  23976325.631 7 125996437.113 7     -1459.232 7        46.487               
G18  24778938.967 6 130214225.298 6     -1306.934 6        41.526               
G23  24276399.271 8 127573308.734 8      2068.417 8        48.228               
G24  23340982.178 7 122657717.560 7       755.780 7        45.746               
> 2025 07 28 07 03 48.0000000  0  9                                             
G05  26787622.199 8 140769908.981 8     -3039.156 8        48.654               
G10  28012899.447 6 147208779.233 6      3214.876 6        40.041               
G12  28613923.444 6 150367215.675 6      3161.514 6        40.701               
G13  26542098.232 7 139479728.174 7     -2868.972 7        42.790               
G14  28439317.810 5 149447248.788 5     -1100.303 5        34.989               
G15  23976602.931 7 125997894.851 7     -1461.703 7        46.058               
G18  24779183.973 6 130215531.206 6     -1309.164 6        41.684               
G23  24276007.252 8 127571244.046 8      2062.882 8        48.216               
G24  23340834.682 7 122656960.567 7       755.242 7        45.342               
> 2025 07 28 07 03 49.0000000  0  9                                             
G05  26788199.463 8 140772949.752 8     -3040.288 8        48.186               
G10  28012281.920 6 147205566.996 6      3215.649 6        40.006               
G12  28613326.767 6 150364056.150 6      3169.235 6        40.999               
G13  26542645.842 7 139482595.557 7     -2864.229 7        42.133               
G14  28439517.988 5 149448347.623 5     -1099.054 5        35.459               
G15  23976877.087 7 125999352.810 7     -1460.296 7        45.642               
G18  24779433.800 7 130216837.744 7     -1307.152 7        42.290               
G23  24275612.261 7 127569179.639 7      2060.280 7        47.524               
G24  23340690.542 7 122656204.234 7       758.829 7        45.341               
> 2025 07 28 07 03 50.0000000  0  9                                             
G05  26788780.563 8 140775990.755 8     -3039.114 8        48.595               
G10  28011664.568 6 147202354.751 6      3209.875 6        40.161               
G12  28612730.321 6 150360896.486 6      3158.676 6        40.821               
G13  26543197.619 7 139485462.939 7     -2870.961 7        42.490               
G14  28439736.168 5 149449446.926 5     -1095.148 5        35.694               
G15  23977158.046 7 126000811.023 7     -1458.317 7        45.873               
G18  24779685.159 7 130218144.883 7     -1306.088 7        42.329               
G23  24275217.428 7 127567115.549 7      2063.359 7        47.670               
G24  23340548.970 7 122655448.559 7       755.051 7        45.552               
> 2025 07 28 07 03 51.0000000  0  9                                             
G05  26789356.884 8 140779032.080 8     -3039.916 8        48.353               
G10  28011055.699 6 147199142.489 6      3209.986 6        39.395               
G12  28612121.327 6 150357736.712 6      3156.804 6        41.501               
G13  26543737.880 7 139488330.396 7     -2866.605 7        42.358               
G14  28439947.559 5 149450546.914 5     -1102.910 5        35.655               
G15  23977435.556 7 126002269.570 7     -1458.367 7        46.813               
G18  24779933.163 7 130219452.724 7     -1309.940 7        42.272               
G23  24274825.243 8 127565051.826 8      2062.797 8        48.064               
G24  23340409.391 7 122654693.622 7       757.461 7        46.094               
> 2025 07 28 07 03 52.0000000  0  9                                             
G05  26789937.015 7 140782073.597 7     -3039.760 7        47.924               
G10  28010446.182 6 147195930.155 6      3213.310 6        39.335               
G12  28611522.335 7 150354576.760 7      3166.203 7        42.104               
G13  26544286.106 7 139491197.829 7     -2864.008 7        42.195               
G14  28440164.520 5 149451647.222 5     -1090.931 5        35.727               
G15  23977712.566 7 126003728.324 7     -1457.889 7        46.947               
G18  24780182.432 7 130220761.114 7     -1306.571 7        42.653               
G23  24274433.840 7 127562988.363 7      2061.451 7        47.890               
G24  23340271.799 7 122653939.291 7       755.743 7        45.884               
> 2025 07 28 07 03 53.0000000  0  9                                             
G05  26790516.552 8 140785115.406 8     -3042.041 8        48.436               
G10  28009836.013 6 147192717.824 6      3205.506 6        38.954               
G12  28610926.425 6 150351416.708 6      3155.485 6        41.519               
G13  26544827.145 7 139494065.311 7     -2868.906 7        43.060               
G14  28440382.487 5 149452748.202 5     -1101.706 5        35.237               
G15  23977988.424 7 126005187.380 7     -1458.207 7        46.007               
G18  24780434.845 7 130222070.159 7     -1310.691 7        42.576               
G23  24274044.326 8 127560925.249 8      2066.999 8        48.020               
G24  23340128.722 7 122653185.683 7       758.777 7        45.671               
> 2025 07 28 07 03 54.0000000  0  9                                             
G05  26791091.046 7 140788157.495 7     -3042.970 7        47.821               
G10  28009226.992 6 147189505.496 6      3210.316 6        39.375               
G12  28610321.840 6 150348256.523 6      3162.177 6        41.491               
G13  26545374.057 7 139496932.859 7     -2866.228 7        42.153               
G14  28440573.301 5 149453849.639 5     -1105.833 5        34.437               
G15  23978268.467 7 126006646.751 7     -1458.038 7        46.706               
G18  24780684.149 7 130223379.892 7     -1310.788 7        42.369               
G23  24273650.158 7 127558862.498 7      2063.144 7        47.981               
G24  23339981.383 7 122652432.783 7       752.406 7        45.563               
> 2025 07 28 07 03 55.0000000  0  8                                             
G05  26791671.936 8 140791199.803 8     -3043.002 8        48.280               
G10  28008610.555 6 147186293.095 6      3215.937 6        39.076               
G12  28609720.280 6 150345096.197 6      3154.113 6        41.325               
G13  26545919.572 7 139499800.393 7     -2865.910 7        42.991               
G15  23978545.102 7 126008106.356 7     -1458.714 7        45.934               
G18  24780934.508 7 130224690.215 7     -1311.406 7        42.214               
G23  24273258.299 8 127556800.043 8      2062.392 8        48.112               
G24  23339832.994 7 122651680.516 7       755.801 7        44.977               
> 2025 07 28 07 03 56.0000000  0  8                                             
G05  26792251.576 8 140794242.357 8     -3043.179 8        48.689               
G10  28008001.655 6 147183080.658 6      3206.075 6        40.408               
G12  28609118.504 6 150341935.697 6      3160.969 6        40.677               
G13  26546469.268 7 139502667.955 7     -2868.152 7        43.487               
G15  23978824.033 7 126009566.212 7     -1457.736 7        46.563               
G18  24781183.387 7 130226001.171 7     -1307.294 7        42.668               
G23  24272866.172 8 127554737.896 8      2061.238 8        48.078               
G24  23339686.977 7 122650928.903 7       748.599 7        45.229               
> 2025 07 28 07 03 57.0000000  0  8                                             
G05  26792831.654 7 140797285.223 7     -3042.597 7        47.817               
G10  28007393.858 6 147179868.246 6      3212.668 6        39.591               
G12  28608518.436 6 150338775.128 6      3164.105 6        40.032               
G13  26547013.469 7 139505535.585 7     -2864.746 7        43.702               
G15  23979099.502 7 126011026.399 7     -1461.285 7        46.389               
G18  24781437.588 7 130227312.822 7     -1309.810 7        43.012               
G23  24272473.264 7 127552676.120 7      2060.296 7        47.784               
G24  23339545.035 7 122650178.027 7       751.043 7        44.979               
> 2025 07 28 07 03 58.0000000  0  8                                             
G05  26793410.534 7 140800328.318 7     -3044.389 7        47.798               
G10  28006782.451 6 147176655.784 6      3219.023 6        39.769               
G12  28607915.669 6 150335614.400 6      3149.463 6        40.244               
G13  26547555.521 7 139508403.216 7     -2863.438 7        43.178               
G15  23979380.966 7 126012486.820 7     -1461.653 7        46.528               
G18  24781687.481 7 130228625.094 7     -1312.862 7        43.074               
G23  24272081.079 7 127550614.643 7      2063.463 7        47.619               
G24  23339409.092 7 122649427.788 7       749.492 7        45.482               
> 2025 07 28 07 03 59.0000000  0  8                                             
G05  26793988.995 7 140803371.758 7     -3044.782 7        47.517               
G10  28006166.899 6 147173443.358 6      3213.966 6        39.986               
G12  28607316.043 6 150332453.558 6      3163.723 6        41.111               
G13  26548100.240 7 139511270.950 7     -2865.853 7        43.048               
G15  23979654.429 7 126013947.575 7     -1458.954 7        46.057               
G18  24781934.110 7 130229938.046 7     -1318.701 7        42.771               
G23  24271686.308 7 127548553.566 7      2060.381 7        47.819               
G24  23339270.540 7 122648678.310 7       753.058 7        46.352               
> 2025 07 28 07 04 00.0000000  0  8                                             
G05  26794568.139 8 140806415.525 8     -3043.229 8        48.585               
G10  28005559.000 6 147170230.984 6      3208.443 6        39.961               
G12  28606716.979 6 150329292.692 6      3160.356 6        41.206               
G13  26548648.484 7 139514138.797 7     -2868.085 7        42.752               
G15  23979933.275 7 126015408.702 7     -1462.788 7        46.541               
G18  24782186.621 7 130231251.723 7     -1308.815 7        42.658               
G23  24271295.378 7 127546492.883 7      2059.020 7        47.547               
G24  23339129.245 7 122647929.605 7       750.805 7        46.094               
> 2025 07 28 07 04 01.0000000  0  8                                             
G05  26795148.471 8 140809459.498 8     -3041.725 8        48.007               
G10  28004946.695 6 147167018.502 6      3212.986 6        39.814               
G12  28606114.324 6 150326131.621 6      3159.556 6        41.510               
G13  26549191.828 7 139517006.579 7     -2864.038 7        43.276               
G15  23980210.817 7 126016870.024 7     -1464.245 7        46.327               
G18  24782439.571 7 130232565.978 7     -1315.673 7        43.024               
G23  24270903.425 7 127544432.460 7      2060.756 7        47.158               
G24  23338986.802 7 122647181.503 7       750.288 7        46.324               
> 2025 07 28 07 04 02.0000000  0  8                                             
G05  26795727.191 8 140812503.679 8     -3044.413 8        48.813               
G10  28004333.171 6 147163805.951 6      3218.099 6        39.465               
G12  28605513.912 6 150322970.386 6      3159.002 6        41.472               
G13  26549742.560 7 139519874.361 7     -2867.533 7        43.069               
G15  23980487.572 7 126018331.590 7     -1459.961 7        45.827               
G18  24782684.224 7 130233880.822 7     -1320.849 7        42.769               
G23  24270511.750 7 127542372.321 7      2061.198 7        47.637               
G24  23338836.590 7 122646434.035 7       746.187 7        46.294               
> 2025 07 28 07 04 03.0000000  0  8                                             
G05  26796307.492 8 140815548.094 8     -3043.772 8        48.284               
G10  28003722.475 6 147160593.366 6      3211.556 6        39.177               
G12  28604911.462 6 150319808.983 6      3165.707 6        41.687               
G13  26550287.811 7 139522742.161 7     -2866.099 7        43.201               
G15  23980765.529 7 126019793.410 7     -1461.743 7        45.964               
G18  24782936.209 7 130235196.276 7     -1315.416 7        42.335               
G23  24270119.449 7 127540312.501 7      2057.033 7        47.114               
G24  23338691.204 7 122645687.218 7       743.379 7        45.982               
> 2025 07 28 07 04 04.0000000  0  8                                             
G05  26796886.059 8 140818592.784 8     -3041.795 8        48.656               
G10  28003108.308 6 147157380.763 6      3210.615 6        39.655               
G12  28604308.132 6 150316647.468 6      3161.594 6        41.246               
G13  26550839.213 7 139525610.009 7     -2870.401 7        42.647               
G15  23981039.881 7 126021255.506 7     -1464.259 7        46.499               
G18  24783184.892 7 130236512.384 7     -1316.237 7        42.278               
G23  24269725.374 7 127538252.997 7      2059.306 7        47.953               
G24  23338550.141 7 122644941.087 7       749.042 7        45.420               
> 2025 07 28 07 04 05.0000000  0  8                                             
G05  26797466.418 8 140821637.724 8     -3045.322 8        48.251               
G10  28002503.674 6 147154168.097 6      3216.576 6        39.220               
G12  28603707.277 6 150313485.801 6      3163.640 6        41.563               
G13  26551384.326 7 139528477.869 7     -2863.358 7        42.799               
G15  23981320.849 7 126022717.870 7     -1459.093 7        46.351               
G18  24783435.456 7 130237829.118 7     -1319.441 7        43.004               
G23  24269333.748 7 127536193.821 7      2059.487 7        47.350               
G24  23338412.541 7 122644195.638 7       744.094 7        45.567               
> 2025 07 28 07 04 06.0000000  0  8                                             
G05  26798045.165 8 140824682.945 8     -3045.161 8        48.548               
G10  28001890.212 6 147150955.446 6      3215.300 6        39.347               
G12  28603102.058 6 150310324.011 6      3159.763 6        41.592               
G13  26551929.795 7 139531345.764 7     -2868.413 7        42.576               
G15  23981603.157 7 126024180.528 7     -1459.784 7        46.546               
G18  24783688.785 7 130239146.500 7     -1313.746 7        42.546               
G23  24268941.496 7 127534134.987 7      2055.970 7        47.688               
G24  23338279.215 7 122643450.876 7       744.900 7        46.084               
> 2025 07 28 07 04 07.0000000  0  8                                             
G05  26798623.670 8 140827728.407 8     -3045.675 8        48.373               
G10  28001286.172 6 147147742.760 6      3206.879 6        39.159               
G12  28602502.190 6 150307162.064 6      3164.095 6        41.226               
G13  26552473.961 6 139534213.674 6     -2865.276 6        41.681               
G15  23981878.559 7 126025643.472 7     -1465.355 7        46.411               
G18  24783937.553 7 130240464.518 7     -1314.706 7        42.923               
G23  24268550.330 7 127532076.467 7      2059.241 7        47.283               
G24  23338141.030 7 122642706.792 7       742.742 7        45.620               
> 2025 07 28 07 04 08.0000000  0  8                                             
G05  26799203.211 8 140830774.086 8     -3046.090 8        48.283               
G10  28000671.406 6 147144529.981 6      3206.924 6        38.914               
G12  28601900.447 6 150303999.953 6      3165.811 6        40.937               
G13  26553019.221 7 139537081.562 7     -2867.199 7        42.307               
G15  23982161.448 7 126027106.614 7     -1466.266 7        46.827               
G18  24784188.229 7 130241783.126 7     -1316.275 7        43.256               
G23  24268158.359 7 127530018.219 7      2059.290 7        47.532               
G24  23337993.637 7 122641963.334 7       745.058 7        46.412               
> 2025 07 28 07 04 09.0000000  0  8                                             
G05  26799781.864 7 140833820.041 7     -3048.427 7        47.713               
G10  28000058.065 6 147141317.207 6      3215.245 6        39.380               
G12  28601297.809 6 150300837.714 6      3165.000 6        41.042               
G13  26553563.596 7 139539949.494 7     -2870.630 7        42.420               
G15  23982440.214 7 126028570.059 7     -1462.259 7        47.141               
G18  24784439.771 7 130243102.382 7     -1320.117 7        42.919               
G23  24267766.961 7 127527960.332 7      2060.696 7        47.729               
G24  23337845.780 7 122641220.578 7       743.957 7        46.469               
> 2025 07 28 07 04 10.0000000  0  8                                             
G05  26800361.799 7 140836866.237 7     -3046.873 7        47.870               
G10  27999447.570 6 147138104.392 6      3213.450 6        39.464               
G12  28600695.239 6 150297675.361 6      3154.476 6        41.080               
G13  26554107.734 7 139542817.458 7     -2868.759 7        42.424               
G15  23982721.057 7 126030033.756 7     -1462.821 7        47.102               
G18  24784691.554 7 130244422.267 7     -1320.974 7        42.750               
G23  24267375.115 7 127525902.737 7      2058.692 7        47.544               
G24  23337699.281 7 122640478.473 7       742.901 7        45.600               
> 2025 07 28 07 04 11.0000000  0  8                                             
G05  26800941.170 7 140839912.709 7     -3047.468 7        47.802               
G10  27998831.000 6 147134891.572 6      3212.020 6        39.725               
G12  28600091.691 6 150294512.865 6      3166.375 6        40.524               
G13  26554650.577 7 139545685.452 7     -2869.300 7        42.800               
G15  23982997.415 7 126031497.745 7     -1466.140 7        47.196               
G18  24784942.065 7 130245742.803 7     -1319.608 7        42.816               
G23  24266986.000 7 127523845.504 7      2055.254 7        47.890               
G24  23337559.170 7 122639737.062 7       741.812 7        45.170               
> 2025 07 28 07 04 12.0000000  0  8                                             
G05  26801522.544 7 140842959.442 7     -3046.446 7        47.886               
G10  27998225.499 6 147131678.739 6      3213.027 6        39.284               
G12  28599499.560 6 150291350.226 6      3163.783 6        40.990               
G13  26555202.806 7 139548553.483 7     -2868.807 7        42.590               
G15  23983274.130 7 126032962.032 7     -1462.628 7        47.086               
G18  24785191.436 7 130247063.993 7     -1314.975 7        42.704               
G23  24266592.774 7 127521788.596 7      2056.669 7        47.338               
G24  23337421.551 7 122638996.328 7       742.085 7        45.701               
> 2025 07 28 07 04 13.0000000  0  8                                             
G05  26802102.157 7 140846006.410 7     -3046.819 7        47.231               
G10  27997611.421 6 147128465.823 6      3208.385 6        39.319               
G12  28598889.378 6 150288187.459 6      3163.766 6        40.533               
G13  26555747.722 7 139551421.512 7     -2868.750 7        42.637               
G15  23983552.051 7 126034426.552 7     -1463.961 7        47.046               
G18  24785435.960 7 130248385.778 7     -1320.503 7        43.128               
G23  24266202.765 7 127519732.001 7      2052.963 7        47.842               
G24  23337288.204 7 122638256.275 7       739.962 7        46.217               
> 2025 07 28 07 04 14.0000000  0  8                                             
G05  26802681.296 7 140849053.632 7     -3047.668 7        47.681               
G10  27997002.315 6 147125252.866 6      3217.009 6        39.562               
G12  28598291.288 6 150285024.536 6      3164.479 6        40.790               
G13  26556294.939 7 139554289.529 7     -2865.996 7        42.603               
G15  23983826.689 7 126035891.332 7     -1464.599 7        47.146               
G18  24785688.342 7 130249708.181 7     -1320.909 7        42.756               
G23  24265810.173 7 127517675.697 7      2060.962 7        47.466               
G24  23337150.773 7 122637516.875 7       740.415 7        46.457               
> 2025 07 28 07 04 15.0000000  0  8                                             
G05  26803261.334 7 140852101.105 7     -3046.714 7        46.918               
G10  27996386.115 6 147122039.900 6      3212.394 6        39.169               
G12  28597680.579 6 150281861.447 6      3165.097 6        41.346               
G13  26556840.833 7 139557157.588 7     -2868.232 7        43.012               
G15  23984104.472 7 126037356.391 7     -1466.061 7        47.060               
G18  24785937.888 7 130251031.227 7     -1326.388 7        42.618               
G23  24265420.611 7 127515619.729 7      2054.850 7        47.014               
G24  23337008.026 7 122636778.146 7       738.323 7        46.305               
> 2025 07 28 07 04 16.0000000  0  8                                             
G05  26803840.192 7 140855148.818 7     -3050.821 7        47.112               
G10  27995778.667 6 147118826.874 6      3217.725 6        39.332               
G12  28597084.799 6 150278698.248 6      3162.550 6        41.146               
G13  26557384.815 7 139560025.659 7     -2865.895 7        42.353               
G15  23984384.297 7 126038821.692 7     -1463.503 7        47.115               
G18  24786192.646 7 130252354.894 7     -1321.298 7        42.220               
G23  24265029.163 7 127513564.057 7      2057.169 7        47.596               
G24  23336861.979 7 122636040.094 7       739.059 7        45.655               
> 2025 07 28 07 04 17.0000000  0  8                                             
G05  26804418.956 7 140858196.756 7     -3048.762 7        47.016               
G10  27995169.431 6 147115613.800 6      3210.151 6        39.057               
G12  28596480.450 6 150275534.844 6      3164.656 6        40.908               
G13  26557929.226 7 139562893.734 7     -2869.358 7        42.578               
G15  23984664.863 7 126040287.250 7     -1469.317 7        46.975               
G18  24786443.599 6 130253679.167 6     -1321.190 6        41.943               
G23  24264638.140 7 127511508.685 7      2053.870 7        46.975               
G24  23336711.356 7 122635302.667 7       736.140 7        45.695               
> 2025 07 28 07 04 18.0000000  0  8                                             
G05  26805000.155 7 140861244.947 7     -3046.889 7        47.466               
G10  27994556.935 6 147112400.693 6      3216.432 6        39.496               
G12  28595879.890 6 150272371.355 6      3166.181 6        41.469               
G13  26558477.206 7 139565761.818 7     -2868.854 7        42.705               
G15  23984944.245 7 126041753.061 7     -1466.030 7        46.644               
G18  24786696.602 6 130255004.079 6     -1331.700 6        41.630               
G23  24264247.639 7 127509453.640 7      2052.158 7        47.212               
G24  23336571.946 7 122634565.911 7       737.052 7        45.230               
> 2025 07 28 07 04 19.0000000  0  8                                             
G05  26805579.915 7 140864293.393 7     -3047.650 7        47.316               
G10  27993944.010 6 147109187.530 6      3215.980 6        39.338               
G12  28595279.487 6 150269207.685 6      3163.463 6        40.732               
G13  26559022.118 7 139568629.913 7     -2868.984 7        43.070               
G15  23985225.342 7 126043219.147 7     -1464.221 7        46.510               
G18  24786953.764 7 130256329.606 7     -1326.965 7        42.871               
G23  24263855.114 7 127507398.912 7      2052.774 7        46.928               
G24  23336432.832 7 122633829.827 7       735.530 7        45.457               
> 2025 07 28 07 04 20.0000000  0  8                                             
G05  26806162.928 7 140867342.111 7     -3051.962 7        47.398               
G10  27993339.241 6 147105974.414 6      3205.553 6        39.670               
G12  28594678.382 6 150266043.928 6      3164.896 6        41.121               
G13  26559564.184 7 139571498.077 7     -2872.292 7        42.629               
G15  23985507.588 7 126044685.529 7     -1467.166 7        46.106               
G18  24787206.963 7 130257655.789 7     -1322.629 7        42.195               
G23  24263463.135 7 127505344.532 7      2055.265 7        47.167               
G24  23336302.432 7 122633094.436 7       735.402 7        46.003               
> 2025 07 28 07 04 21.0000000  0  8                                             
G05  26806742.224 7 140870391.005 7     -3049.412 7        47.674               
G10  27992726.262 6 147102761.155 6      3214.201 6        39.648               
G12  28594072.559 6 150262879.947 6      3162.047 6        41.026               
G13  26560109.180 7 139574366.193 7     -2869.100 7        42.698               
G15  23985787.002 7 126046152.120 7     -1465.926 7        46.891               
G18  24787461.811 7 130258982.528 7     -1327.131 7        42.354               
G23  24263074.421 7 127503290.407 7      2051.785 7        47.327               
G24  23336166.521 7 122632359.678 7       734.240 7        46.462               
> 2025 07 28 07 04 22.0000000  0  8                                             
G05  26807321.198 7 140873440.205 7     -3050.728 7        47.946               
G10  27992111.246 6 147099547.914 6      3215.983 6        40.033               
G12  28593471.986 6 150259715.885 6      3161.628 6        41.078               
G13  26560650.164 7 139577234.350 7     -2867.581 7        43.107               
G15  23986063.364 7 126047619.005 7     -1465.658 7        46.659               
G18  24787715.047 7 130260309.950 7     -1332.701 7        42.908               
G23  24262682.308 7 127501236.643 7      2051.744 7        47.113               
G24  23336026.486 7 122631625.609 7       735.285 7        46.614               
> 2025 07 28 07 04 23.0000000  0  8                                             
G05  26807902.893 7 140876489.640 7     -3050.063 7        47.771               
G10  27991503.597 6 147096334.637 6      3212.341 6        39.464               
G12  28592867.191 6 150256551.646 6      3165.894 6        40.978               
G13  26561200.865 7 139580102.548 7     -2867.913 7        42.793               
G15  23986341.156 7 126049086.158 7     -1464.125 7        46.561               
G18  24787970.382 7 130261637.989 7     -1328.943 7        43.159               
G23  24262292.428 7 127499183.188 7      2051.367 7        47.180               
G24  23335882.305 7 122630892.226 7       732.869 7        46.674               
> 2025 07 28 07 04 24.0000000  0  8                                             
G05  26808482.805 7 140879539.296 7     -3050.938 7        47.683               
G10  27990889.506 6 147093121.302 6      3214.013 6        39.392               
G12  28592268.132 6 150253387.248 6      3158.845 6        41.132               
G13  26561752.844 7 139582970.726 7     -2870.165 7        42.391               
G15  23986624.447 7 126050553.560 7     -1464.373 7        46.597               
G18  24788222.420 7 130262966.635 7     -1330.119 7        43.646               
G23  24261904.639 7 127497130.024 7      2053.633 7        47.385               
G24  23335737.807 7 122630159.457 7       735.232 7        46.645               
> 2025 07 28 07 04 25.0000000  0  8                                             
G05  26809064.370 7 140882589.184 7     -3050.082 7        47.777               
G10  27990279.202 6 147089907.896 6      3212.601 6        39.756               
G12  28591662.779 6 150250222.699 6      3163.278 6        40.787               
G13  26562297.662 6 139585838.894 6     -2865.954 6        41.674               
G15  23986900.420 7 126052021.194 7     -1467.303 7        46.854               
G18  24788475.785 7 130264295.859 7     -1327.005 7        43.771               
G23  24261512.767 7 127495077.158 7      2054.710 7        47.025               
G24  23335596.351 7 122629427.346 7       727.667 7        45.834               
> 2025 07 28 07 04 26.0000000  0  8                                             
G05  26809643.005 8 140885639.361 8     -3050.676 8        48.366               
G10  27989667.555 6 147086694.516 6      3210.541 6        40.392               
G12  28591054.897 6 150247058.047 6      3164.185 6        41.012               
G13  26562843.904 7 139588707.109 7     -2867.250 7        42.477               
G15  23987179.441 7 126053489.137 7     -1468.699 7        47.129               
G18  24788724.128 7 130265625.775 7     -1331.143 7        43.805               
G23  24261121.998 7 127493024.656 7      2055.378 7        47.409               
G24  23335460.096 7 122628695.948 7       730.699 7        45.694               
> 2025 07 28 07 04 27.0000000  0  8                                             
G05  26810222.497 8 140888689.810 8     -3051.099 8        48.527               
G10  27989056.269 6 147083481.087 6      3215.433 6        39.826               
G12  28590468.431 6 150243893.247 6      3162.040 6        40.866               
G13  26563389.767 7 139591575.371 7     -2866.838 7        42.729               
G15  23987456.969 7 126054957.370 7     -1467.370 7        47.057               
G18  24788980.585 7 130266956.338 7     -1329.472 7        42.959               
G23  24260732.306 7 127490972.490 7      2052.928 7        47.383               
G24  23335328.584 7 122627965.236 7       728.820 7        45.717               
> 2025 07 28 07 04 28.0000000  0  8                                             
G05  26810802.950 8 140891740.478 8     -3050.767 8        48.416               
G10  27988445.894 6 147080267.617 6      3211.310 6        39.637               
G12  28589858.168 6 150240728.316 6      3168.258 6        40.738               
G13  26563937.211 7 139594443.641 7     -2870.942 7        42.906               
G15  23987735.610 7 126056425.837 7     -1466.903 7        46.942               
G18  24789231.077 7 130268287.485 7     -1328.489 7        43.134               
G23  24260342.511 7 127488920.623 7      2055.096 7        47.383               
G24  23335195.183 7 122627235.186 7       725.540 7        46.074               
> 2025 07 28 07 04 29.0000000  0  8                                             
G05  26811384.842 7 140894791.404 7     -3052.848 7        47.652               
G10  27987825.321 6 147077054.112 6      3215.037 6        39.308               
G12  28589260.793 6 150237563.241 6      3163.616 6        41.654               
G13  26564481.136 7 139597311.916 7     -2868.595 7        42.826               
G15  23988012.557 7 126057894.579 7     -1466.609 7        46.577               
G18  24789484.268 7 130269619.287 7     -1328.425 7        43.984               
G23  24259949.844 7 127486869.075 7      2055.837 7        47.668               
G24  23335056.215 7 122626505.800 7       728.778 7        46.545               
> 2025 07 28 07 04 30.0000000  0  8                                             
G05  26811966.000 8 140897842.589 8     -3050.242 8        48.197               
G10  27987218.994 6 147073840.570 6      3212.186 6        39.429               
G12  28588654.868 6 150234398.016 6      3172.020 6        41.250               
G13  26565026.110 7 139600180.235 7     -2870.462 7        42.267               
G15  23988296.161 7 126059363.579 7     -1468.779 7        46.916               
G18  24789743.172 7 130270951.693 7     -1330.786 7        43.054               
G23  24259558.490 7 127484817.855 7      2053.718 7        47.352               
G24  23334912.593 7 122625777.095 7       732.808 7        46.683               
> 2025 07 28 07 04 31.0000000  0  8                                             
G05  26812546.882 8 140900894.039 8     -3050.396 8        48.221               
G10  27986601.128 6 147070627.027 6      3215.538 6        39.983               
G12  28588051.998 6 150231232.684 6      3169.348 6        41.384               
G13  26565572.048 7 139603048.561 7     -2872.066 7        42.472               
G15  23988578.040 7 126060832.859 7     -1466.061 7        46.666               
G18  24789990.363 7 130272284.784 7     -1337.740 7        43.879               
G23  24259167.891 7 127482766.982 7      2048.923 7        46.441               
G24  23334768.046 7 122625049.092 7       731.970 7        45.890               
> 2025 07 28 07 04 32.0000000  0  8                                             
G05  26813127.196 8 140903945.762 8     -3050.687 8        48.291               
G10  27985987.126 6 147067413.476 6      3211.735 6        39.529               
G12  28587450.666 6 150228067.247 6      3166.228 6        41.513               
G13  26566119.091 7 139605916.951 7     -2863.373 7        43.142               
G15  23988857.382 7 126062302.442 7     -1470.447 7        47.210               
G18  24790248.937 7 130273618.504 7     -1330.654 7        43.876               
G23  24258778.668 7 127480716.440 7      2054.317 7        46.605               
G24  23334619.961 7 122624321.753 7       726.495 7        44.825               
> 2025 07 28 07 04 33.0000000  0  8                                             
G05  26813707.283 8 140906997.745 8     -3053.291 8        48.233               
G10  27985384.363 6 147064199.903 6      3210.438 6        39.700               
G12  28586845.875 6 150224901.666 6      3167.461 6        41.165               
G13  26566661.179 7 139608785.369 7     -2869.336 7        42.729               
G15  23989137.582 7 126063772.295 7     -1470.338 7        46.337               
G18  24790499.389 7 130274952.854 7     -1331.467 7        44.242               
G23  24258390.186 7 127478666.242 7      2052.199 7        47.089               
G24  23334482.803 7 122623595.101 7       727.072 7        45.659               
> 2025 07 28 07 04 34.0000000  0  8                                             
G05  26814291.368 8 140910049.977 8     -3052.990 8        48.192               
G10  27984770.004 6 147060986.293 6      3210.903 6        39.097               
G12  28586243.350 6 150221735.970 6      3164.511 6        41.240               
G13  26567208.100 7 139611653.821 7     -2868.921 7        42.366               
G15  23989417.750 7 126065242.418 7     -1467.854 7        46.784               
G18  24790755.859 7 130276287.862 7     -1336.343 7        43.661               
G23  24257997.988 7 127476616.365 7      2051.079 7        46.968               
G24  23334352.480 7 122622869.136 7       723.260 7        45.823               
> 2025 07 28 07 04 35.0000000  0  8                                             
G05  26814872.450 8 140913102.434 8     -3050.929 8        48.224               
G10  27984158.937 6 147057772.621 6      3215.708 6        38.584               
G12  28585642.334 6 150218570.113 6      3167.350 6        41.708               
G13  26567752.614 7 139614522.239 7     -2871.660 7        42.038               
G15  23989697.235 7 126066712.784 7     -1473.662 7        46.716               
G18  24791006.780 7 130277623.434 7     -1331.213 7        44.068               
G23  24257609.980 7 127474566.782 7      2049.465 7        46.958               
G24  23334221.509 7 122622143.815 7       722.757 7        46.095               
> 2025 07 28 07 04 36.0000000  0  8                                             
G05  26815449.070 7 140916155.178 7     -3053.258 7        47.644               
G10  27983546.391 6 147054558.949 6      3218.995 6        39.314               
G12  28585037.968 6 150215404.099 6      3160.909 6        41.223               
G13  26568298.249 7 139617390.729 7     -2866.586 7        42.518               
G15  23989973.383 7 126068183.445 7     -1471.056 7        46.810               
G18  24791267.815 7 130278959.689 7     -1335.514 7        44.194               
G23  24257217.429 7 127472517.532 7      2047.600 7        46.525               
G24  23334084.766 7 122621419.199 7       724.343 7        46.638               
> 2025 07 28 07 04 37.0000000  0  9                                             
G05  26816032.092 8 140919208.138 8     -3050.754 8        48.298               
G10  27982941.038 6 147051345.211 6      3210.442 6        39.830               
G12  28584439.932 6 150212237.937 6      3164.080 6        40.493               
G13  26568846.645 7 139620259.194 7     -2868.345 7        42.359               
G15  23990255.008 7 126069654.338 7     -1468.465 7        46.549               
G18  24791523.887 7 130280296.527 7     -1336.186 7        43.995               
G22  28114141.824 6 147739729.159 6      -513.628 6        39.194               
G23  24256829.144 7 127470468.599 7      2047.296 7        47.612               
G24  23333942.118 7 122620695.225 7       722.672 7        46.511               
> 2025 07 28 07 04 38.0000000  0  9                                             
G05  26816611.553 7 140922261.335 7     -3052.938 7        47.781               
G10  27982325.919 6 147048131.454 6      3218.315 6        40.107               
G12  28583837.567 6 150209071.652 6      3165.165 6        40.587               
G13  26569395.385 7 139623127.664 7     -2866.553 7        42.424               
G15  23990532.777 7 126071125.480 7     -1472.354 7        46.538               
G18  24791779.249 7 130281633.981 7     -1334.087 7        44.150               
G22  28114248.172 6 147740242.426 6      -512.353 6        40.090               
G23  24256439.769 7 127468419.958 7      2047.467 7        47.510               
G24  23333796.807 7 122619971.912 7       726.872 7        46.016               
> 2025 07 28 07 04 39.0000000  0  9                                             
G05  26817193.806 8 140925314.782 8     -3052.589 8        48.240               
G10  27981714.254 6 147044917.633 6      3216.142 6        39.371               
G12  28583233.317 6 150205905.200 6      3165.512 6        40.748               
G13  26569940.627 7 139625996.169 7     -2867.903 7        42.328               
G15  23990812.682 7 126072596.883 7     -1470.780 7        46.793               
G18  24792029.987 7 130282972.065 7     -1335.341 7        43.991               
G22  28114338.611 6 147740756.221 6      -515.340 6        40.109               
G23  24256050.774 7 127466371.640 7      2044.400 7        47.276               
G24  23333658.831 7 122619249.253 7       723.751 7        45.726               
> 2025 07 28 07 04 40.0000000  0  9                                             
G05  26817774.893 8 140928368.527 8     -3052.515 8        48.208               
G10  27981105.353 6 147041703.794 6      3217.529 6        39.388               
G12  28582629.956 6 150202738.636 6      3170.487 6        40.817               
G13  26570485.771 7 139628864.706 7     -2872.272 7        42.618               
G15  23991092.931 7 126074068.586 7     -1470.803 7        46.429               
G18  24792282.400 7 130284310.813 7     -1339.881 7        44.120               
G22  28114430.619 6 147741270.579 6      -513.950 6        39.291               
G23  24255657.137 7 127464323.665 7      2052.965 7        47.238               
G24  23333523.259 7 122618527.270 7       720.333 7        45.823               
> 2025 07 28 07 04 41.0000000  0  9                                             
G05  26818357.446 8 140931422.538 8     -3053.574 8        48.168               
G10  27980493.540 6 147038489.950 6      3210.182 6        39.144               
G12  28582031.831 6 150199571.961 6      3167.991 6        40.586               
G13  26571035.609 7 139631733.256 7     -2865.509 7        42.307               
G15  23991370.263 7 126075540.561 7     -1473.328 7        46.674               
G18  24792535.050 7 130285650.181 7     -1339.462 7        43.894               
G22  28114525.691 6 147741785.506 6      -512.730 6        38.998               
G23  24255270.219 7 127462276.022 7      2046.799 7        47.381               
G24  23333390.608 7 122617805.992 7       715.417 7        45.612               
> 2025 07 28 07 04 42.0000000  0  9                                             
G05  26818936.322 8 140934476.857 8     -3054.808 8        48.088               
G10  27979887.606 6 147035276.132 6      3213.800 6        39.278               
G12  28581424.909 6 150196405.176 6      3170.498 6        40.933               
G13  26571577.304 7 139634601.921 7     -2868.939 7        42.768               
G15  23991651.217 7 126077012.849 7     -1472.801 7        46.256               
G18  24792787.263 7 130286990.242 7     -1339.787 7        43.872               
G22  28114621.545 6 147742300.990 6      -510.255 6        38.447               
G23  24254880.648 7 127460228.764 7      2047.141 7        46.598               
G24  23333261.205 7 122617085.435 7       722.794 7        46.333               
> 2025 07 28 07 04 43.0000000  0  9                                             
G05  26819516.440 8 140937531.412 8     -3052.599 8        48.279               
G10  27979265.737 6 147032062.265 6      3214.907 6        39.413               
G12  28580817.524 6 150193238.280 6      3167.875 6        40.816               
G13  26572123.404 7 139637470.558 7     -2870.751 7        42.316               
G15  23991934.589 7 126078485.420 7     -1472.326 7        45.878               
G18  24793039.046 7 130288330.943 7     -1337.751 7        43.780               
G22  28114720.226 6 147742817.023 6      -523.751 6        38.122               
G23  24254492.372 7 127458181.827 7      2044.666 7        46.804               
G24  23333126.455 7 122616365.550 7       721.342 7        47.171               
> 2025 07 28 07 04 44.0000000  0  9                                             
G05  26820097.045 8 140940586.207 8     -3055.127 8        48.518               
G10  27978656.055 6 147028848.383 6      3213.790 6        38.889               
G12  28580220.805 6 150190071.205 6      3170.722 6        40.898               
G13  26572668.945 7 139640339.223 7     -2867.953 7        42.423               
G15  23992211.970 7 126079958.235 7     -1467.150 7        45.776               
G18  24793295.351 7 130289672.243 7     -1345.257 7        43.637               
G22  28114823.804 6 147743333.562 6      -514.170 6        38.840               
G23  24254104.820 7 127456135.190 7      2050.412 7        46.409               
G24  23332985.969 7 122615646.333 7       719.669 7        47.695               
> 2025 07 28 07 04 45.0000000  0  9                                             
G05  26820680.178 8 140943641.213 8     -3054.126 8        48.554               
G10  27978049.357 6 147025634.386 6      3220.282 6        39.007               
G12  28579615.028 6 150186903.977 6      3171.460 6        41.313               
G13  26573208.188 6 139643207.881 6     -2865.540 6        41.619               
G15  23992494.885 7 126081431.285 7     -1474.366 7        46.275               
G18  24793552.423 7 130291014.125 7     -1338.286 7        43.911               
G22  28114920.029 6 147743850.618 6      -522.856 6        39.208               
G23  24253715.261 7 127454088.851 7      2050.538 7        46.998               
G24  23332843.834 7 122614927.748 7       713.715 7        47.054               
> 2025 07 28 07 04 46.0000000  0  9                                             
G05  26821262.516 8 140946696.498 8     -3054.604 8        48.198               
G10  27977433.349 6 147022420.420 6      3207.237 6        39.167               
G12  28579012.882 6 150183736.609 6      3167.855 6        41.672               
G13  26573757.812 6 139646076.586 6     -2868.600 6        41.126               
G15  23992775.800 7 126082904.618 7     -1469.023 7        46.603               
G18  24793808.527 7 130292356.681 7     -1348.480 7        43.915               
G22  28115022.414 6 147744368.239 6      -511.918 6        38.676               
G23  24253321.692 7 127452042.858 7      2045.118 7        46.502               
G24  23332699.912 7 122614209.854 7       714.852 7        46.599               
> 2025 07 28 07 04 47.0000000  0  9                                             
G05  26821845.193 8 140949752.020 8     -3054.753 8        48.251               
G10  27976819.821 6 147019206.397 6      3210.621 6        38.779               
G12  28578411.473 6 150180569.103 6      3166.414 6        41.184               
G13  26574297.282 6 139648945.262 6     -2870.111 6        41.457               
G15  23993059.864 7 126084378.193 7     -1471.103 7        46.061               
G18  24794063.969 7 130293699.825 7     -1342.431 7        43.557               
G22  28115121.556 6 147744886.350 6      -528.034 6        38.686               
G23  24252933.545 7 127449997.147 7      2044.373 7        46.226               
G24  23332562.826 7 122613492.605 7       719.927 7        45.906               
> 2025 07 28 07 04 48.0000000  0  9                                             
G05  26822427.228 8 140952807.814 8     -3058.278 8        48.357               
G10  27976210.684 6 147015992.325 6      3223.110 6        38.907               
G12  28577805.539 6 150177401.465 6      3160.570 6        41.529               
G13  26574844.137 6 139651814.003 6     -2874.276 6        40.944               
G15  23993338.477 7 126085852.076 7     -1477.843 7        45.947               
G18  24794323.342 7 130295043.624 7     -1344.383 7        43.233               
G22  28115211.620 6 147745405.046 6      -512.208 6        38.263               
G23  24252543.540 7 127447951.791 7      2045.566 7        46.590               
G24  23332431.269 7 122612776.044 7       713.272 7        45.451               
> 2025 07 28 07 04 49.0000000  0  9                                             
G05  26823006.684 8 140955863.846 8     -3055.445 8        48.155               
G10  27975596.106 6 147012778.251 6      3214.691 6        38.420               
G12  28577204.778 6 150174233.720 6      3168.261 6        41.283               
G13  26575396.116 6 139654682.731 6     -2873.906 6        40.474               
G15  23993618.865 7 126087326.207 7     -1476.775 7        46.491               
G18  24794578.686 7 130296388.036 7     -1340.581 7        43.362               
G22  28115308.091 6 147745924.257 6      -512.650 6        38.311               
G23  24252154.130 7 127445906.749 7      2047.999 7        46.360               
G24  23332300.138 7 122612060.162 7       719.410 7        46.103               
> 2025 07 28 07 04 50.0000000  0  9                                             
G05  26823588.911 8 140958920.124 8     -3058.876 8        48.344               
G10  27974987.062 6 147009564.148 6      3209.163 6        38.704               
G12  28576601.328 6 150171065.781 6      3170.354 6        41.536               
G13  26575944.574 6 139657551.472 6     -2866.759 6        40.976               
G15  23993901.548 7 126088800.592 7     -1474.760 7        46.630               
G18  24794836.795 7 130297733.075 7     -1345.080 7        43.760               
G22  28115408.885 6 147746444.001 6      -517.514 6        38.729               
G23  24251761.690 7 127443862.027 7      2045.138 7        46.220               
G24  23332164.302 7 122611344.955 7       716.649 7        46.937               
> 2025 07 28 07 04 51.0000000  0  9                                             
G05  26824168.778 7 140961976.660 7     -3056.460 7        47.798               
G10  27974370.581 6 147006350.007 6      3216.245 6        38.835               
G12  28575995.898 7 150167897.743 7      3173.872 7        42.016               
G13  26576488.431 6 139660420.274 6     -2868.579 6        41.532               
G15  23994181.980 7 126090275.265 7     -1472.830 7        46.316               
G18  24795090.656 7 130299078.755 7     -1343.142 7        43.673               
G22  28115511.025 6 147746964.304 6      -517.394 6        39.127               
G23  24251375.648 7 127441817.642 7      2045.028 7        46.211               
G24  23332026.849 7 122610630.447 7       712.507 7        46.449               
> 2025 07 28 07 04 52.0000000  0  9                                             
G05  26824753.569 7 140965033.436 7     -3058.213 7        47.369               
G10  27973765.500 6 147003135.828 6      3216.533 6        39.275               
G12  28575398.850 6 150164729.560 6      3161.113 6        41.937               
G13  26577036.688 6 139663289.049 6     -2863.182 6        41.646               
G15  23994460.916 7 126091750.172 7     -1475.005 7        45.754               
G18  24795346.831 7 130300425.032 7     -1344.651 7        43.261               
G22  28115617.350 6 147747485.093 6      -513.825 6        39.041               
G23  24250985.786 7 127439773.564 7      2044.009 7        45.926               
G24  23331890.486 7 122609916.554 7       716.481 7        46.649               
> 2025 07 28 07 04 53.0000000  0  9                                             
G05  26825334.196 8 140968090.486 8     -3057.612 8        48.468               
G10  27973150.404 6 146999921.622 6      3212.680 6        38.894               
G12  28574795.904 6 150161561.243 6      3171.620 6        41.651               
G13  26577578.991 7 139666157.871 7     -2865.901 7        42.109               
G15  23994741.231 7 126093225.386 7     -1473.676 7        46.224               
G18  24795603.421 7 130301771.970 7     -1347.060 7        43.626               
G22  28115711.149 6 147748006.469 6      -518.858 6        39.024               
G23  24250597.309 7 127437729.837 7      2045.041 7        46.242               
G24  23331748.244 7 122609203.378 7       709.839 7        46.217               
> 2025 07 28 07 04 54.0000000  0  9                                             
G05  26825914.930 7 140971147.770 7     -3057.317 7        47.878               
G10  27972545.448 6 146996707.372 6      3211.727 6        38.576               
G12  28574191.846 6 150158392.769 6      3166.719 6        41.743               
G13  26578122.321 7 139669026.708 7     -2868.072 7        42.129               
G15  23995024.067 7 126094700.831 7     -1474.931 7        45.948               
G18  24795857.322 7 130303119.508 7     -1346.937 7        43.980               
G22  28115814.458 6 147748528.343 6      -518.906 6        39.621               
G23  24250210.262 7 127435686.402 7      2038.664 7        46.189               
G24  23331610.210 7 122608490.841 7       713.544 7        45.720               
> 2025 07 28 07 04 55.0000000  0  9                                             
G05  26826497.648 7 140974205.373 7     -3057.921 7        47.664               
G10  27971927.131 6 146993493.171 6      3219.494 6        39.224               
G12  28573585.550 6 150155224.229 6      3167.782 6        41.963               
G13  26578668.885 6 139671895.630 6     -2870.633 6        41.966               
G15  23995303.784 7 126096176.634 7     -1473.772 7        46.218               
G18  24796115.641 7 130304467.755 7     -1347.591 7        43.990               
G22  28115913.180 6 147749050.837 6      -522.429 6        39.633               
G23  24249821.682 7 127433643.372 7      2041.933 7        46.100               
G24  23331478.542 7 122607779.053 7       709.500 7        45.520               
