     3.02           OBSERVATION DATA    G                   RINEX VERSION / TYPE
G = GPS  R = GLONASS  E = GALILEO  S = GEO  M = MIXED       COMMENT             
GNSS-SDR            suhjw               20250806 055300 UTC PGM / RUN BY / DATE 
GPS OBSERVATION DATA FILE GENERATED BY GNSS-SDR             COMMENT             
GNSS-SDR VERSION 0.0.20                                     COMMENT             
See https://gnss-sdr.org                                    COMMENT             
DEFAULT MARKER NAME                                         MARKER NAME         
suhjw               CTTC                                    OBSERVER / AGENCY   
GNSS-SDR            Software Receiver   0.0.20              REC # / TYPE / VERS 
Antenna number      Antenna type                            ANT # / TYPE        
        0.0000        0.0000        0.0000                  APPROX POSITION XYZ 
        0.0000        0.0000        0.0000                  ANTENNA: DELTA H/E/N
G    4 C1C L1C D1C S1C                                      SYS / # / OBS TYPES 
DBHZ                                                        SIGNAL STRENGTH UNIT
  2025    08    06    05    53   18.1000000     GPS         TIME OF FIRST OBS   
                                                            END OF HEADER       
> 2025 08 06 05 53 19.0000000  0  4                                             
G05  22707214.250 6 119331702.629 6     -7447.568 6        39.876               
G13  22410592.864 6 117772955.776 6     -7715.766 6        36.704               
G15  20488621.518 6 107672907.841 6     -5852.704 6        36.079               
G23  22126757.908 6 116281373.873 6     -2431.723 6        39.286               
> 2025 08 06 05 53 20.0000000  0  4                                             
G05  22707684.455 6 119339150.186 6     -7447.146 6        40.119               
G13  22411117.159 6 117780671.432 6     -7715.997 6        36.949               
G15  20488784.876 5 107678761.114 5     -5853.090 5        35.775               
G23  22126272.854 6 116283805.872 6     -2431.752 6        39.072               
> 2025 08 06 05 53 21.0000000  0  4                                             
G05  22708157.251 6 119346598.067 6     -7448.418 6        40.107               
G13  22411638.416 6 117788387.232 6     -7715.401 6        37.136               
G15  20488949.736 6 107684614.729 6     -5853.574 6        36.076               
G23  22125787.191 6 116286238.047 6     -2432.190 6        39.061               
> 2025 08 06 05 53 22.0000000  0  4                                             
G05  22708626.153 6 119354046.281 6     -7448.334 6        40.461               
G13  22412158.530 6 117796103.145 6     -7716.024 6        37.393               
G15  20489118.241 5 107690468.675 5     -5853.884 5        35.870               
G23  22125299.975 6 116288670.394 6     -2432.921 6        39.447               
> 2025 08 06 05 53 23.0000000  0  4                                             
G05  22709094.732 6 119361494.788 6     -7448.797 6        40.650               
G13  22412679.626 6 117803819.157 6     -7716.274 6        37.417               
G15  20489286.531 6 107696322.942 6     -5855.328 6        36.303               
G23  22124814.205 6 116291102.894 6     -2433.217 6        39.237               
> 2025 08 06 05 53 24.0000000  0  4                                             
G05  22709563.829 6 119368943.663 6     -7448.859 6        40.698               
G13  22413197.900 6 117811535.341 6     -7716.513 6        37.433               
G15  20489453.750 6 107702177.574 6     -5855.122 6        36.077               
G23  22124329.687 6 116293535.601 6     -2433.330 6        39.010               
> 2025 08 06 05 53 25.0000000  0  4                                             
G05  22710032.194 6 119376392.835 6     -7449.596 6        40.591               
G13  22413716.905 6 117819251.609 6     -7717.712 6        37.103               
G15  20489616.626 6 107708032.499 6     -5855.444 6        36.311               
G23  22123844.167 6 116295968.461 6     -2433.051 6        39.300               
> 2025 08 06 05 53 26.0000000  0  4                                             
G05  22710502.364 6 119383842.326 6     -7449.270 6        40.847               
G13  22414233.999 6 117826967.998 6     -7716.135 6        36.673               
G15  20489784.827 6 107713887.788 6     -5855.732 6        36.766               
G23  22123361.650 6 116298401.486 6     -2433.187 6        39.363               
> 2025 08 06 05 53 27.0000000  0  4                                             
G05  22710971.891 6 119391292.134 6     -7449.883 6        40.763               
G13  22414750.628 6 117834684.515 6     -7715.849 6        36.695               
G15  20489950.401 6 107719743.395 6     -5856.041 6        36.521               
G23  22122875.791 6 116300834.695 6     -2434.057 6        39.373               
> 2025 08 06 05 53 28.0000000  0  4                                             
G05  22711441.542 6 119398742.300 6     -7450.378 6        40.744               
G13  22415274.191 6 117842401.201 6     -7717.171 6        36.338               
G15  20490115.529 6 107725599.375 6     -5855.794 6        36.922               
G23  22122390.094 6 116303268.099 6     -2433.338 6        39.667               
> 2025 08 06 05 53 29.0000000  0  4                                             
G05  22711911.176 6 119406192.778 6     -7450.381 6        40.595               
G13  22415792.857 6 117850117.974 6     -7717.114 6        36.271               
G15  20490282.819 6 107731455.658 6     -5856.777 6        36.429               
G23  22121901.054 6 116305701.657 6     -2433.839 6        39.109               
> 2025 08 06 05 53 30.0000000  0  4                                             
G05  22712381.328 6 119413643.576 6     -7451.439 6        40.735               
G13  22416313.489 5 117857834.878 5     -7716.868 5        35.989               
G15  20490447.589 6 107737312.301 6     -5856.985 6        36.631               
G23  22121416.303 6 116308135.393 6     -2433.529 6        38.839               
> 2025 08 06 05 53 31.0000000  0  4                                             
G05  22712852.927 6 119421094.679 6     -7450.671 6        40.574               
G13  22416832.209 5 117865551.870 5     -7717.057 5        35.707               
G15  20490610.233 6 107743169.241 6     -5857.456 6        36.558               
G23  22120933.572 6 116310569.289 6     -2433.937 6        39.292               
> 2025 08 06 05 53 32.0000000  0  4                                             
G05  22713322.829 6 119428546.115 6     -7451.483 6        40.510               
G13  22417355.843 5 117873269.015 5     -7717.408 5        35.825               
G15  20490774.574 6 107749026.521 6     -5857.571 6        36.321               
G23  22120451.376 6 116313003.363 6     -2434.159 6        38.872               
> 2025 08 06 05 53 33.0000000  0  4                                             
G05  22713793.374 6 119435997.942 6     -7451.966 6        40.462               
G13  22417876.957 6 117880986.346 6     -7717.454 6        36.415               
G15  20490945.152 6 107754884.198 6     -5858.241 6        36.295               
G23  22119966.768 6 116315437.667 6     -2435.002 6        38.792               
> 2025 08 06 05 53 34.0000000  0  4                                             
G05  22714263.722 6 119443450.031 6     -7452.666 6        40.686               
G13  22418400.215 6 117888703.728 6     -7717.951 6        36.046               
G15  20491113.550 6 107760742.145 6     -5857.647 6        36.048               
G23  22119481.714 6 116317872.091 6     -2434.560 6        39.044               
> 2025 08 06 05 53 35.0000000  0  4                                             
G05  22714734.696 6 119450902.433 6     -7452.179 6        40.691               
G13  22418918.131 5 117896421.214 5     -7717.890 5        35.914               
G15  20491279.892 5 107766600.415 5     -5858.775 5        35.880               
G23  22118996.337 6 116320306.667 6     -2435.428 6        39.319               
> 2025 08 06 05 53 36.0000000  0  4                                             
G05  22715203.615 6 119458355.212 6     -7452.079 6        40.772               
G13  22419440.050 6 117904138.890 6     -7718.488 6        36.793               
G15  20491446.181 6 107772459.088 6     -5859.174 6        36.375               
G23  22118512.641 6 116322741.483 6     -2435.263 6        39.492               
> 2025 08 06 05 53 37.0000000  0  4                                             
G05  22715674.964 6 119465808.251 6     -7452.847 6        40.722               
G13  22419957.662 5 117911856.612 5     -7717.590 5        35.832               
G15  20491612.310 6 107778318.021 6     -5859.163 6        36.225               
G23  22118029.087 6 116325176.409 6     -2435.066 6        39.148               
> 2025 08 06 05 53 38.0000000  0  4                                             
G05  22716147.314 6 119473261.632 6     -7453.177 6        40.791               
G13  22420476.006 5 117919574.492 5     -7717.487 5        35.698               
G15  20491780.690 6 107784177.293 6     -5859.925 6        36.235               
G23  22117543.014 6 116327611.519 6     -2434.891 6        39.304               
> 2025 08 06 05 53 39.0000000  0  4                                             
G05  22716617.055 6 119480715.311 6     -7453.773 6        40.469               
G13  22420999.587 5 117927292.464 5     -7718.692 5        35.890               
G15  20491949.248 6 107790036.901 6     -5859.484 6        36.285               
G23  22117059.425 6 116330046.778 6     -2435.712 6        39.235               
> 2025 08 06 05 53 40.0000000  0  4                                             
G05  22717085.509 6 119488169.378 6     -7454.323 6        40.097               
G13  22421518.503 6 117935010.633 6     -7718.133 6        36.190               
G15  20492120.219 6 107795896.891 6     -5860.263 6        36.103               
G23  22116573.709 6 116332482.276 6     -2435.961 6        38.970               
> 2025 08 06 05 53 41.0000000  0  4                                             
G05  22717554.946 6 119495623.741 6     -7454.006 6        40.844               
G13  22422041.136 5 117942728.876 5     -7718.975 5        35.912               
G15  20492286.722 6 107801757.178 6     -5860.527 6        36.266               
G23  22116090.137 6 116334917.931 6     -2435.842 6        39.307               
> 2025 08 06 05 53 42.0000000  0  4                                             
G05  22718025.026 6 119503078.415 6     -7454.456 6        40.222               
G13  22422563.108 6 117950447.236 6     -7717.665 6        36.061               
G15  20492451.850 6 107807617.775 6     -5860.241 6        36.382               
G23  22115608.692 6 116337353.725 6     -2435.744 6        39.088               
> 2025 08 06 05 53 43.0000000  0  4                                             
G05  22718495.839 6 119510533.461 6     -7455.107 6        40.295               
G13  22423084.276 6 117958165.754 6     -7717.818 6        36.648               
G15  20492618.729 6 107813478.770 6     -5859.403 6        36.419               
G23  22115122.780 6 116339789.751 6     -2435.233 6        39.086               
> 2025 08 06 05 53 44.0000000  0  4                                             
G05  22718966.652 6 119517988.865 6     -7455.993 6        39.926               
G13  22423605.158 5 117965884.435 5     -7719.899 5        35.564               
G15  20492784.929 6 107819340.109 6     -5861.426 6        36.150               
G23  22114636.349 6 116342225.974 6     -2436.523 6        38.914               
> 2025 08 06 05 53 45.0000000  0  4                                             
G05  22719437.984 6 119525444.545 6     -7455.854 6        40.362               
G13  22424127.148 5 117973603.200 5     -7718.540 5        35.470               
G15  20492950.825 6 107825201.767 6     -5861.045 6        36.395               
G23  22114148.990 6 116344662.335 6     -2436.925 6        39.368               
> 2025 08 06 05 53 46.0000000  0  4                                             
G05  22719909.654 6 119532900.511 6     -7456.160 6        40.871               
G13  22424646.618 6 117981322.041 6     -7718.860 6        36.337               
G15  20493115.756 6 107831063.694 6     -5862.046 6        36.557               
G23  22113664.489 6 116347098.828 6     -2436.623 6        39.454               
> 2025 08 06 05 53 47.0000000  0  4                                             
G05  22720381.915 6 119540356.789 6     -7456.246 6        40.867               
G13  22425168.573 6 117989041.013 6     -7719.874 6        36.699               
G15  20493283.117 6 107836925.963 6     -5862.566 6        36.419               
G23  22113181.686 6 116349535.478 6     -2436.733 6        39.618               
> 2025 08 06 05 53 48.0000000  0  4                                             
G05  22720853.031 6 119547813.415 6     -7456.706 6        40.402               
G13  22425689.526 6 117996760.094 6     -7719.362 6        36.491               
G15  20493449.263 6 107842788.591 6     -5862.415 6        36.060               
G23  22112699.186 6 116351972.334 6     -2437.249 6        38.996               
> 2025 08 06 05 53 49.0000000  0  4                                             
G05  22721322.808 6 119555270.367 6     -7457.004 6        40.120               
G13  22426209.515 5 118004479.313 5     -7718.975 5        35.848               
G15  20493617.875 5 107848651.541 5     -5862.914 5        35.693               
G23  22112215.668 6 116354409.366 6     -2436.959 6        38.973               
> 2025 08 06 05 53 50.0000000  0  4                                             
G05  22721795.069 6 119562727.671 6     -7457.639 6        40.470               
G13  22426730.504 5 118012198.698 5     -7719.274 5        35.986               
G15  20493787.381 5 107854514.868 5     -5862.913 5        35.483               
G23  22111730.614 6 116356846.617 6     -2437.436 6        38.434               
> 2025 08 06 05 53 51.0000000  0  4                                             
G05  22722265.917 6 119570185.240 6     -7457.804 6        39.934               
G13  22427250.707 5 118019918.143 5     -7718.405 5        35.811               
G15  20493956.279 5 107860378.460 5     -5863.089 5        35.437               
G23  22111245.649 6 116359283.962 6     -2437.308 6        38.470               
> 2025 08 06 05 53 52.0000000  0  4                                             
G05  22722737.016 6 119577643.215 6     -7458.172 6        39.896               
G13  22427771.821 6 118027637.773 6     -7720.039 6        36.019               
G15  20494121.263 5 107866242.457 5     -5865.273 5        35.223               
G23  22110761.076 6 116361721.563 6     -2437.849 6        38.615               
> 2025 08 06 05 53 53.0000000  0  4                                             
G05  22723206.060 6 119585101.477 6     -7458.213 6        40.199               
G13  22428291.845 5 118035357.503 5     -7719.637 5        35.953               
G15  20494287.320 5 107872106.751 5     -5864.974 5        35.824               
G23  22110278.791 6 116364159.307 6     -2437.533 6        39.202               
> 2025 08 06 05 53 54.0000000  0  4                                             
G05  22723676.141 6 119592560.024 6     -7458.444 6        40.318               
G13  22428815.318 5 118043077.295 5     -7719.179 5        35.991               
G15  20494456.844 5 107877971.342 5     -5864.214 5        35.925               
G23  22109793.469 6 116366597.186 6     -2438.175 6        39.370               
> 2025 08 06 05 53 55.0000000  0  4                                             
G05  22724148.455 6 119600018.923 6     -7458.819 6        39.976               
G13  22429334.128 6 118050797.242 6     -7719.311 6        36.673               
G15  20494625.956 5 107883836.293 5     -5864.908 5        35.689               
G23  22109308.414 6 116369035.265 6     -2437.794 6        39.426               
> 2025 08 06 05 53 56.0000000  0  4                                             
G05  22724618.642 6 119607478.090 6     -7459.289 6        40.233               
G13  22429854.992 5 118058517.273 5     -7720.807 5        35.945               
G15  20494793.460 5 107889701.527 5     -5865.221 5        35.701               
G23  22108826.362 6 116371473.466 6     -2438.797 6        39.717               
> 2025 08 06 05 53 57.0000000  0  4                                             
G05  22725089.777 6 119614937.610 6     -7459.482 6        40.296               
G13  22430377.321 5 118066237.452 5     -7720.644 5        35.881               
G15  20494962.198 5 107895567.109 5     -5866.418 5        35.680               
G23  22108342.343 6 116373911.869 6     -2438.542 6        39.680               
> 2025 08 06 05 53 58.0000000  0  4                                             
G05  22725562.359 6 119622397.468 6     -7460.373 6        39.674               
G13  22430899.079 5 118073957.757 5     -7720.703 5        35.520               
G15  20495133.669 5 107901433.065 5     -5866.140 5        35.608               
G23  22107859.183 6 116376350.471 6     -2438.732 6        39.348               
> 2025 08 06 05 53 59.0000000  0  4                                             
G05  22726035.334 6 119629857.627 6     -7460.333 6        39.976               
G13  22431422.266 5 118081678.165 5     -7720.416 5        35.765               
G15  20495302.710 5 107907299.290 5     -5866.213 5        35.860               
G23  22107375.844 6 116378789.203 6     -2438.766 6        39.233               
> 2025 08 06 05 54 00.0000000  0  4                                             
G05  22726508.220 6 119637318.133 6     -7460.960 6        39.849               
G13  22431941.951 5 118089398.730 5     -7720.540 5        35.803               
G15  20495471.626 5 107913165.902 5     -5867.708 5        35.839               
G23  22106889.538 6 116381228.147 6     -2439.347 6        39.146               
> 2025 08 06 05 54 01.0000000  0  4                                             
G05  22726978.658 6 119644778.982 6     -7460.738 6        39.735               
G13  22432461.207 5 118097119.391 5     -7720.213 5        35.939               
G15  20495637.968 5 107919032.847 5     -5867.354 5        35.918               
G23  22106406.038 6 116383667.292 6     -2439.178 6        39.145               
> 2025 08 06 05 54 02.0000000  0  4                                             
G05  22727450.614 6 119652240.127 6     -7460.948 6        39.830               
G13  22432982.893 5 118104840.126 5     -7721.493 5        35.789               
G15  20495806.134 5 107924900.089 5     -5867.720 5        35.858               
G23  22105921.377 6 116386106.577 6     -2439.256 6        39.726               
> 2025 08 06 05 54 03.0000000  0  4                                             
G05  22727920.159 6 119659701.525 6     -7461.495 6        39.736               
G13  22433505.901 5 118112560.918 5     -7721.433 5        35.556               
G15  20495976.890 5 107930767.607 5     -5867.356 5        35.426               
G23  22105439.056 6 116388545.958 6     -2439.419 6        39.496               
> 2025 08 06 05 54 04.0000000  0  4                                             
G05  22728392.937 6 119667163.280 6     -7461.936 6        40.005               
G13  22434026.408 5 118120281.865 5     -7720.602 5        35.423               
G15  20496147.611 5 107936635.491 5     -5868.121 5        35.614               
G23  22104954.984 6 116390985.558 6     -2439.739 6        39.337               
> 2025 08 06 05 54 05.0000000  0  4                                             
G05  22728865.912 6 119674625.328 6     -7462.656 6        40.081               
G13  22434546.986 5 118128002.896 5     -7720.838 5        35.599               
G15  20496320.726 6 107942503.647 6     -5868.397 6        36.346               
G23  22104472.681 6 116393425.294 6     -2439.735 6        38.585               
> 2025 08 06 05 54 06.0000000  0  4                                             
G05  22729337.244 6 119682087.657 6     -7462.697 6        40.616               
G13  22435070.852 5 118135724.024 5     -7721.844 5        35.623               
G15  20496487.194 6 107948372.123 6     -5868.529 6        36.409               
G23  22103989.735 6 116395865.174 6     -2440.144 6        38.918               
> 2025 08 06 05 54 07.0000000  0  4                                             
G05  22729810.951 6 119689550.377 6     -7462.830 6        40.307               
G13  22435594.451 5 118143445.276 5     -7720.233 5        35.654               
G15  20496652.768 6 107954240.976 6     -5868.765 6        36.413               
G23  22103506.539 6 116398305.254 6     -2439.972 6        39.268               
> 2025 08 06 05 54 08.0000000  0  4                                             
G05  22730283.122 6 119697013.409 6     -7463.855 6        39.745               
G13  22436114.671 5 118151166.661 5     -7723.125 5        35.203               
G15  20496820.898 6 107960110.127 6     -5870.266 6        36.148               
G23  22103023.182 6 116400745.521 6     -2440.459 6        39.261               
> 2025 08 06 05 54 09.0000000  0  4                                             
G05  22730754.204 6 119704476.748 6     -7463.806 6        40.109               
G13  22436636.250 5 118158888.166 5     -7722.032 5        35.818               
G15  20496988.277 5 107965979.640 5     -5870.374 5        35.815               
G23  22102539.968 6 116403185.941 6     -2441.186 6        39.076               
> 2025 08 06 05 54 10.0000000  0  4                                             
G05  22731228.054 6 119711940.487 6     -7464.194 6        40.403               
G13  22437156.793 6 118166609.878 6     -7722.537 6        36.083               
G15  20497158.247 5 107971849.514 5     -5869.969 5        35.952               
G23  22102055.324 6 116405626.623 6     -2440.702 6        38.990               
> 2025 08 06 05 54 11.0000000  0  4                                             
G05  22731700.815 6 119719404.499 6     -7464.515 6        40.222               
G13  22437678.908 6 118174331.632 6     -7722.731 6        36.535               
G15  20497327.163 6 107977719.692 6     -5870.402 6        36.003               
G23  22101570.466 6 116408067.417 6     -2440.817 6        39.444               
> 2025 08 06 05 54 12.0000000  0  4                                             
G05  22732174.022 6 119726868.862 6     -7465.252 6        40.128               
G13  22438203.310 6 118182053.516 6     -7722.367 6        36.401               
G15  20497497.848 5 107983590.237 5     -5871.018 5        35.707               
G23  22101087.145 6 116410508.418 6     -2440.849 6        39.208               
> 2025 08 06 05 54 13.0000000  0  4                                             
G05  22732645.961 5 119734333.524 5     -7461.742 5        34.739               
G13  22438726.747 5 118189775.626 5     -7720.901 5        32.631               
G15  20497678.825 5 107989461.058 5     -5871.187 5        32.691               
G23  22100597.194 5 116412949.726 5     -2442.705 5        35.000               
> 2025 08 06 05 54 14.0000000  0  4                                             
G05  22733124.619 4 119741798.929 4     -7468.479 4        29.893               
G13  22439249.345 4 118197497.727 4     -7723.291 4        28.020               
G15  20497845.543 4 107995332.290 4     -5871.435 4        28.369               
G23  22100125.988 5 116415391.056 5     -2439.357 5        30.886               
> 2025 08 06 05 54 15.0000000  0  4                                             
G05  22733581.816 4 119749265.397 4     -7468.768 4        27.685               
G13  22439782.199 4 118205220.116 4     -7725.802 4        26.074               
G15  20498023.376 4 108001203.742 4     -5870.485 4        26.650               
G23  22099650.082 4 116417832.429 4     -2440.037 4        27.642               
> 2025 08 06 05 54 16.0000000  0  4                                             
G05  22734055.363 4 119756733.532 4     -7467.729 4        26.580               
G13  22440326.078 4 118212943.274 4     -7722.489 4        25.781               
G15  20498206.194 4 108007075.037 4     -5870.914 4        25.624               
G23  22099173.819 4 116420273.608 4     -2441.062 4        26.414               
> 2025 08 06 05 56 01.0000000  0  4                                             
G05  22784038.415 8 118869010.864 8     -2516.210 8        49.830               
G13  22495172.346 7 118212932.611 7     -2751.104 7        46.229               
G15  20516314.215 7 107813960.213 7      -922.850 7        45.931               
G23  22048591.743 7 115866129.055 7      2522.992 7        45.296               
> 2025 08 06 05 56 02.0000000  0  4                                             
G05  22784516.787 8 118871527.048 8     -2516.265 8        49.746               
G13  22495695.069 7 118215683.840 7     -2751.212 7        45.979               
G15  20516488.134 7 107814883.453 7      -923.377 7        45.717               
G23  22048112.872 7 115863606.232 7      2522.747 7        45.273               
> 2025 08 06 05 56 03.0000000  0  4                                             
G05  22784994.551 8 118874043.512 8     -2516.594 8        49.387               
G13  22496221.097 7 118218435.146 7     -2751.222 7        45.519               
G15  20516662.536 7 107815806.997 7      -924.029 7        45.206               
G23  22047633.678 7 115861083.554 7      2522.610 7        45.390               
> 2025 08 06 05 56 04.0000000  0  4                                             
G05  22785472.904 8 118876560.308 8     -2516.871 8        49.208               
G13  22496743.569 7 118221186.585 7     -2751.489 7        45.256               
G15  20516837.706 7 107816730.883 7      -923.913 7        45.367               
G23  22047152.358 7 115858561.079 7      2522.539 7        45.736               
> 2025 08 06 05 56 05.0000000  0  4                                             
G05  22785951.973 8 118879077.422 8     -2517.289 8        48.689               
G13  22497265.952 7 118223938.129 7     -2751.803 7        44.745               
G15  20517013.465 7 107817655.089 7      -924.587 7        44.631               
G23  22046671.324 7 115856038.784 7      2522.205 7        44.827               
> 2025 08 06 05 56 06.0000000  0  4                                             
G05  22786430.470 8 118881594.907 8     -2517.320 8        48.779               
G13  22497790.873 7 118226689.847 7     -2751.588 7        44.844               
G15  20517188.707 7 107818579.682 7      -924.398 7        44.691               
G23  22046193.149 7 115853516.724 7      2522.128 7        45.262               
> 2025 08 06 05 56 07.0000000  0  4                                             
G05  22786909.270 8 118884112.767 8     -2517.846 8        48.272               
G13  22498316.240 7 118229441.690 7     -2752.033 7        45.054               
G15  20517364.234 7 107819504.624 7      -925.134 7        44.343               
G23  22045714.330 7 115850994.869 7      2521.719 7        45.538               
> 2025 08 06 05 56 08.0000000  0  4                                             
G05  22787387.570 8 118886630.929 8     -2518.364 8        48.232               
G13  22498841.446 7 118232193.636 7     -2752.225 7        45.423               
G15  20517541.191 7 107820429.865 7      -925.581 7        45.030               
G23  22045234.279 7 115848473.174 7      2521.639 7        45.582               
> 2025 08 06 05 56 09.0000000  0  4                                             
G05  22787867.210 8 118889149.404 8     -2518.911 8        48.776               
G13  22499365.920 7 118234945.690 7     -2752.713 7        45.253               
G15  20517715.468 7 107821355.438 7      -925.696 7        44.735               
G23  22044752.316 7 115845951.658 7      2521.382 7        44.960               
> 2025 08 06 05 56 10.0000000  0  4                                             
G05  22788346.851 8 118891668.269 8     -2518.889 8        48.970               
G13  22499889.429 7 118237697.935 7     -2752.149 7        45.396               
G15  20517891.388 7 107822281.406 7      -926.117 7        44.802               
G23  22044271.800 7 115843430.405 7      2521.430 7        45.169               
> 2025 08 06 05 56 11.0000000  0  4                                             
G05  22788826.509 8 118894187.429 8     -2519.401 8        48.584               
G13  22500412.759 7 118240450.273 7     -2752.844 7        45.417               
G15  20518067.362 7 107823207.682 7      -926.431 7        44.760               
G23  22043791.820 7 115840909.308 7      2521.074 7        44.671               
> 2025 08 06 05 56 12.0000000  0  4                                             
G05  22789307.114 8 118896706.864 8     -2519.500 8        49.027               
G13  22500936.232 7 118243202.689 7     -2752.541 7        45.264               
G15  20518242.979 7 107824134.245 7      -926.610 7        44.807               
G23  22043312.448 7 115838388.355 7      2520.885 7        44.772               
> 2025 08 06 05 56 13.0000000  0  4                                             
G05  22789787.130 8 118899226.642 8     -2520.174 8        49.327               
G13  22501460.438 7 118245955.233 7     -2752.680 7        45.600               
G15  20518419.757 7 107825061.165 7      -926.841 7        44.980               
G23  22042833.201 7 115835867.616 7      2520.688 7        44.784               
> 2025 08 06 05 56 14.0000000  0  4                                             
G05  22790267.806 8 118901746.722 8     -2520.395 8        49.142               
G13  22501982.767 7 118248707.869 7     -2752.726 7        45.734               
G15  20518596.768 7 107825988.383 7      -927.442 7        45.524               
G23  22042353.096 7 115833347.037 7      2520.496 7        44.635               
> 2025 08 06 05 56 15.0000000  0  4                                             
G05  22790747.625 8 118904267.097 8     -2520.779 8        49.461               
G13  22502505.615 7 118251460.612 7     -2752.520 7        45.900               
G15  20518772.849 7 107826915.908 7      -927.668 7        45.647               
G23  22041872.562 7 115830826.611 7      2520.299 7        44.303               
> 2025 08 06 05 56 16.0000000  0  4                                             
G05  22791226.533 8 118906787.776 8     -2520.935 8        48.959               
G13  22503030.660 7 118254213.446 7     -2752.700 7        45.450               
G15  20518949.395 7 107827843.755 7      -927.707 7        44.598               
G23  22041392.118 7 115828306.370 7      2520.414 7        44.308               
> 2025 08 06 05 56 17.0000000  0  4                                             
G05  22791705.530 8 118909308.761 8     -2521.206 8        49.315               
G13  22503554.866 7 118256966.395 7     -2753.060 7        45.136               
G15  20519126.888 7 107828771.923 7      -928.362 7        44.476               
G23  22040913.585 7 115825786.303 7      2519.974 7        44.333               
> 2025 08 06 05 56 18.0000000  0  9                                             
G05  22792185.224 8 118911830.021 8     -2521.581 8        49.055               
G13  22504077.338 7 118259719.403 7     -2753.124 7        45.581               
G14  25180145.023 6 132322552.909 6      -130.143 6        40.713               
G15  20519303.345 7 107829700.370 7      -928.623 7        44.945               
G18  21490804.795 7 112934942.914 7       -56.811 7        43.479               
G21  25711437.428 6 135114513.949 6     -3032.849 6        37.559               
G22  25067143.448 6 131728728.223 6       467.021 6        41.855               
G23  22040434.320 7 115823266.372 7      2519.610 7        44.233               
G24  20770680.525 7 109150658.566 7      1957.391 7        44.819               
> 2025 08 06 05 56 19.0000000  0  9                                             
G05  22792664.382 8 118914351.680 8     -2521.876 8        49.343               
G13  22504601.419 7 118262472.598 7     -2753.282 7        45.506               
G14  25180169.771 6 132322683.517 6      -131.129 6        40.219               
G15  20519480.892 7 107830629.225 7      -928.994 7        44.481               
G18  21490814.587 7 112935000.175 7       -57.758 7        43.375               
G21  25712014.204 6 135117546.813 6     -3032.204 6        37.273               
G22  25067055.247 7 131728261.896 7       465.982 7        42.039               
G23  22039955.680 7 115820746.705 7      2519.398 7        44.466               
G24  20770309.582 7 109148701.465 7      1956.956 7        44.766               
> 2025 08 06 05 56 20.0000000  0  9                                             
G05  22793143.808 8 118916873.622 8     -2522.128 8        49.143               
G13  22505126.071 7 118265225.872 7     -2753.215 7        45.593               
G14  25180194.967 6 132322814.621 6      -131.198 6        40.500               
G15  20519658.259 7 107831558.371 7      -929.298 7        44.411               
G18  21490826.274 7 112935058.107 7       -58.381 7        43.637               
G21  25712593.768 6 135120579.771 6     -3033.858 6        36.834               
G22  25066968.743 6 131727796.050 6       465.256 6        41.661               
G23  22039477.452 7 115818227.184 7      2519.291 7        44.409               
G24  20769939.479 7 109146744.960 7      1955.722 7        45.297               
> 2025 08 06 05 56 21.0000000  0  9                                             
G05  22793623.055 8 118919395.973 8     -2522.402 8        49.008               
G13  22505649.508 7 118267979.349 7     -2753.404 7        45.132               
G14  25180218.393 6 132322946.338 6      -132.112 6        40.440               
G15  20519836.860 7 107832487.933 7      -929.747 7        44.440               
G18  21490838.657 7 112935116.831 7       -59.038 7        43.315               
G21  25713173.814 6 135123612.975 6     -3032.685 6        36.162               
G22  25066882.882 7 131727330.799 7       464.624 7        42.030               
G23  22038997.722 7 115815707.941 7      2519.201 7        44.641               
G24  20769566.820 7 109144789.163 7      1955.572 7        44.886               
> 2025 08 06 05 56 22.0000000  0  9                                             
G05  22794103.785 8 118921918.599 8     -2522.420 8        48.932               
G13  22506173.643 7 118270732.891 7     -2753.283 7        45.485               
G14  25180242.963 6 132323078.536 6      -132.589 6        40.729               
G15  20520014.979 7 107833417.770 7      -930.065 7        44.662               
G18  21490852.827 7 112935176.209 7       -59.445 7        43.080               
G21  25713749.000 6 135126646.244 6     -3032.930 6        36.160               
G22  25066791.482 6 131726865.975 6       464.739 6        41.969               
G23  22038518.975 7 115813188.820 7      2519.260 7        44.224               
G24  20769192.125 7 109142833.936 7      1954.874 7        44.685               
> 2025 08 06 05 56 23.0000000  0  9                                             
G05  22794584.337 8 118924441.519 8     -2522.943 8        48.813               
G13  22506698.974 7 118273486.519 7     -2753.628 7        45.547               
G14  25180272.072 6 132323211.262 6      -132.927 6        40.377               
G15  20520190.667 7 107834347.913 7      -930.131 7        45.475               
G18  21490865.157 7 112935236.268 7       -60.463 7        43.390               
G21  25714323.972 5 135129679.656 5     -3033.197 5        35.619               
G22  25066700.529 6 131726401.652 6       464.471 6        41.708               
G23  22038039.531 7 115810669.870 7      2519.080 7        43.951               
G24  20768818.090 7 109140879.316 7      1954.480 7        44.144               
> 2025 08 06 05 56 24.0000000  0  9                                             
G05  22795062.959 8 118926964.779 8     -2523.805 8        48.096               
G13  22507223.698 7 118276240.266 7     -2753.443 7        45.506               
G14  25180299.268 6 132323344.521 6      -133.514 6        40.477               
G15  20520367.016 7 107835278.398 7      -930.938 7        45.582               
G18  21490877.147 7 112935297.044 7       -61.309 7        43.626               
G21  25714903.947 6 135132713.180 6     -3032.422 6        36.578               
G22  25066612.434 6 131725937.821 6       463.719 6        41.719               
G23  22037561.231 7 115808151.113 7      2518.372 7        43.640               
G24  20768444.932 7 109138925.320 7      1953.747 7        44.815               
> 2025 08 06 05 56 25.0000000  0  9                                             
G05  22795543.242 8 118929488.374 8     -2523.753 8        48.165               
G13  22507747.689 7 118278994.141 7     -2754.067 7        45.066               
G14  25180326.286 6 132323478.326 6      -133.966 6        40.917               
G15  20520544.349 7 107836209.221 7      -931.008 7        45.803               
G18  21490889.155 7 112935358.529 7       -62.109 7        43.504               
G21  25715478.990 6 135135746.857 6     -3033.627 6        37.515               
G22  25066524.840 7 131725474.499 7       463.335 7        42.139               
G23  22037081.913 7 115805632.558 7      2518.488 7        43.602               
G24  20768073.524 7 109136971.970 7      1953.005 7        44.439               
> 2025 08 06 05 56 26.0000000  0  9                                             
G05  22796024.616 8 118932012.287 8     -2524.198 8        48.118               
G13  22508268.482 7 118281748.125 7     -2753.739 7        44.871               
G14  25180349.873 6 132323612.652 6      -135.010 6        40.631               
G15  20520722.985 7 107837140.370 7      -931.384 7        45.273               
G18  21490902.807 7 112935420.723 7       -62.567 7        43.894               
G21  25716058.143 6 135138780.662 6     -3034.244 6        37.648               
G22  25066435.442 7 131725011.668 7       462.575 7        42.054               
G23  22036600.843 7 115803114.179 7      2518.255 7        43.566               
G24  20767703.725 7 109135019.225 7      1952.329 7        44.824               
> 2025 08 06 05 56 27.0000000  0  9                                             
G05  22796505.847 8 118934536.546 8     -2524.469 8        48.476               
G13  22508792.848 7 118284502.248 7     -2754.145 7        44.826               
G14  25180371.602 6 132323747.550 6      -134.809 6        39.716               
G15  20520900.818 7 107838071.877 7      -931.662 7        45.263               
G18  21490914.761 7 112935483.641 7       -63.256 7        44.146               
G21  25716632.739 6 135141814.601 6     -3034.772 6        38.227               
G22  25066346.936 7 131724549.362 7       462.093 7        42.490               
G23  22036120.917 7 115800596.022 7      2518.400 7        43.642               
G24  20767335.658 7 109133067.145 7      1951.591 7        44.968               
> 2025 08 06 05 56 28.0000000  0  9                                             
G05  22796987.006 8 118937061.167 8     -2525.089 8        48.154               
G13  22509318.305 7 118287256.527 7     -2754.556 7        45.215               
G14  25180395.136 6 132323883.012 6      -136.296 6        39.367               
G15  20521079.151 7 107839003.748 7      -932.037 7        45.489               
G18  21490925.590 7 112935547.302 7       -63.999 7        43.701               
G21  25717210.445 6 135144848.724 6     -3034.323 6        38.413               
G22  25066261.844 7 131724087.586 7       461.006 7        42.068               
G23  22035641.812 7 115798078.086 7      2517.663 7        43.747               
G24  20766964.626 7 109131115.723 7      1951.006 7        44.552               
> 2025 08 06 05 56 29.0000000  0  9                                             
G05  22797467.164 8 118939586.100 8     -2525.025 8        48.692               
G13  22509843.243 7 118290010.916 7     -2754.658 7        45.600               
G14  25180421.314 6 132324018.997 6      -136.473 6        39.237               
G15  20521257.251 7 107839935.938 7      -932.546 7        45.586               
G18  21490936.972 7 112935611.662 7       -64.780 7        43.881               
G21  25717788.347 6 135147882.969 6     -3034.229 6        39.520               
G22  25066174.196 7 131723626.291 7       460.963 7        42.124               
G23  22035162.726 7 115795560.324 7      2517.813 7        43.504               
G24  20766593.844 7 109129164.915 7      1950.087 7        44.470               
> 2025 08 06 05 56 30.0000000  0  9                                             
G05  22797947.502 8 118942111.306 8     -2525.581 8        48.731               
G13  22510367.145 7 118292765.377 7     -2754.632 7        45.712               
G14  25180446.277 6 132324155.477 6      -136.352 6        39.200               
G15  20521434.816 7 107840868.418 7      -932.907 7        45.565               
G18  21490947.729 7 112935676.696 7       -65.817 7        44.005               
G21  25718368.339 6 135150917.303 6     -3034.956 6        40.432               
G22  25066085.084 6 131723165.478 6       459.881 6        41.072               
G23  22034683.586 7 115793042.714 7      2517.138 7        43.967               
G24  20766220.220 7 109127214.702 7      1949.689 7        44.690               
> 2025 08 06 05 56 31.0000000  0  9                                             
G05  22798428.536 8 118944636.895 8     -2525.675 8        49.042               
G13  22510891.887 7 118295520.007 7     -2755.003 7        45.690               
G14  25180476.207 6 132324292.548 6      -137.411 6        39.850               
G15  20521612.487 7 107841801.298 7      -933.018 7        45.746               
G18  21490962.400 7 112935742.487 7       -66.370 7        43.825               
G21  25718949.654 6 135153951.829 6     -3034.079 6        40.419               
G22  25065996.757 6 131722705.204 6       460.317 6        41.207               
G23  22034207.359 7 115790525.352 7      2517.523 7        43.559               
G24  20765846.311 7 109125265.157 7      1949.599 7        44.129               
> 2025 08 06 05 56 32.0000000  0  9                                             
G05  22798909.570 8 118947162.800 8     -2526.220 8        49.106               
G13  22511417.004 7 118298274.747 7     -2754.810 7        45.765               
G14  25180504.798 6 132324430.154 6      -138.552 6        40.303               
G15  20521789.283 7 107842734.481 7      -933.288 7        45.696               
G18  21490973.407 7 112935808.988 7       -66.868 7        43.530               
G21  25719523.947 6 135156986.487 6     -3034.440 6        40.669               
G22  25065909.610 6 131722245.421 6       459.253 6        41.253               
G23  22033726.646 7 115788008.173 7      2516.830 7        42.854               
G24  20765474.725 7 109123316.237 7      1948.831 7        44.219               
> 2025 08 06 05 56 33.0000000  0  9                                             
G05  22799390.872 8 118949689.062 8     -2526.320 8        48.999               
G13  22511940.316 7 118301029.643 7     -2755.194 7        45.282               
G14  25180533.478 6 132324568.329 6      -138.313 6        40.217               
G15  20521965.615 7 107843668.040 7      -933.596 7        45.490               
G18  21490986.344 7 112935876.224 7       -67.566 7        43.157               
G21  25720099.401 6 135160021.318 6     -3034.884 6        41.234               
G22  25065823.499 6 131721786.179 6       458.947 6        41.138               
G23  22033247.238 7 115785491.215 7      2516.905 7        43.386               
G24  20765105.247 7 109121367.980 7      1947.931 7        44.127               
> 2025 08 06 05 56 34.0000000  0  9                                             
G05  22799871.656 8 118952215.615 8     -2526.717 8        49.420               
G13  22512463.574 7 118303784.628 7     -2754.991 7        45.634               
G14  25180563.033 6 132324707.010 6      -138.832 6        39.863               
G15  20522144.394 7 107844601.893 7      -933.774 7        45.502               
G18  21490999.174 7 112935944.138 7       -68.248 7        43.329               
G21  25720676.427 6 135163056.242 6     -3034.710 6        41.419               
G22  25065735.083 6 131721327.400 6       458.379 6        40.640               
G23  22032769.313 7 115782974.415 7      2516.901 7        43.198               
G24  20764736.323 7 109119420.314 7      1947.261 7        44.620               
> 2025 08 06 05 56 35.0000000  0  9                                             
G05  22800352.172 8 118954742.476 8     -2527.004 8        49.480               
G13  22512987.566 7 118306539.715 7     -2755.055 7        46.064               
G14  25180588.496 6 132324846.223 6      -139.333 6        39.901               
G15  20522322.406 7 107845536.076 7      -934.794 7        45.307               
G18  21491010.736 7 112936012.753 7       -69.172 7        43.234               
G21  25721258.368 6 135166091.302 6     -3035.349 6        41.631               
G22  25065647.007 6 131720869.110 6       457.844 6        41.227               
G23  22032290.656 7 115780457.794 7      2516.648 7        42.726               
G24  20764368.239 7 109117473.274 7      1946.664 7        45.025               
> 2025 08 06 05 56 36.0000000  0  9                                             
G05  22800832.741 8 118957269.681 8     -2527.433 8        49.317               
G13  22513512.021 7 118309294.940 7     -2755.068 7        45.908               
G14  25180613.692 6 132324985.979 6      -140.023 6        40.153               
G15  20522499.988 7 107846470.606 7      -934.666 7        45.478               
G18  21491022.708 7 112936082.100 7       -69.520 7        42.886               
G21  25721835.948 6 135169126.521 6     -3035.115 6        41.056               
G22  25065560.092 6 131720411.354 6       457.057 6        40.741               
G23  22031812.159 7 115777941.386 7      2516.898 7        42.674               
G24  20763999.011 7 109115526.872 7      1945.899 7        45.064               
> 2025 08 06 05 56 37.0000000  0  9                                             
G05  22801314.919 8 118959797.199 8     -2527.770 8        49.603               
G13  22514034.958 7 118312050.270 7     -2755.341 7        46.055               
G14  25180640.156 6 132325126.272 6      -140.052 6        39.998               
G15  20522677.892 7 107847405.463 7      -934.780 7        45.427               
G18  21491035.323 7 112936152.145 7       -70.808 7        42.488               
G21  25722415.959 6 135172161.873 6     -3035.433 6        40.538               
G22  25065473.373 6 131719954.083 6       457.156 6        40.653               
G23  22031334.985 7 115775425.162 7      2516.392 7        43.116               
G24  20763628.587 7 109113581.098 7      1945.523 7        45.233               
> 2025 08 06 05 56 38.0000000  0  9                                             
G05  22801795.917 8 118962325.006 8     -2528.060 8        49.416               
G13  22514557.556 7 118314805.683 7     -2755.300 7        46.174               
G14  25180666.209 6 132325267.049 6      -141.975 6        39.772               
G15  20522854.492 7 107848340.604 7      -935.609 7        46.334               
G18  21491047.188 7 112936222.866 7       -71.163 7        42.369               
G21  25722991.056 6 135175197.311 6     -3035.651 6        40.081               
G22  25065388.513 6 131719497.293 6       457.278 6        40.977               
G23  22030854.201 7 115772909.080 7      2515.510 7        43.271               
G24  20763258.483 7 109111635.908 7      1944.741 7        45.365               
> 2025 08 06 05 56 39.0000000  0  9                                             
G05  22802274.771 8 118964853.115 8     -2528.272 8        49.328               
G13  22515081.065 7 118317561.180 7     -2755.305 7        45.927               
G14  25180693.566 6 132325408.339 6      -141.609 6        39.766               
G15  20523032.860 7 107849276.053 7      -935.829 7        46.388               
G18  21491060.876 7 112936294.257 7       -71.642 7        42.408               
G21  25723567.064 6 135178232.866 6     -3035.869 6        39.798               
G22  25065300.723 6 131719040.973 6       455.642 6        41.292               
G23  22030373.828 7 115770393.169 7      2515.980 7        42.840               
G24  20762887.951 7 109109691.324 7      1944.354 7        45.305               
> 2025 08 06 05 56 40.0000000  0  9                                             
G05  22802756.431 8 118967381.541 8     -2528.882 8        49.522               
G13  22515605.842 7 118320316.795 7     -2755.777 7        45.955               
G14  25180718.136 6 132325550.166 6      -142.093 6        39.519               
G15  20523209.871 7 107850211.827 7      -936.350 7        46.552               
G18  21491076.833 7 112936366.357 7       -72.406 7        43.185               
G21  25724142.893 6 135181268.561 6     -3035.883 6        39.263               
G22  25065214.469 6 131718585.146 6       455.327 6        40.934               
G23  22029893.366 7 115767877.434 7      2515.345 7        42.207               
G24  20762517.080 7 109107747.349 7      1943.809 7        45.157               
> 2025 08 06 05 56 41.0000000  0  9                                             
G05  22803238.055 8 118969910.297 8     -2528.803 8        49.319               
G13  22516131.495 7 118323072.515 7     -2755.905 7        45.278               
G14  25180745.279 6 132325692.530 6      -142.730 6        38.908               
G15  20523388.400 7 107851147.933 7      -936.378 7        46.124               
G18  21491092.719 7 112936439.164 7       -72.906 7        42.883               
G21  25724719.741 6 135184304.378 6     -3036.088 6        39.567               
G22  25065128.287 6 131718129.816 6       454.933 6        41.014               
G23  22029412.439 7 115765361.894 7      2515.406 7        42.376               
G24  20762147.709 7 109105804.015 7      1943.016 7        45.727               
> 2025 08 06 05 56 42.0000000  0  9                                             
G05  22803720.143 8 118972439.401 8     -2529.279 8        49.433               
G13  22516656.219 7 118325828.380 7     -2755.844 7        45.257               
G14  25180771.028 6 132325835.453 6      -143.257 6        38.701               
G15  20523566.233 7 107852084.394 7      -936.725 7        45.671               
G18  21491108.104 7 112936512.705 7       -73.964 7        43.314               
G21  25725300.091 6 135187340.362 6     -3036.907 6        39.060               
G22  25065041.300 6 131717675.015 6       454.205 6        41.417               
G23  22028932.405 6 115762846.567 6      2515.016 6        41.894               
G24  20761780.000 7 109103861.332 7      1942.555 7        45.399               
> 2025 08 06 05 56 43.0000000  0  9                                             
G05  22804199.551 8 118974968.821 8     -2529.890 8        49.001               
G13  22517181.282 7 118328584.357 7     -2756.199 7        45.151               
G14  25180799.190 6 132325978.905 6      -143.669 6        38.062               
G15  20523746.638 7 107853021.185 7      -937.012 7        45.322               
G18  21491122.900 7 112936586.944 7       -74.564 7        42.986               
G21  25725884.658 6 135190376.469 6     -3036.620 6        38.952               
G22  25064956.494 6 131717220.697 6       454.391 6        41.525               
G23  22028453.444 6 115760331.423 6      2514.898 6        41.573               
G24  20761411.041 7 109101919.262 7      1941.787 7        45.818               
> 2025 08 06 05 56 44.0000000  0  9                                             
G05  22804681.211 8 118977498.559 8     -2529.917 8        49.262               
G13  22517706.364 7 118331340.450 7     -2756.174 7        45.630               
G14  25180825.422 6 132326122.890 6      -144.836 6        37.881               
G15  20523923.434 7 107853958.311 7      -937.329 7        45.432               
G18  21491137.981 7 112936661.897 7       -75.424 7        42.844               
G21  25726458.986 6 135193412.720 6     -3036.017 6        38.415               
G22  25064869.686 6 131716766.879 6       453.646 6        41.297               
G23  22027975.037 6 115757816.485 6      2514.902 6        41.844               
G24  20761041.098 7 109099977.842 7      1940.885 7        46.194               
> 2025 08 06 05 56 45.0000000  0  9                                             
G05  22805163.227 8 118980028.593 8     -2530.131 8        49.392               
G13  22518232.964 7 118334096.629 7     -2755.990 7        45.896               
G14  25180853.119 6 132326267.387 6      -143.888 6        37.757               
G15  20524102.589 7 107854895.741 7      -937.715 7        45.577               
G18  21491149.935 7 112936737.528 7       -75.937 7        43.242               
G21  25727036.102 6 135196449.075 6     -3036.215 6        37.326               
G22  25064780.895 6 131716313.529 6       453.315 6        40.369               
G23  22027499.810 6 115755301.691 6      2514.979 6        41.574               
G24  20760670.406 7 109098037.006 7      1940.822 7        45.821               
> 2025 08 06 05 56 46.0000000  0  9                                             
G05  22805645.548 8 118982559.010 8     -2530.495 8        49.291               
G13  22518758.778 7 118336852.980 7     -2756.229 7        45.757               
G14  25180879.154 6 132326412.484 6      -145.107 6        37.102               
G15  20524281.154 7 107855833.561 7      -937.832 7        45.964               
G18  21491163.802 7 112936813.920 7       -76.396 7        43.144               
G21  25727609.591 6 135199485.592 6     -3036.197 6        36.976               
G22  25064694.445 6 131715860.736 6       453.042 6        40.427               
G23  22027021.206 6 115752787.156 6      2514.698 6        41.572               
G24  20760300.427 7 109096096.852 7      1939.595 7        45.552               
> 2025 08 06 05 56 47.0000000  0  9                                             
G05  22806127.476 8 118985089.795 8     -2530.623 8        49.658               
G13  22519281.965 7 118339609.491 7     -2756.550 7        45.738               
G14  25180904.010 6 132326558.146 6      -145.787 6        36.252               
G15  20524458.433 7 107856771.744 7      -938.162 7        45.556               
G18  21491177.918 7 112936891.072 7       -77.281 7        43.072               
G21  25728187.832 5 135202522.316 5     -3035.961 5        35.778               
G22  25064609.406 6 131715408.488 6       452.582 6        40.738               
G23  22026542.566 6 115750272.844 6      2514.651 6        41.654               
G24  20759930.753 7 109094157.371 7      1939.517 7        45.219               
> 2025 08 06 05 56 48.0000000  0  9                                             
G05  22806609.046 8 118987620.885 8     -2531.384 8        49.702               
G13  22519806.581 7 118342366.106 7     -2756.969 7        45.907               
G14  25180936.960 6 132326704.339 6      -145.991 6        36.096               
G15  20524635.676 7 107857710.255 7      -938.945 7        45.860               
G18  21491194.268 7 112936968.911 7       -78.096 7        43.355               
G21  25728766.234 5 135205559.159 5     -3036.969 5        34.990               
G22  25064524.421 6 131714956.742 6       451.427 6        40.832               
G23  22026064.677 6 115747758.715 6      2514.034 6        41.591               
G24  20759560.453 7 109092218.497 7      1938.275 7        45.362               
> 2025 08 06 05 56 49.0000000  0  9                                             
G05  22807090.294 8 118990152.292 8     -2531.576 8        49.537               
G13  22520332.163 7 118345122.824 7     -2756.808 7        45.718               
G14  25180964.318 5 132326851.049 5      -147.173 5        35.775               
G15  20524815.313 7 107858649.083 7      -938.977 7        45.603               
G18  21491208.975 7 112937047.449 7       -78.877 7        43.693               
G21  25729350.230 5 135208596.140 5     -3036.133 5        35.150               
G22  25064439.740 6 131714505.468 6       451.321 6        41.006               
G23  22025588.146 6 115745244.764 6      2513.897 6        41.576               
G24  20759193.888 7 109090280.252 7      1937.917 7        45.415               
> 2025 08 06 05 56 50.0000000  0  9                                             
G05  22807572.544 8 118992683.986 8     -2531.666 8        49.400               
G13  22520855.136 7 118347879.630 7     -2756.861 7        45.723               
G14  25180992.622 5 132326998.266 5      -147.744 5        35.586               
G15  20524993.682 7 107859588.205 7      -939.342 7        45.812               
G18  21491224.753 7 112937126.660 7       -79.761 7        43.287               
G21  25729931.134 5 135211633.217 5     -3037.727 5        35.369               
G22  25064353.361 6 131714054.675 6       451.057 6        40.658               
G23  22025110.632 6 115742730.970 6      2513.640 6        41.448               
G24  20758828.324 7 109088342.601 7      1937.376 7        45.873               
> 2025 08 06 05 56 51.0000000  0  9                                             
G05  22808052.970 8 118995215.987 8     -2532.140 8        49.664               
G13  22521377.697 7 118350636.533 7     -2757.182 7        45.855               
G14  25181018.157 5 132327146.005 5      -147.818 5        35.448               
G15  20525175.660 7 107860527.654 7      -939.795 7        45.739               
G18  21491241.693 7 112937206.569 7       -80.006 7        43.470               
G21  25730505.123 5 135214670.411 5     -3037.911 5        34.881               
G22  25064267.983 6 131713604.385 6       450.042 6        40.980               
G23  22024631.296 6 115740217.360 6      2513.867 6        41.945               
G24  20758461.794 7 109086405.563 7      1936.643 7        46.157               
> 2025 08 06 05 56 52.0000000  0  9                                             
G05  22808533.915 8 118997748.386 8     -2532.597 8        49.547               
G13  22521901.849 7 118353393.636 7     -2757.370 7        45.636               
G14  25181048.177 5 132327294.384 5      -148.038 5        35.372               
G15  20525354.422 7 107861467.509 7      -939.789 7        45.558               
G18  21491256.685 7 112937287.262 7       -80.671 7        43.564               
G21  25731079.808 5 135217707.791 5     -3037.508 5        34.768               
G22  25064183.516 6 131713154.662 6       449.318 6        40.949               
G23  22024151.101 6 115737704.007 6      2513.790 6        41.416               
G24  20758090.708 7 109084469.245 7      1935.882 7        46.572               
> 2025 08 06 05 56 53.0000000  0  9                                             
G05  22809015.003 8 119000281.071 8     -2532.866 8        49.285               
G13  22522425.715 7 118356150.812 7     -2757.469 7        45.812               
G14  25181078.840 5 132327443.251 5      -149.427 5        35.485               
G15  20525534.255 7 107862407.646 7      -940.695 7        45.393               
G18  21491272.052 7 112937368.630 7       -81.735 7        43.646               
G21  25731659.104 5 135220745.296 5     -3037.400 5        35.183               
G22  25064097.691 6 131712705.399 6       449.094 6        40.427               
G23  22023672.015 6 115735190.825 6      2513.207 6        41.150               
G24  20757722.767 7 109082533.511 7      1935.478 7        46.150               
> 2025 08 06 05 56 54.0000000  0  9                                             
G05  22809496.019 8 119002813.996 8     -2533.014 8        48.933               
G13  22522949.278 7 118358908.020 7     -2757.488 7        45.468               
G14  25181111.898 5 132327592.551 5      -149.142 5        35.678               
G15  20525712.338 7 107863348.042 7      -940.567 7        45.612               
G18  21491286.312 7 112937450.631 7       -82.735 7        43.478               
G21  25732232.307 5 135223782.830 5     -3038.053 5        34.953               
G22  25064009.007 6 131712256.569 6       448.637 6        40.285               
G23  22023192.678 6 115732677.737 6      2512.977 6        41.113               
G24  20757352.557 7 109080598.321 7      1934.822 7        46.296               
> 2025 08 06 05 56 55.0000000  0  9                                             
G05  22809978.071 8 119005347.299 8     -2533.754 8        48.933               
G13  22523474.216 7 118361665.370 7     -2757.432 7        45.426               
G14  25181140.274 5 132327742.443 5      -149.650 5        35.120               
G15  20525889.617 7 107864288.795 7      -940.668 7        45.700               
G18  21491300.750 7 112937533.369 7       -83.057 7        43.803               
G21  25732813.121 5 135226820.563 5     -3037.030 5        35.505               
G22  25063923.879 6 131711808.253 6       447.335 6        40.167               
G23  22022715.022 6 115730164.876 6      2512.885 6        40.717               
G24  20756983.579 7 109078663.781 7      1934.715 7        46.092               
> 2025 08 06 05 56 56.0000000  0  9                                             
G05  22810460.428 8 119007880.894 8     -2533.917 8        48.519               
G13  22523999.405 7 118364422.827 7     -2757.430 7        45.719               
G14  25181166.809 5 132327892.833 5      -150.564 5        34.758               
G15  20526069.075 7 107865229.855 7      -941.297 7        45.898               
G18  21491315.831 7 112937616.793 7       -83.899 7        43.050               
G21  25733395.866 5 135229858.404 5     -3037.334 5        35.799               
G22  25063842.843 6 131711360.423 6       446.766 6        40.148               
G23  22022236.311 6 115727652.188 6      2512.488 6        40.593               
G24  20756614.459 7 109076729.854 7      1933.791 7        45.492               
> 2025 08 06 05 56 57.0000000  0  9                                             
G05  22810943.874 8 119010414.803 8     -2534.248 8        48.743               
G13  22524525.040 7 118367180.377 7     -2757.918 7        45.633               
G14  25181195.954 5 132328043.756 5      -149.527 5        34.865               
G15  20526248.570 7 107866171.230 7      -941.852 7        45.682               
G18  21491332.092 7 112937700.910 7       -84.422 7        43.617               
G21  25733975.787 6 135232896.362 6     -3038.055 6        36.719               
G22  25063760.413 6 131710913.081 6       447.235 6        40.291               
G23  22021755.276 6 115725139.676 6      2512.745 6        40.986               
G24  20756247.572 7 109074796.541 7      1933.186 7        45.663               
> 2025 08 06 05 56 58.0000000  0  9                                             
G05  22811426.463 8 119012949.078 8     -2534.356 8        48.810               
G13  22525050.139 7 118369938.089 7     -2758.027 7        45.865               
G14  25181225.277 5 132328195.261 5      -152.406 5        34.227               
G15  20526427.456 7 107867112.985 7      -941.916 7        45.506               
G18  21491349.318 7 112937785.783 7       -85.071 7        42.904               
G21  25734553.672 6 135235934.519 6     -3038.351 6        36.960               
G22  25063676.179 6 131710466.282 6       446.724 6        40.595               
G23  22021274.314 6 115722627.395 6      2512.012 6        39.930               
G24  20755878.845 7 109072863.913 7      1932.373 7        45.405               
> 2025 08 06 05 56 59.0000000  0  9                                             
G05  22811910.642 8 119015483.689 8     -2534.754 8        48.999               
G13  22525575.524 7 118372695.927 7     -2757.753 7        46.053               
G14  25181256.315 5 132328347.296 5      -152.622 5        34.218               
G15  20526607.969 7 107868055.075 7      -942.297 7        45.575               
G18  21491366.973 7 112937871.367 7       -85.528 7        43.041               
G21  25735123.407 6 135238972.795 6     -3037.699 6        37.201               
G22  25063590.121 6 131710020.006 6       446.063 6        40.155               
G23  22020797.139 6 115720115.317 6      2512.495 6        40.194               
G24  20755510.225 7 109070931.907 7      1931.758 7        45.542               
> 2025 08 06 05 57 00.0000000  0  9                                             
G05  22812394.857 8 119018018.586 8     -2535.129 8        48.685               
G13  22526101.284 7 118375453.852 7     -2758.287 7        45.633               
G14  25181282.744 5 132328499.849 5      -153.348 5        34.226               
G15  20526785.641 7 107868997.477 7      -942.886 7        46.190               
G18  21491383.698 7 112937957.635 7       -86.904 7        43.367               
G21  25735701.417 6 135242011.202 6     -3038.162 6        37.393               
G22  25063504.118 6 131709574.194 6       444.979 6        40.077               
G23  22020322.252 6 115717603.408 6      2511.435 6        40.502               
G24  20755142.284 7 109069000.511 7      1930.866 7        45.580               
> 2025 08 06 05 57 01.0000000  0  9                                             
G05  22812877.195 8 119020553.852 8     -2535.117 8        49.058               
G13  22526628.027 7 118378211.929 7     -2757.756 7        45.943               
G14  25181314.104 5 132328652.988 5      -152.858 5        33.932               
G15  20526964.152 7 107869940.251 7      -942.687 7        46.185               
G18  21491399.959 7 112938044.662 7       -87.098 7        43.050               
G21  25736279.712 6 135245049.773 6     -3037.702 6        37.623               
G22  25063419.544 6 131709128.939 6       445.115 6        40.433               
G23  22019845.292 6 115715091.725 6      2511.667 6        39.994               
G24  20754774.271 7 109067069.794 7      1930.694 7        45.091               
> 2025 08 06 05 57 02.0000000  0  9                                             
G05  22813358.444 8 119023089.408 8     -2535.755 8        49.396               
G13  22527152.233 7 118380970.092 7     -2758.297 7        46.241               
G14  25181342.498 5 132328806.653 5      -154.536 5        33.682               
G15  20527141.913 7 107870883.318 7      -943.169 7        45.423               
G18  21491417.292 7 112938132.358 7       -87.913 7        43.700               
G21  25736860.938 6 135248088.462 6     -3038.687 6        38.178               
G22  25063334.666 6 131708684.125 6       444.237 6        40.117               
G23  22019365.116 6 115712580.215 6      2511.841 6        39.768               
G24  20754404.794 7 109065139.664 7      1929.790 7        44.740               
> 2025 08 06 05 57 03.0000000  0  9                                             
G05  22813840.103 8 119025625.285 8     -2536.322 8        49.365               
G13  22527677.243 7 118383728.377 7     -2758.418 7        45.914               
G14  25181370.945 5 132328960.846 5      -155.357 5        32.874               
G15  20527320.532 7 107871826.717 7      -943.323 7        45.084               
G18  21491433.642 7 112938220.759 7       -88.730 7        43.830               
G21  25737438.018 6 135251127.283 6     -3038.509 6        38.274               
G22  25063250.127 6 131708239.831 6       443.917 6        39.687               
G23  22018888.549 6 115710068.891 6      2511.539 6        39.976               
G24  20754036.745 7 109063210.163 7      1928.715 7        44.429               
> 2025 08 06 05 57 04.0000000  0  9                                             
G05  22814322.799 8 119028161.540 8     -2536.266 8        49.443               
G13  22528203.003 7 118386486.812 7     -2758.412 7        45.957               
G14  25181398.678 5 132329115.648 5      -155.767 5        32.437               
G15  20527499.669 7 107872770.499 7      -943.744 7        45.135               
G18  21491451.332 7 112938309.919 7       -88.869 7        44.275               
G21  25738016.492 6 135254166.276 6     -3038.985 6        39.192               
G22  25063164.946 6 131707796.073 6       444.113 6        39.380               
G23  22018412.375 6 115707557.801 6      2510.898 6        39.937               
G24  20753670.841 7 109061281.357 7      1928.525 7        44.371               
> 2025 08 06 05 57 05.0000000  0  9                                             
G05  22814805.263 8 119030698.039 8     -2536.516 8        48.899               
G13  22528729.228 7 118389245.274 7     -2758.746 7        46.273               
G14  25181423.891 5 132329270.801 5      -153.969 5        31.834               
G15  20527679.610 7 107873714.524 7      -944.259 7        45.093               
G18  21491469.523 7 112938399.696 7       -90.294 7        44.711               
G21  25738595.430 6 135257205.321 6     -3039.226 6        39.498               
G22  25063078.460 6 131707352.746 6       442.507 6        39.321               
G23  22017936.130 6 115705046.828 6      2510.092 6        40.102               
G24  20753304.419 7 109059353.069 7      1927.843 7        44.623               
> 2025 08 06 05 57 06.0000000  0  9                                             
G05  22815287.476 8 119033234.938 8     -2536.995 8        49.234               
G13  22529255.131 7 118392003.939 7     -2758.788 7        45.811               
G14  25181439.598 4 132329426.655 4      -155.631 4        29.937               
G15  20527859.766 7 107874658.957 7      -944.458 7        44.591               
G18  21491486.427 7 112938490.253 7       -91.006 7        44.519               
G21  25739171.921 6 135260244.578 6     -3039.172 6        40.093               
G22  25062989.240 6 131706909.994 6       442.933 6        38.889               
G23  22017459.921 6 115702536.115 6      2510.983 6        39.806               
G24  20752936.442 7 109057425.494 7      1927.343 7        44.865               
> 2025 08 06 05 57 07.0000000  0  9                                             
G05  22815769.904 8 119035772.086 8     -2537.303 8        49.491               
G13  22529780.284 7 118394762.630 7     -2758.875 7        46.034               
G14  25181466.723 4 132329582.982 4      -156.317 4        29.621               
G15  20528040.332 7 107875603.643 7      -944.661 7        44.390               
G18  21491503.653 7 112938581.447 7       -91.755 7        44.743               
G21  25739749.108 6 135263283.898 6     -3039.114 6        39.899               
G22  25062907.793 6 131706467.665 6       441.734 6        38.772               
G23  22016979.458 6 115700025.513 6      2510.618 6        40.028               
G24  20752571.039 7 109055498.469 7      1926.918 7        44.403               
> 2025 08 06 05 57 08.0000000  0  9                                             
G05  22816252.100 8 119038309.567 8     -2537.393 8        49.450               
G13  22530307.188 7 118397521.447 7     -2758.747 7        45.922               
G14  25181502.586 4 132329739.808 4      -157.049 4        29.208               
G15  20528219.880 7 107876548.653 7      -945.248 7        44.482               
G18  21491520.986 7 112938673.355 7       -92.229 7        44.380               
G21  25740327.743 6 135266323.346 6     -3039.815 6        40.043               
G22  25062826.489 6 131706025.838 6       441.178 6        38.112               
G23  22016501.766 6 115697515.115 6      2510.676 6        39.974               
G24  20752204.599 7 109053572.087 7      1926.038 7        44.894               
> 2025 08 06 05 57 09.0000000  0  9                                             
G05  22816735.475 8 119040847.375 8     -2538.254 8        49.496               
G13  22530830.911 7 118400280.380 7     -2759.094 7        46.169               
G14  25181530.408 4 132329897.184 4      -157.168 4        29.737               
G15  20528401.823 7 107877494.005 7      -945.759 7        44.116               
G18  21491537.675 7 112938765.968 7       -93.239 7        44.610               
G21  25740905.805 6 135269362.926 6     -3040.142 6        40.283               
G22  25062747.615 6 131705584.524 6       441.002 6        38.233               
G23  22016024.985 6 115695004.909 6      2509.865 6        40.143               
G24  20751838.605 7 109051646.328 7      1925.505 7        45.123               
> 2025 08 06 05 57 10.0000000  0  9                                             
G05  22817218.832 8 119043385.484 8     -2538.038 8        49.588               
G13  22531353.705 7 118403039.372 7     -2758.789 7        46.062               
G14  25181565.985 4 132330055.072 4      -159.581 4        29.983               
G15  20528580.620 7 107878439.657 7      -945.584 7        44.400               
G18  21491554.579 7 112938859.267 7       -93.374 7        44.658               
G21  25741483.743 6 135272402.607 6     -3040.041 6        40.253               
G22  25062662.862 6 131705143.688 6       440.497 6        39.086               
G23  22015547.864 6 115692494.867 6      2509.947 6        39.767               
G24  20751473.916 7 109049721.169 7      1924.993 7        45.080               
> 2025 08 06 05 57 11.0000000  0  9                                             
G05  22817702.046 8 119045923.893 8     -2538.938 8        48.410               
G13  22531878.411 7 118405798.486 7     -2759.794 7        45.112               
G14  25181589.966 4 132330213.510 4      -160.234 4        29.267               
G15  20528759.864 7 107879385.635 7      -945.807 7        43.759               
G18  21491571.573 7 112938953.268 7       -93.793 7        43.694               
G21  25742062.950 6 135275442.432 6     -3037.433 6        39.342               
G22  25062575.071 6 131704703.385 6       439.762 6        38.619               
G23  22015071.779 6 115689985.063 6      2509.037 6        39.267               
G24  20751109.370 7 109047796.653 7      1924.948 7        43.353               
> 2025 08 06 05 57 12.0000000  0  9                                             
G05  22818186.404 6 119048462.637 6     -2539.134 6        39.295               
G13  22532402.223 6 118408557.703 6     -2759.634 6        36.331               
G14  25181616.894 4 132330372.434 4      -159.330 4        26.905               
G15  20528941.699 5 107880331.954 5      -946.799 5        35.979               
G18  21491594.785 5 112939047.993 5       -95.003 5        34.952               
G21  25742640.012 5 135278482.348 5     -3040.348 5        33.330               
G22  25062483.368 5 131704263.557 5       439.394 5        31.998               
G23  22014598.858 5 115687475.358 5      2509.256 5        32.319               
G24  20750742.537 5 109045872.750 5      1923.479 5        35.736               
> 2025 08 06 05 57 13.0000000  0  9                                             
G05  22818664.936 5 119051001.636 5     -2539.651 5        34.709               
G13  22532932.415 5 118411316.961 5     -2758.682 5        32.179               
G14  25181653.347 4 132330531.780 4      -158.323 4        25.918               
G15  20529112.974 5 107881278.533 5      -947.668 5        31.424               
G18  21491607.883 5 112939143.347 5       -95.202 5        31.069               
G21  25743207.371 4 135281522.458 4     -3037.399 4        29.269               
G22  25062398.365 4 131703824.229 4       439.994 4        28.571               
G23  22014110.086 4 115684965.830 4      2508.285 4        29.234               
G24  20750377.973 5 109043949.413 5      1922.089 5        31.495               
> 2025 08 06 05 57 14.0000000  0  8                                             
G05  22819149.848 5 119053540.970 5     -2540.274 5        31.560               
G13  22533448.008 4 118414076.358 4     -2762.023 4        29.773               
G15  20529300.366 4 107882225.452 4      -948.519 4        29.283               
G18  21491621.249 4 112939239.425 4       -97.546 4        29.336               
G21  25743781.074 4 135284562.546 4     -3039.290 4        27.537               
G22  25062311.843 4 131703385.244 4       439.256 4        27.295               
G23  22013635.146 4 115682456.457 4      2508.481 4        27.074               
G24  20750019.932 4 109042026.714 4      1922.788 4        29.480               
> 2025 08 06 05 57 15.0000000  0  8                                             
G05  22819634.902 5 119056080.576 5     -2539.056 5        32.062               
G13  22533971.552 5 118416835.856 5     -2759.831 5        30.272               
G15  20529483.470 4 107883172.672 4      -948.930 4        28.776               
G18  21491641.369 4 112939336.164 4       -94.938 4        28.980               
G21  25744352.829 4 135287602.375 4     -3040.736 4        26.405               
G22  25062236.311 4 131702946.801 4       436.352 4        26.579               
G23  22013156.774 4 115679947.339 4      2508.168 4        27.336               
G24  20749652.670 4 109040104.621 4      1922.016 4        29.334               
> 2025 08 06 05 57 16.0000000  0  8                                             
G05  22820116.580 5 119058620.502 5     -2538.122 5        32.513               
G13  22534501.494 5 118419595.438 5     -2760.670 5        30.013               
G15  20529659.802 4 107884120.204 4      -947.466 4        28.741               
G18  21491655.504 4 112939433.651 4       -96.321 4        28.944               
G21  25744920.886 4 135290642.170 4     -3040.553 4        25.898               
G22  25062143.124 4 131702508.985 4       440.919 4        26.290               
G23  22012690.107 4 115677438.346 4      2507.287 4        27.304               
G24  20749274.543 5 109038183.153 5      1920.309 5        30.028               
> 2025 08 06 05 57 17.0000000  0  8                                             
G05  22820593.969 5 119061160.771 5     -2540.590 5        31.162               
G13  22535029.845 4 118422355.141 4     -2762.664 4        29.109               
G15  20529838.063 4 107885068.058 4      -949.439 4        28.097               
G18  21491678.412 4 112939531.789 4       -98.195 4        29.135               
G21  25745496.286 4 135293682.159 4     -3039.899 4        25.580               
G22  25062061.569 4 131702071.597 4       437.464 4        26.389               
G23  22012218.704 4 115674929.618 4      2507.502 4        26.423               
G24  20748914.608 4 109036262.275 4      1921.327 4        29.071               
> 2025 08 06 05 57 18.0000000  0  8                                             
G05  22821080.864 5 119063701.337 5     -2540.950 5        30.520               
G13  22535557.232 4 118425114.972 4     -2762.078 4        29.296               
G15  20530015.002 4 107886016.245 4      -948.415 4        28.781               
G18  21491693.189 4 112939630.669 4       -99.726 4        28.080               
G21  25746092.307 4 135296722.294 4     -3037.755 4        25.308               
G22  25061967.400 4 131701634.485 4       437.016 4        26.582               
G23  22011750.982 4 115672420.894 4      2510.386 4        26.208               
G24  20748539.287 4 109034342.104 4      1919.619 4        28.963               
> 2025 08 06 05 58 19.0000000  0  4                                             
G05  22850688.977 8 120081179.096 8     -2559.825 8        49.273               
G13  22567621.746 7 118593656.530 7     -2765.928 7        44.154               
G18  21493097.820 7 112947001.961 7      -141.631 7        43.531               
G24  20726478.941 7 108918376.408 7      1882.149 7        45.114               
> 2025 08 06 05 58 20.0000000  0  4                                             
G05  22851175.586 8 120083739.232 8     -2560.316 8        49.228               
G13  22568151.777 7 118596422.886 7     -2766.737 7        44.601               
G18  21493123.944 7 112947144.311 7      -142.373 7        43.861               
G24  20726122.365 7 108916494.934 7      1881.151 7        45.274               
> 2025 08 06 05 58 21.0000000  0  4                                             
G05  22851662.535 8 120086299.676 8     -2560.579 8        49.027               
G13  22568679.288 7 118599189.339 7     -2766.848 7        45.119               
G18  21493149.997 7 112947287.351 7      -143.506 7        43.833               
G24  20725763.734 7 108914614.081 7      1880.415 7        45.158               
> 2025 08 06 05 58 22.0000000  0  4                                             
G05  22852149.948 8 120088860.406 8     -2561.020 8        48.761               
G13  22569206.943 7 118601955.860 7     -2766.297 7        44.440               
G18  21493179.767 7 112947431.061 7      -144.006 7        43.816               
G24  20725405.371 7 108912733.815 7      1879.904 7        44.871               
> 2025 08 06 05 58 23.0000000  0  4                                             
G05  22852639.077 8 120091421.495 8     -2561.307 8        49.122               
G13  22569731.559 7 118604722.536 7     -2766.767 7        44.782               
G18  21493209.447 7 112947575.522 7      -144.946 7        43.788               
G24  20725047.329 7 108910854.225 7      1879.163 7        44.718               
> 2025 08 06 05 58 24.0000000  0  4                                             
G05  22853127.295 8 120093982.920 8     -2561.408 8        49.205               
G13  22570256.855 7 118607489.347 7     -2766.838 7        44.385               
G18  21493237.698 7 112947720.707 7      -145.289 7        44.374               
G24  20724690.663 7 108908975.286 7      1878.637 7        44.794               
> 2025 08 06 05 58 25.0000000  0  5                                             
G05  22853615.584 8 120096544.641 8     -2561.884 8        49.237               
G13  22570784.098 7 118610256.236 7     -2767.028 7        43.877               
G15  20542250.994 7 107950267.760 7      -969.591 7        46.199               
G18  21493266.896 7 112947866.581 7      -146.285 7        44.668               
G24  20724332.657 7 108907096.948 7      1878.131 7        44.916               
> 2025 08 06 05 58 26.0000000  0  5                                             
G05  22854102.407 8 120099106.705 8     -2562.340 8        48.929               
G13  22571310.270 7 118613023.263 7     -2767.045 7        43.822               
G15  20542434.438 7 107951237.897 7      -970.160 7        45.464               
G18  21493294.218 7 112948013.178 7      -147.052 7        44.676               
G24  20723976.635 7 108905219.289 7      1877.183 7        45.249               
> 2025 08 06 05 58 27.0000000  0  5                                             
G05  22854590.893 8 120101669.106 8     -2562.655 8        49.038               
G13  22571836.226 7 118615790.416 7     -2767.239 7        43.054               
G15  20542618.364 7 107952208.365 7      -970.565 7        45.502               
G18  21493321.468 7 112948160.493 7      -147.566 7        44.929               
G24  20723621.881 7 108903342.261 7      1876.767 7        45.465               
> 2025 08 06 05 58 28.0000000  0  5                                             
G05  22855077.573 8 120104231.862 8     -2562.754 8        49.228               
G13  22572363.077 7 118618557.697 7     -2767.373 7        43.763               
G15  20542803.630 7 107953179.195 7      -970.914 7        45.780               
G18  21493348.665 7 112948308.539 7      -148.314 7        45.129               
G24  20723266.216 7 108901465.898 7      1875.848 7        44.802               
> 2025 08 06 05 58 29.0000000  0  5                                             
G05  22855564.254 8 120106794.887 8     -2563.429 8        48.963               
G13  22572890.856 7 118621325.053 7     -2767.671 7        44.362               
G15  20542990.307 7 107954150.316 7      -971.463 7        45.287               
G18  21493374.968 7 112948457.256 7      -149.361 7        44.658               
G24  20722906.906 7 108899590.128 7      1875.423 7        45.095               
> 2025 08 06 05 58 30.0000000  0  5                                             
G05  22856050.917 8 120109358.211 8     -2563.484 8        49.369               
G13  22573417.170 7 118624092.492 7     -2767.621 7        44.755               
G15  20543175.681 7 107955121.737 7      -971.350 7        45.242               
G18  21493404.756 7 112948606.663 7      -149.804 7        44.495               
G24  20722547.828 7 108897714.959 7      1874.471 7        44.614               
> 2025 08 06 05 58 31.0000000  0  5                                             
G05  22856538.652 8 120111921.833 8     -2563.796 8        49.238               
G13  22573943.788 7 118626860.014 7     -2767.733 7        44.496               
G15  20543360.518 7 107956093.462 7      -972.279 7        45.261               
G18  21493433.936 7 112948756.740 7      -150.302 7        44.823               
G24  20722188.982 7 108895840.399 7      1874.419 7        45.197               
> 2025 08 06 05 58 32.0000000  0  5                                             
G05  22857026.834 8 120114485.743 8     -2564.185 8        49.299               
G13  22574470.692 7 118629627.609 7     -2768.049 7        44.401               
G15  20543546.767 7 107957065.483 7      -971.873 7        45.210               
G18  21493462.223 7 112948907.502 7      -151.258 7        44.766               
G24  20721832.477 7 108893966.440 7      1873.548 7        44.679               
> 2025 08 06 05 58 33.0000000  0  5                                             
G05  22857515.391 8 120117049.997 8     -2564.658 8        49.527               
G13  22574998.454 7 118632395.355 7     -2767.627 7        44.477               
G15  20543733.551 7 107958037.867 7      -972.491 7        45.157               
G18  21493491.724 7 112949059.008 7      -151.657 7        44.089               
G24  20721477.956 7 108892093.149 7      1872.703 7        45.003               
> 2025 08 06 05 58 34.0000000  0  5                                             
G05  22858004.501 8 120119614.524 8     -2564.688 8        49.418               
G13  22575525.804 7 118635163.164 7     -2767.788 7        44.834               
G15  20543919.818 7 107959010.527 7      -972.824 7        45.464               
G18  21493517.992 7 112949211.166 7      -152.987 7        44.453               
G24  20721123.452 7 108890220.452 7      1872.452 7        44.909               
> 2025 08 06 05 58 35.0000000  0  5                                             
G05  22858491.575 8 120122179.360 8     -2564.935 8        49.438               
G13  22576053.173 7 118637931.066 7     -2767.840 7        44.682               
G15  20544106.156 7 107959983.503 7      -973.258 7        45.533               
G18  21493547.351 7 112949364.019 7      -153.308 7        44.740               
G24  20720769.145 7 108888348.371 7      1871.675 7        45.124               
> 2025 08 06 05 58 36.0000000  0  5                                             
G05  22858979.167 8 120124744.545 8     -2565.465 8        49.356               
G13  22576581.167 7 118640699.094 7     -2768.154 7        44.858               
G15  20544290.029 7 107960956.822 7      -973.669 7        45.644               
G18  21493578.443 7 112949517.593 7      -154.014 7        44.550               
G24  20720411.765 7 108886476.947 7      1870.739 7        45.179               
> 2025 08 06 05 58 37.0000000  0  6                                             
G05  22859467.563 8 120127310.062 8     -2565.577 8        49.312               
G13  22577107.713 7 118643467.237 7     -2767.827 7        45.104               
G14  25184578.184 7 132345847.972 7      -204.531 7        43.157               
G15  20544474.437 7 107961930.490 7      -973.678 7        46.204               
G18  21493610.089 7 112949671.889 7      -154.672 7        45.124               
G24  20720054.134 7 108884606.167 7      1870.472 7        44.907               
> 2025 08 06 05 58 38.0000000  0  6                                             
G05  22859956.353 8 120129875.868 8     -2565.914 8        48.906               
G13  22577633.902 7 118646235.455 7     -2768.500 7        45.029               
G14  25184613.833 7 132346052.494 7      -204.856 7        43.031               
G15  20544660.525 7 107962904.432 7      -974.208 7        46.111               
G18  21493639.448 7 112949826.849 7      -155.317 7        45.132               
G24  20719695.985 7 108882735.981 7      1869.997 7        44.242               
> 2025 08 06 05 58 39.0000000  0  6                                             
G05  22860443.766 8 120132441.957 8     -2566.238 8        48.674               
G13  22578160.360 7 118649003.742 7     -2768.166 7        44.709               
G14  25184652.537 7 132346257.521 7      -205.061 7        42.965               
G15  20544846.381 7 107963878.671 7      -974.373 7        45.746               
G18  21493668.252 7 112949982.485 7      -156.048 7        45.316               
G24  20719337.747 7 108880866.385 7      1869.158 7        44.271               
> 2025 08 06 05 58 40.0000000  0  6                                             
G05  22860932.520 8 120135008.338 8     -2566.679 8        48.636               
G13  22578687.782 7 118651772.114 7     -2768.337 7        44.798               
G14  25184690.348 7 132346463.063 7      -205.556 7        43.241               
G15  20545033.040 7 107964853.208 7      -974.836 7        45.854               
G18  21493698.040 7 112950138.803 7      -156.670 7        45.405               
G24  20718981.421 7 108878997.404 7      1868.526 7        44.808               
> 2025 08 06 05 58 41.0000000  0  6                                             
G05  22861422.041 8 120137575.011 8     -2566.687 8        49.231               
G13  22579213.381 7 118654540.569 7     -2768.617 7        44.487               
G14  25184730.000 7 132346669.112 7      -206.326 7        42.870               
G15  20545218.539 7 107965828.045 7      -974.765 7        45.751               
G18  21493728.739 7 112950295.801 7      -157.110 7        45.462               
G24  20718628.293 7 108877129.025 7      1868.191 7        44.472               
> 2025 08 06 05 58 42.0000000  0  6                                             
G05  22861910.974 8 120140142.040 8     -2567.182 8        49.341               
G13  22579740.732 7 118657309.171 7     -2769.145 7        44.210               
G14  25184768.525 7 132346875.727 7      -207.285 7        43.036               
G15  20545405.038 7 107966803.244 7      -975.291 7        45.654               
G18  21493758.759 7 112950453.537 7      -157.857 7        45.099               
G24  20718274.415 7 108875261.298 7      1866.938 7        45.033               
> 2025 08 06 05 58 43.0000000  0  6                                             
G05  22862399.138 8 120142709.327 8     -2567.502 8        49.640               
G13  22580267.135 7 118660077.814 7     -2768.829 7        44.436               
G14  25184807.587 7 132347082.830 7      -206.917 7        42.808               
G15  20545589.929 7 107967778.724 7      -975.622 7        45.310               
G18  21493790.566 7 112950611.930 7      -159.068 7        45.307               
G24  20717920.895 7 108873394.167 7      1866.991 7        45.162               
> 2025 08 06 05 58 44.0000000  0  6                                             
G05  22862887.426 8 120145276.944 8     -2567.819 8        49.508               
G13  22580793.700 7 118662846.592 7     -2768.735 7        44.378               
G14  25184848.400 7 132347290.480 7      -208.090 7        42.652               
G15  20545774.676 7 107968754.532 7      -976.180 7        45.916               
G18  21493818.870 7 112950771.048 7      -159.558 7        45.369               
G24  20717567.517 7 108871527.681 7      1866.182 7        45.472               
> 2025 08 06 05 58 45.0000000  0  6                                             
G05  22863376.126 8 120147844.921 8     -2568.059 8        49.232               
G13  22581318.513 7 118665615.514 7     -2768.685 7        44.698               
G14  25184888.927 7 132347498.705 7      -208.430 7        42.837               
G15  20545958.745 7 107969730.720 7      -976.423 7        45.817               
G18  21493846.049 7 112950930.914 7      -160.107 7        45.136               
G24  20717213.496 7 108869661.871 7      1865.416 7        45.284               
> 2025 08 06 05 58 46.0000000  0  6                                             
G05  22863865.380 8 120150413.221 8     -2568.405 8        49.406               
G13  22581843.165 7 118668384.556 7     -2769.065 7        44.183               
G14  25184929.918 7 132347707.475 7      -208.904 7        43.481               
G15  20546142.385 7 107970707.225 7      -976.759 7        45.215               
G18  21493875.891 7 112951091.482 7      -161.011 7        45.319               
G24  20716858.367 7 108867796.693 7      1864.855 7        45.405               
> 2025 08 06 05 58 47.0000000  0  6                                             
G05  22864354.277 8 120152981.781 8     -2568.905 8        49.336               
G13  22582369.694 7 118671153.648 7     -2769.294 7        43.747               
G14  25184969.802 7 132347916.723 7      -209.500 7        43.889               
G15  20546328.098 7 107971684.001 7      -977.010 7        44.984               
G18  21493907.858 7 112951252.701 7      -161.596 7        45.286               
G24  20716504.095 7 108865932.096 7      1864.271 7        45.232               
> 2025 08 06 05 58 48.0000000  0  6                                             
G05  22864841.404 8 120155550.678 8     -2568.895 8        50.033               
G13  22582896.419 7 118673922.844 7     -2769.136 7        43.603               
G14  25185007.988 7 132348126.504 7      -209.957 7        44.267               
G15  20546513.453 7 107972661.115 7      -977.467 7        44.926               
G18  21493941.756 7 112951414.635 7      -161.903 7        45.114               
G24  20716150.360 7 108864068.140 7      1863.498 7        45.690               
> 2025 08 06 05 58 49.0000000  0  6                                             
G05  22865329.300 8 120158119.897 8     -2569.476 8        48.940               
G13  22583421.911 7 118676692.137 7     -2769.315 7        43.582               
G14  25185046.317 7 132348336.834 7      -210.419 7        44.396               
G15  20546698.040 7 107973638.557 7      -977.565 7        44.936               
G18  21493972.937 7 112951577.281 7      -162.900 7        44.950               
G24  20715795.160 7 108862204.821 7      1862.945 7        45.279               
> 2025 08 06 05 58 50.0000000  0  6                                             
G05  22865818.143 8 120160689.384 8     -2569.377 8        48.770               
G13  22583950.602 7 118679461.476 7     -2769.587 7        43.765               
G14  25185084.182 7 132348547.647 7      -211.119 7        44.537               
G15  20546885.558 7 107974616.262 7      -977.836 7        44.994               
G18  21494006.263 7 112951740.569 7      -163.623 7        44.724               
G24  20715442.372 7 108860342.089 7      1862.117 7        45.286               
> 2025 08 06 05 58 51.0000000  0  6                                             
G05  22866306.878 8 120163259.189 8     -2569.790 8        48.985               
G13  22584478.382 7 118682230.924 7     -2770.047 7        44.255               
G14  25185126.120 7 132348758.991 7      -211.546 7        44.687               
G15  20547072.164 7 107975594.294 7      -978.003 7        45.026               
G18  21494039.231 7 112951904.557 7      -164.230 7        44.946               
G24  20715088.422 7 108858479.985 7      1861.840 7        45.474               
> 2025 08 06 05 58 52.0000000  0  6                                             
G05  22866796.561 8 120165829.335 8     -2570.182 8        48.988               
G13  22585008.073 7 118685000.506 7     -2769.968 7        44.526               
G14  25185166.629 7 132348970.894 7      -212.219 7        44.405               
G15  20547256.715 7 107976572.679 7      -978.564 7        45.202               
G18  21494071.253 7 112952069.282 7      -165.209 7        45.101               
G24  20714733.811 7 108856618.542 7      1861.080 7        45.813               
> 2025 08 06 05 58 53.0000000  0  6                                             
G05  22867286.994 8 120168399.745 8     -2570.390 8        48.861               
G13  22585535.477 7 118687770.135 7     -2769.516 7        44.587               
G14  25185206.549 7 132349183.286 7      -212.394 7        44.368               
G15  20547442.875 7 107977551.331 7      -978.338 7        44.976               
G18  21494103.202 7 112952234.660 7      -165.742 7        45.301               
G24  20714378.003 7 108854757.671 7      1860.527 7        44.752               
> 2025 08 06 05 58 54.0000000  0  6                                             
G05  22867777.249 8 120170970.486 8     -2570.701 8        49.091               
G13  22586062.738 7 118690539.886 7     -2769.625 7        44.583               
G14  25185248.005 7 132349396.224 7      -213.110 7        44.243               
G15  20547628.659 7 107978530.324 7      -979.147 7        45.083               
G18  21494132.418 7 112952400.752 7      -166.478 7        44.995               
G24  20714024.358 7 108852897.439 7      1859.830 7        45.207               
> 2025 08 06 05 58 55.0000000  0  6                                             
G05  22868267.271 8 120173541.483 8     -2571.291 8        49.113               
G13  22586589.571 7 118693309.672 7     -2769.968 7        44.784               
G14  25185291.033 7 132349609.632 7      -213.931 7        43.998               
G15  20547814.961 7 107979509.583 7      -979.658 7        45.083               
G18  21494162.939 7 112952567.482 7      -167.154 7        44.864               
G24  20713670.265 7 108851037.778 7      1859.204 7        45.017               
> 2025 08 06 05 58 56.0000000  0  6                                             
G05  22868756.221 8 120176112.872 8     -2571.651 8        49.419               
G13  22587116.064 7 118696079.662 7     -2769.991 7        44.269               
G14  25185331.471 7 132349823.659 7      -214.076 7        44.091               
G15  20548001.961 7 107980489.236 7      -979.886 7        45.292               
G18  21494191.994 7 112952735.001 7      -167.770 7        44.802               
G24  20713315.154 7 108849178.837 7      1858.683 7        45.572               
> 2025 08 06 05 58 57.0000000  0  6                                             
G05  22869245.296 8 120178684.499 8     -2571.669 8        49.446               
G13  22587642.753 7 118698849.656 7     -2770.040 7        44.412               
G14  25185370.390 7 132350038.132 7      -214.896 7        44.085               
G15  20548189.317 7 107981469.135 7      -980.153 7        45.128               
G18  21494221.585 7 112952903.138 7      -168.760 7        44.732               
G24  20712961.133 7 108847320.421 7      1858.233 7        45.034               
> 2025 08 06 05 58 58.0000000  0  6                                             
G05  22869735.336 8 120181256.429 8     -2572.134 8        49.537               
G13  22588169.603 7 118701619.759 7     -2770.152 7        44.314               
G14  25185409.773 7 132350253.123 7      -215.174 7        44.004               
G15  20548374.977 7 107982449.349 7      -980.020 7        44.951               
G18  21494252.480 7 112953071.972 7      -169.131 7        44.632               
G24  20712606.897 7 108845462.642 7      1857.241 7        44.742               
> 2025 08 06 05 58 59.0000000  0  6                                             
G05  22870223.858 8 120183828.682 8     -2572.423 8        49.239               
G13  22588694.792 7 118704389.976 7     -2770.344 7        43.919               
G14  25185450.389 7 132350468.664 7      -215.893 7        44.026               
G15  20548563.620 7 107983429.902 7      -980.625 7        44.714               
G18  21494286.288 7 112953241.517 7      -169.765 7        44.833               
G24  20712251.125 7 108843605.504 7      1856.974 7        43.684               
> 2025 08 06 05 59 00.0000000  0  6                                             
G05  22870711.557 8 120186401.232 8     -2572.744 8        49.137               
G13  22589221.767 7 118707160.289 7     -2770.220 7        43.700               
G14  25185492.614 7 132350684.719 7      -216.250 7        43.899               
G15  20548750.887 7 107984410.752 7      -981.039 7        44.851               
G18  21494318.596 7 112953411.755 7      -170.614 7        44.212               
G24  20711896.371 7 108841748.976 7      1856.408 7        43.906               
> 2025 08 06 05 59 01.0000000  0  6                                             
G05  22871200.435 8 120188974.077 8     -2573.028 8        49.293               
G13  22589750.279 7 118709930.682 7     -2770.505 7        43.678               
G14  25185534.803 7 132350901.289 7      -216.886 7        44.011               
G15  20548938.941 7 107985391.911 7      -981.352 7        44.827               
G18  21494349.366 7 112953582.677 7      -171.525 7        44.088               
G24  20711542.493 7 108839893.074 7      1855.864 7        44.080               
> 2025 08 06 05 59 02.0000000  0  6                                             
G05  22871689.975 8 120191547.189 8     -2573.396 8        48.758               
G13  22590276.236 7 118712701.139 7     -2770.159 7        43.825               
G14  25185578.260 7 132351118.351 7      -217.362 7        44.759               
G15  20549125.404 7 107986373.331 7      -981.395 7        45.310               
G18  21494383.639 7 112953754.253 7      -172.062 7        44.405               
G24  20711189.366 7 108838037.739 7      1854.906 7        44.023               
> 2025 08 06 05 59 03.0000000  0  6                                             
G05  22872180.408 8 120194120.624 8     -2573.630 8        48.587               
G13  22590802.658 7 118715471.698 7     -2770.218 7        44.111               
G14  25185620.342 7 132351335.950 7      -217.798 7        44.854               
G15  20549310.902 7 107987355.086 7      -982.104 7        45.114               
G18  21494415.589 7 112953926.533 7      -172.599 7        45.136               
G24  20710838.150 7 108836183.047 7      1854.212 7        44.061               
> 2025 08 06 05 59 04.0000000  0  6                                             
G05  22872670.163 8 120196694.397 8     -2573.830 8        48.914               
G13  22591333.314 7 118718242.393 7     -2770.751 7        44.073               
G14  25185660.940 7 132351554.111 7      -218.501 7        44.944               
G15  20549495.847 7 107988337.194 7      -982.442 7        44.782               
G18  21494451.916 7 112954099.534 7      -173.478 7        44.967               
G24  20710486.416 7 108834329.009 7      1853.566 7        44.615               
> 2025 08 06 05 59 05.0000000  0  6                                             
G05  22873160.542 8 120199268.465 8     -2574.109 8        48.783               
G13  22591859.164 7 118721013.161 7     -2771.117 7        43.947               
G14  25185700.591 7 132351772.769 7      -218.671 7        44.797               
G15  20549681.560 7 107989319.589 7      -982.750 7        45.043               
G18  21494486.529 7 112954273.218 7      -174.077 7        44.978               
G24  20710135.183 7 108832475.575 7      1853.360 7        44.434               
> 2025 08 06 05 59 06.0000000  0  6                                             
G05  22873650.118 8 120201842.907 8     -2574.513 8        48.791               
G13  22592387.425 7 118723784.071 7     -2771.112 7        44.359               
G14  25185741.261 7 132351992.002 7      -219.287 7        44.979               
G15  20549868.398 7 107990302.345 7      -983.036 7        45.055               
G18  21494521.230 7 112954447.632 7      -174.702 7        45.143               
G24  20709782.859 7 108830622.814 7      1852.477 7        44.546               
> 2025 08 06 05 59 07.0000000  0  6                                             
G05  22874141.087 8 120204417.586 8     -2574.826 8        48.986               
G13  22592915.723 7 118726554.984 7     -2771.099 7        45.005               
G14  25185782.110 7 132352211.703 7      -219.953 7        44.631               
G15  20550054.379 7 107991285.355 7      -983.169 7        45.167               
G18  21494554.824 7 112954622.689 7      -175.669 7        45.342               
G24  20709430.321 7 108828770.618 7      1852.003 7        44.713               
> 2025 08 06 05 59 08.0000000  0  6                                             
G05  22874630.716 8 120206992.625 8     -2575.121 8        48.906               
G13  22593444.753 7 118729326.050 7     -2770.984 7        45.042               
G14  25185824.102 7 132352431.986 7      -220.364 7        45.070               
G15  20550240.628 7 107992268.732 7      -983.403 7        44.954               
G18  21494585.094 7 112954798.498 7      -176.094 7        45.167               
G24  20709076.943 7 108826919.095 7      1851.514 7        44.472               
> 2025 08 06 05 59 09.0000000  0  6                                             
G05  22875120.703 8 120209567.949 8     -2575.421 8        48.952               
G13  22593974.195 7 118732097.170 7     -2771.125 7        45.258               
G14  25185866.505 7 132352652.766 7      -221.086 7        44.732               
G15  20550427.305 7 107993252.409 7      -983.826 7        44.963               
G18  21494617.062 7 112954974.971 7      -176.929 7        44.678               
G24  20708723.869 7 108825068.175 7      1850.703 7        44.430               
> 2025 08 06 05 59 10.0000000  0  6                                             
G05  22875611.136 8 120212143.593 8     -2575.812 8        48.414               
G13  22594502.760 7 118734868.396 7     -2771.186 7        44.953               
G14  25185908.891 7 132352874.077 7      -221.917 7        44.557               
G15  20550613.161 7 107994236.387 7      -984.099 7        44.843               
G18  21494649.691 7 112955152.147 7      -177.460 7        44.714               
G24  20708370.688 7 108823217.875 7      1850.049 7        44.408               
> 2025 08 06 05 59 11.0000000  0  6                                             
G05  22876101.480 8 120214719.504 8     -2576.191 8        48.238               
G13  22595028.092 7 118737639.695 7     -2771.340 7        44.464               
G14  25185950.865 7 132353095.890 7      -222.012 7        44.558               
G15  20550801.072 7 107995220.665 7      -984.379 7        44.366               
G18  21494683.267 7 112955329.993 7      -178.227 7        44.867               
G24  20708020.616 7 108821368.185 7      1849.199 7        44.833               
> 2025 08 06 05 59 12.0000000  0  6                                             
G05  22876591.162 7 120217295.737 7     -2576.253 7        47.999               
G13  22595555.407 7 118740411.097 7     -2771.707 7        43.872               
G14  25185992.393 7 132353318.229 7      -222.441 7        44.694               
G15  20550988.446 7 107996205.255 7      -984.713 7        44.568               
G18  21494717.647 7 112955508.535 7      -178.813 7        45.032               
G24  20707667.846 7 108819519.123 7      1848.785 7        44.863               
> 2025 08 06 05 59 13.0000000  0  6                                             
G05  22877081.899 8 120219872.260 8     -2576.664 8        48.302               
G13  22596084.866 7 118743182.572 7     -2771.567 7        44.104               
G14  25186035.064 7 132353541.075 7      -223.050 7        44.338               
G15  20551177.090 7 107997190.148 7      -984.642 7        45.158               
G18  21494751.133 7 112955687.752 7      -179.435 7        44.850               
G24  20707316.898 7 108817670.643 7      1848.308 7        44.287               
> 2025 08 06 05 59 14.0000000  0  6                                             
G05  22877573.494 8 120222449.128 8     -2576.874 8        48.338               
G13  22596611.716 7 118745954.189 7     -2771.715 7        44.232               
G14  25186078.754 7 132353764.485 7      -223.938 7        43.962               
G15  20551364.268 7 107998175.388 7      -985.071 7        44.615               
G18  21494784.923 7 112955867.710 7      -180.426 7        44.851               
G24  20706963.538 7 108815822.836 7      1847.549 7        44.199               
> 2025 08 06 05 59 15.0000000  0  6                                             
G05  22878064.320 8 120225026.238 8     -2577.185 8        48.575               
G13  22597138.030 7 118748725.840 7     -2771.743 7        44.370               
G14  25186120.996 7 132353988.344 7      -224.364 7        44.455               
G15  20551551.946 7 107999160.881 7      -985.682 7        44.189               
G18  21494820.018 7 112956048.283 7      -180.890 7        44.508               
G24  20706609.517 7 108813975.579 7      1847.078 7        43.910               
> 2025 08 06 05 59 16.0000000  0  6                                             
G05  22878554.861 8 120227603.668 8     -2577.639 8        48.505               
G13  22597664.148 7 118751497.591 7     -2771.788 7        44.365               
G14  25186164.900 7 132354212.757 7      -224.808 7        44.380               
G15  20551739.499 7 108000146.697 7      -985.719 7        44.537               
G18  21494855.435 7 112956229.565 7      -181.743 7        44.369               
G24  20706256.997 7 108812128.952 7      1846.127 7        44.470               
> 2025 08 06 05 59 17.0000000  0  6                                             
G05  22879046.169 8 120230181.371 8     -2577.687 8        48.973               
G13  22598193.232 7 118754269.414 7     -2772.057 7        44.685               
G14  25186209.233 7 132354437.652 7      -225.098 7        44.481               
G15  20551927.731 7 108001132.783 7      -986.079 7        44.529               
G18  21494889.225 7 112956411.513 7      -181.972 7        44.416               
G24  20705907.175 7 108810282.925 7      1845.824 7        44.197               
> 2025 08 06 05 59 18.0000000  0  6                                             
G05  22879537.514 8 120232759.348 8     -2578.174 8        49.178               
G13  22598718.563 7 118757041.312 7     -2771.934 7        44.763               
G14  25186250.171 7 132354663.053 7      -225.471 7        44.307               
G15  20552116.196 7 108002119.171 7      -986.730 7        44.715               
G18  21494924.784 7 112956594.131 7      -183.052 7        44.730               
G24  20705555.620 7 108808437.487 7      1845.130 7        43.664               
> 2025 08 06 05 59 19.0000000  0  6                                             
G05  22880028.054 8 120235337.657 8     -2578.208 8        49.319               
G13  22599245.128 7 118759813.324 7     -2771.801 7        44.913               
G14  25186294.415 7 132354889.011 7      -226.191 7        44.205               
G15  20552305.072 7 108003105.889 7      -986.658 7        45.167               
G18  21494960.826 7 112956777.467 7      -183.866 7        45.142               
G24  20705205.083 7 108806592.718 7      1844.622 7        43.505               
> 2025 08 06 05 59 20.0000000  0  6                                             
G05  22880517.969 8 120237916.282 8     -2578.659 8        49.745               
G13  22599773.139 7 118762585.448 7     -2772.279 7        45.086               
G14  25186337.837 7 132355115.505 7      -226.665 7        44.281               
G15  20552493.536 7 108004092.941 7      -987.107 7        44.926               
G18  21494994.742 7 112956961.511 7      -184.452 7        45.484               
G24  20704853.117 7 108804748.568 7      1844.000 7        43.309               
> 2025 08 06 05 59 21.0000000  0  6                                             
G05  22881008.617 8 120240495.224 8     -2578.877 8        49.608               
G13  22600301.544 7 118765357.681 7     -2772.142 7        44.863               
G14  25186377.881 7 132355342.526 7      -227.213 7        43.899               
G15  20552679.624 7 108005080.302 7      -987.514 7        44.987               
G18  21495030.355 7 112957146.248 7      -184.877 7        45.100               
G24  20704502.813 7 108802905.057 7      1843.067 7        43.341               
> 2025 08 06 05 59 22.0000000  0  6                                             
G05  22881498.639 8 120243074.483 8     -2579.170 8        49.619               
G13  22600828.216 7 118768130.003 7     -2772.376 7        44.962               
G14  25186419.087 7 132355570.069 7      -227.763 7        43.812               
G15  20552868.071 7 108006067.980 7      -988.002 7        44.941               
G18  21495067.522 7 112957331.686 7      -185.996 7        44.855               
G24  20704151.704 7 108801062.170 7      1842.615 7        43.569               
> 2025 08 06 05 59 23.0000000  0  6                                             
G05  22881988.447 8 120245654.038 8     -2579.682 8        49.311               
G13  22601354.226 7 118770902.408 7     -2772.070 7        44.987               
G14  25186461.758 7 132355798.143 7      -228.563 7        43.287               
G15  20553057.751 7 108007055.971 7      -988.268 7        44.900               
G18  21495103.492 7 112957517.817 7      -186.263 7        45.023               
G24  20703801.632 7 108799219.907 7      1841.816 7        43.569               
> 2025 08 06 05 59 24.0000000  0  6                                             
G05  22882478.416 8 120248233.864 8     -2579.986 8        49.319               
G13  22601881.881 7 118773674.883 7     -2772.288 7        44.990               
G14  25186504.769 7 132356026.707 7      -228.909 7        43.554               
G15  20553247.269 7 108008044.231 7      -988.199 7        45.036               
G18  21495139.749 7 112957704.605 7      -187.044 7        45.193               
G24  20703450.488 7 108797378.225 7      1841.281 7        43.563               
> 2025 08 06 05 59 25.0000000  0  6                                             
G05  22882968.670 8 120250814.038 8     -2580.498 8        48.841               
G13  22602407.659 7 118776447.478 7     -2772.763 7        44.808               
G14  25186551.389 7 132356255.832 7      -229.560 7        43.614               
G15  20553433.876 7 108009032.854 7      -988.790 7        45.384               
G18  21495174.522 7 112957892.129 7      -187.887 7        45.623               
G24  20703101.989 7 108795537.213 7      1840.836 7        43.468               
> 2025 08 06 05 59 26.0000000  0  6                                             
G05  22883460.640 8 120253394.515 8     -2580.498 8        49.357               
G13  22602934.491 7 118779220.175 7     -2772.783 7        44.290               
G14  25186596.205 7 132356485.490 7      -229.930 7        43.680               
G15  20553621.536 7 108010021.789 7      -988.953 7        44.870               
G18  21495208.991 7 112958080.353 7      -188.522 7        45.412               
G24  20702753.936 7 108793696.823 7      1840.413 7        43.841               
> 2025 08 06 05 59 27.0000000  0  6                                             
G05  22883950.823 8 120255975.320 8     -2580.937 8        49.110               
G13  22603460.073 7 118781992.988 7     -2772.820 7        44.152               
G14  25186641.306 7 132356715.700 7      -230.389 7        43.502               
G15  20553809.340 7 108011011.054 7      -989.251 7        44.589               
G18  21495245.087 7 112958269.285 7      -189.042 7        44.966               
G24  20702404.579 7 108791857.086 7      1839.553 7        44.001               
> 2025 08 06 05 59 28.0000000  0  6                                             
G05  22884441.203 8 120258556.450 8     -2580.805 8        48.597               
G13  22603986.887 7 118784765.901 7     -2772.715 7        44.565               
G14  25186683.942 7 132356946.433 7      -230.907 7        43.103               
G15  20553995.785 7 108012000.642 7      -989.965 7        44.450               
G18  21495281.343 7 112958458.922 7      -190.052 7        45.132               
G24  20702052.845 7 108790017.965 7      1838.839 7        44.109               
> 2025 08 06 05 59 29.0000000  0  6                                             
G05  22884932.994 8 120261137.889 8     -2581.526 8        48.870               
G13  22604515.507 7 118787538.927 7     -2773.547 7        44.647               
G14  25186728.257 7 132357177.711 7      -231.236 7        43.557               
G15  20554182.034 7 108012990.562 7      -989.878 7        44.575               
G18  21495315.419 7 112958649.271 7      -190.405 7        45.267               
G24  20701702.934 7 108788179.493 7      1837.959 7        44.264               
> 2025 08 06 05 59 30.0000000  0  6                                             
G05  22885425.500 8 120263719.625 8     -2582.039 8        48.711               
G13  22605043.840 7 118790312.031 7     -2773.593 7        44.791               
G14  25186773.108 7 132357409.511 7      -232.019 7        43.371               
G15  20554371.052 7 108013980.784 7      -990.315 7        44.825               
G18  21495351.693 7 112958840.305 7      -191.719 7        45.278               
G24  20701352.040 7 108786341.634 7      1837.323 7        43.827               
> 2025 08 06 05 59 31.0000000  0  6                                             
G05  22885917.792 8 120266301.677 8     -2582.518 8        48.559               
G13  22605571.870 7 118793085.241 7     -2773.190 7        44.504               
G14  25186817.334 7 132357641.846 7      -232.703 7        43.616               
G15  20554560.750 7 108014971.340 7      -990.496 7        44.734               
G18  21495389.093 7 112959032.040 7      -192.030 7        45.313               
G24  20701004.112 7 108784504.407 7      1836.875 7        44.003               
> 2025 08 06 05 59 32.0000000  0  6                                             
G05  22886410.530 8 120268884.037 8     -2582.742 8        49.010               
G13  22606099.792 7 118795858.549 7     -2773.396 7        45.032               
G14  25186860.291 7 132357874.711 7      -233.180 7        43.373               
G15  20554751.680 7 108015962.205 7      -991.087 7        44.561               
G18  21495428.941 7 112959224.480 7      -192.961 7        45.301               
G24  20700655.273 7 108782667.817 7      1836.206 7        43.908               
> 2025 08 06 05 59 33.0000000  0  6                                             
G05  22886900.695 8 120271466.676 8     -2582.597 8        49.341               
G13  22606629.305 7 118798631.944 7     -2773.041 7        45.193               
G14  25186902.444 7 132358108.086 7      -233.705 7        42.952               
G15  20554940.931 7 108016953.373 7      -991.315 7        44.919               
G18  21495466.823 7 112959417.596 7      -193.344 7        45.569               
G24  20700306.130 7 108780831.834 7      1835.667 7        44.595               
> 2025 08 06 05 59 34.0000000  0  6                                             
G05  22887391.986 8 120274049.666 8     -2583.312 8        49.577               
G13  22607157.299 7 118801405.450 7     -2773.536 7        45.387               
G14  25186946.831 7 132358342.021 7      -234.373 7        42.656               
G15  20555130.003 7 108017944.893 7      -991.640 7        45.148               
G18  21495505.009 7 112959611.439 7      -193.926 7        45.746               
G24  20699956.701 7 108778996.503 7      1835.201 7        44.706               
> 2025 08 06 05 59 35.0000000  0  6                                             
G05  22887883.366 8 120276632.998 8     -2583.377 8        49.292               
G13  22607686.794 7 118804179.110 7     -2773.352 7        45.525               
G14  25186992.826 7 132358576.516 7      -234.402 7        43.110               
G15  20555318.772 7 108018936.748 7      -992.221 7        45.154               
G18  21495542.391 7 112959806.021 7      -195.070 7        46.080               
G24  20699607.683 7 108777161.849 7      1834.187 7        44.141               
> 2025 08 06 05 59 36.0000000  0  6                                             
G05  22888373.978 8 120279216.614 8     -2583.845 8        49.265               
G13  22608215.717 7 118806952.828 7     -2773.415 7        45.349               
G14  25187037.462 7 132358811.516 7      -235.400 7        43.254               
G15  20555508.040 7 108019928.911 7      -992.295 7        45.056               
G18  21495579.059 7 112960001.265 7      -195.777 7        46.089               
G24  20699255.521 7 108775327.785 7      1833.679 7        43.653               
> 2025 08 06 05 59 37.0000000  0  6                                             
G05  22888865.198 8 120281800.561 8     -2583.812 8        49.122               
G13  22608743.639 7 118809726.638 7     -2773.947 7        45.465               
G14  25187085.512 7 132359047.051 7      -235.373 7        43.777               
G15  20555696.434 7 108020921.386 7      -992.690 7        45.253               
G18  21495614.636 7 112960197.217 7      -196.288 7        46.005               
G24  20698906.271 7 108773494.352 7      1832.812 7        44.297               
> 2025 08 06 05 59 38.0000000  0  6                                             
G05  22889356.757 8 120284384.864 8     -2584.317 8        48.718               
G13  22609270.257 7 118812500.605 7     -2774.245 7        45.154               
G14  25187129.684 7 132359283.156 7      -236.330 7        44.340               
G15  20555885.291 7 108021914.215 7      -992.848 7        45.301               
G18  21495650.106 7 112960393.916 7      -197.185 7        45.546               
G24  20698559.683 7 108771661.596 7      1833.097 7        44.147               
> 2025 08 06 05 59 39.0000000  0  6                                             
G05  22889849.817 8 120286969.423 8     -2584.298 8        48.691               
G13  22609797.447 7 118815274.627 7     -2773.999 7        44.892               
G14  25187178.038 7 132359519.745 7      -236.646 7        44.242               
G15  20556073.506 7 108022907.323 7      -993.002 7        44.339               
G18  21495685.576 7 112960591.265 7      -197.926 7        45.259               
G24  20698212.470 7 108769829.422 7      1832.258 7        43.793               
> 2025 08 06 05 59 40.0000000  0  6                                             
G05  22890341.018 8 120289554.344 8     -2585.224 8        48.163               
G13  22610326.995 7 118818048.778 7     -2774.461 7        45.418               
G14  25187222.818 7 132359756.905 7      -237.125 7        44.186               
G15  20556260.791 7 108023900.785 7      -994.071 7        44.463               
G18  21495724.530 7 112960789.350 7      -198.312 7        45.243               
G24  20697867.133 7 108767997.929 7      1831.231 7        43.793               
> 2025 08 06 05 59 41.0000000  0  6                                             
G05  22890832.863 8 120292139.547 8     -2585.274 8        48.058               
G13  22610854.846 7 118820823.005 7     -2774.334 7        45.457               
G14  25187267.919 7 132359994.572 7      -238.038 7        44.526               
G15  20556451.578 7 108024894.544 7      -994.008 7        44.753               
G18  21495759.982 7 112960988.115 7      -198.965 7        44.957               
G24  20697519.170 7 108766167.038 7      1830.425 7        44.865               
> 2025 08 06 05 59 42.0000000  0  6                                             
G05  22891325.297 8 120294725.025 8     -2585.545 8        48.440               
G13  22611382.822 7 118823597.296 7     -2774.273 7        45.626               
G14  25187311.609 7 132360232.737 7      -238.400 7        44.489               
G15  20556641.294 7 108025888.582 7      -994.415 7        45.007               
G18  21495798.615 7 112961187.534 7      -199.727 7        45.127               
G24  20697171.260 7 108764336.736 7      1830.230 7        44.906               
> 2025 08 06 05 59 43.0000000  0  7                                             
G05  22891818.715 8 120297310.799 8     -2585.913 8        48.878               
G13  22611911.084 7 118826371.657 7     -2774.422 7        45.774               
G14  25187354.262 7 132360471.411 7      -238.932 7        43.903               
G15  20556830.402 7 108026882.919 7      -994.482 7        44.944               
G18  21495836.408 7 112961387.644 7      -200.455 7        45.555               
G22  25050929.293 6 131643511.684 6       364.921 6        41.769               
G24  20696823.547 7 108762507.050 7      1829.604 7        44.879               
> 2025 08 06 05 59 44.0000000  0  7                                             
G05  22892311.006 8 120299896.867 8     -2586.564 8        48.803               
G13  22612441.026 7 118829146.111 7     -2774.663 7        45.615               
G14  25187398.738 7 132360710.604 7      -239.576 7        43.697               
G15  20557016.043 7 108027877.572 7      -994.696 7        44.051               
G18  21495878.329 7 112961588.445 7      -200.945 7        45.650               
G22  25050859.497 6 131643147.259 6       363.976 6        41.672               
G24  20696474.797 7 108760677.979 7      1828.230 7        44.945               
> 2025 08 06 05 59 45.0000000  0  7                                             
G05  22892802.262 8 120302483.259 8     -2586.436 8        49.055               
G13  22612968.073 7 118831920.681 7     -2774.766 7        45.931               
G14  25187442.875 7 132360950.337 7      -240.203 7        43.496               
G15  20557205.633 7 108028872.542 7      -994.831 7        44.682               
G18  21495917.319 7 112961789.950 7      -202.146 7        45.234               
G22  25050790.915 6 131642783.345 6       363.485 6        41.631               
G24  20696124.207 7 108758849.542 7      1828.053 7        45.034               
> 2025 08 06 05 59 46.0000000  0  7                                             
G05  22893294.642 8 120305069.998 8     -2587.066 8        48.805               
G13  22613496.013 7 118834695.394 7     -2775.033 7        46.027               
G14  25187488.030 7 132361190.639 7      -240.743 7        43.372               
G15  20557395.653 7 108029867.872 7      -995.585 7        44.502               
G18  21495957.703 7 112961992.191 7      -202.555 7        45.633               
G22  25050720.083 6 131642419.976 6       362.972 6        41.467               
G24  20695775.654 7 108757021.784 7      1827.228 7        44.699               
> 2025 08 06 05 59 47.0000000  0  7                                             
G05  22893787.006 8 120307656.990 8     -2587.428 8        48.845               
G13  22614026.794 7 118837470.145 7     -2774.721 7        45.775               
G14  25187536.294 7 132361431.409 7      -240.794 7        42.996               
G15  20557587.476 7 108030863.458 7      -995.837 7        44.743               
G18  21495995.407 7 112962195.071 7      -203.282 7        46.019               
G22  25050649.464 6 131642057.040 6       362.510 6        41.798               
G24  20695428.298 7 108755194.592 7      1826.897 7        44.666               
> 2025 08 06 05 59 48.0000000  0  7                                             
G05  22894280.441 8 120310244.261 8     -2587.387 8        48.738               
G13  22614555.878 7 118840244.966 7     -2774.512 7        45.550               
G14  25187584.451 7 132361672.689 7      -241.695 7        42.833               
G15  20557778.657 7 108031859.328 7      -996.199 7        45.279               
G18  21496034.647 7 112962398.625 7      -203.996 7        45.890               
G22  25050580.811 7 131641694.586 7       362.283 7        42.038               
G24  20695081.782 7 108753368.003 7      1826.157 7        44.776               
> 2025 08 06 05 59 49.0000000  0  7                                             
G05  22894772.840 8 120312831.798 8     -2587.737 8        48.892               
G13  22615081.549 7 118843019.832 7     -2774.737 7        45.089               
G14  25187633.287 7 132361914.468 7      -242.464 7        43.365               
G15  20557967.694 7 108032855.474 7      -996.208 7        44.961               
G18  21496072.011 7 112962602.833 7      -204.779 7        45.839               
G22  25050513.767 7 131641332.589 7       361.496 7        42.487               
G24  20694732.942 7 108751542.005 7      1825.598 7        44.746               
> 2025 08 06 05 59 50.0000000  0  7                                             
G05  22895265.453 8 120315419.619 8     -2588.004 8        48.504               
G13  22615608.775 7 118845794.788 7     -2774.882 7        45.496               
G14  25187679.586 7 132362156.743 7      -242.723 7        43.516               
G15  20558158.463 7 108033851.911 7      -996.428 7        44.827               
G18  21496111.180 7 112962807.711 7      -205.297 7        45.350               
G22  25050447.419 7 131640971.052 7       361.329 7        42.863               
G24  20694384.836 7 108749716.607 7      1825.106 7        44.595               
> 2025 08 06 05 59 51.0000000  0  7                                             
G05  22895757.995 8 120318007.721 8     -2588.208 8        48.348               
G13  22616136.733 7 118848569.787 7     -2775.001 7        45.118               
G14  25187725.384 7 132362399.516 7      -242.605 7        42.978               
G15  20558346.838 7 108034848.620 7      -996.879 7        44.905               
G18  21496149.206 7 112963013.249 7      -205.677 7        45.603               
G22  25050376.050 7 131640609.987 7       361.353 7        42.836               
G24  20694038.052 7 108747891.793 7      1824.715 7        44.613               
> 2025 08 06 05 59 52.0000000  0  7                                             
G05  22896250.894 8 120320596.133 8     -2588.718 8        48.012               
G13  22616664.423 7 118851344.894 7     -2775.497 7        44.664               
G14  25187769.949 7 132362642.823 7      -243.615 7        43.523               
G15  20558533.748 7 108035845.646 7      -997.397 7        44.780               
G18  21496188.875 7 112963219.488 7      -206.743 7        45.696               
G22  25050305.718 7 131640249.418 7       360.306 7        43.363               
G24  20693689.499 7 108746067.612 7      1823.732 7        45.066               
> 2025 08 06 05 59 53.0000000  0  7                                             
G05  22896745.079 8 120323184.904 8     -2589.020 8        48.282               
G13  22617191.345 7 118854120.140 7     -2775.229 7        44.630               
G14  25187812.978 7 132362886.691 7      -244.072 7        43.041               
G15  20558723.196 7 108036843.039 7      -997.741 7        45.247               
G18  21496226.793 7 112963426.465 7      -207.451 7        45.454               
G22  25050236.940 7 131639889.402 7       359.788 7        42.857               
G24  20693342.125 7 108744244.108 7      1823.032 7        44.876               
> 2025 08 06 05 59 54.0000000  0  7                                             
G05  22897236.174 8 120325773.984 8     -2589.106 8        48.431               
G13  22617718.141 7 118856895.490 7     -2775.248 7        44.402               
G14  25187855.345 7 132363131.091 7      -244.680 7        42.883               
G15  20558913.161 7 108037840.747 7      -997.790 7        45.279               
G18  21496265.515 7 112963634.145 7      -208.009 7        45.640               
G22  25050166.804 7 131639529.883 7       359.041 7        42.615               
G24  20692996.627 7 108742421.233 7      1822.512 7        44.568               
> 2025 08 06 05 59 55.0000000  0  7                                             
G05  22897727.661 8 120328363.332 8     -2589.453 8        48.235               
G13  22618246.939 7 118859670.882 7     -2775.503 7        44.604               
G14  25187904.378 7 132363375.968 7      -244.682 7        42.894               
G15  20559103.913 7 108038838.741 7      -997.748 7        44.958               
G18  21496304.595 7 112963842.492 7      -208.614 7        45.270               
G22  25050099.938 7 131639170.821 7       358.800 7        42.964               
G24  20692651.076 7 108740598.948 7      1821.980 7        44.807               
> 2025 08 06 05 59 56.0000000  0  7                                             
G05  22898218.988 8 120330952.945 8     -2589.704 8        48.008               
G13  22618776.309 7 118862446.333 7     -2775.220 7        44.788               
G14  25187952.803 7 132363621.340 7      -245.748 7        42.410               
G15  20559295.022 7 108039836.994 7      -998.631 7        44.914               
G18  21496345.211 7 112964051.480 7      -209.608 7        45.127               
G22  25050035.199 7 131638812.213 7       358.071 7        42.787               
G24  20692305.221 7 108738777.249 7      1821.198 7        44.899               
> 2025 08 06 05 59 57.0000000  0  7                                             
G05  22898711.726 8 120333542.821 8     -2590.342 8        48.118               
G13  22619305.876 7 118865221.832 7     -2775.661 7        44.735               
G14  25188003.355 7 132363867.192 7      -246.634 7        42.451               
G15  20559487.829 7 108040835.519 7      -998.689 7        45.374               
G18  21496385.077 7 112964261.122 7      -210.029 7        45.267               
G22  25049967.404 7 131638454.069 7       357.895 7        42.959               
G24  20691959.527 7 108736956.129 7      1820.609 7        45.135               
> 2025 08 06 05 59 58.0000000  0  7                                             
G05  22899204.053 8 120336133.025 8     -2590.452 8        48.160               
G13  22619836.228 7 118867997.447 7     -2775.669 7        44.445               
G14  25188050.600 7 132364113.601 7      -246.185 7        42.075               
G15  20559680.189 7 108041834.385 7      -998.824 7        45.436               
G18  21496425.764 7 112964471.475 7      -210.878 7        45.673               
G22  25049898.000 7 131638096.444 7       357.544 7        42.196               
G24  20691611.510 7 108735135.660 7      1819.904 7        44.631               
> 2025 08 06 05 59 59.0000000  0  7                                             
G05  22899695.684 7 120338723.795 7     -2590.944 7        44.920               
G13  22620362.685 7 118870773.400 7     -2776.038 7        42.019               
G14  25188098.096 6 132364360.796 6      -248.750 6        39.578               
G15  20559870.691 7 108042833.820 7      -999.192 7        42.454               
G18  21496466.041 7 112964682.801 7      -211.572 7        42.879               
G22  25049829.651 6 131637739.578 6       357.900 6        39.960               
G24  20691262.689 6 108733316.088 6      1819.513 6        41.586               
> 2025 08 06 06 00 00.0000000  0  7                                             
G05  22900196.142 5 120341314.649 5     -2593.547 5        35.063               
G13  22620888.338 5 118873549.364 5     -2778.639 5        33.753               
G14  25188141.679 5 132364608.549 5      -247.173 5        32.412               
G15  20560058.709 5 108043833.658 5     -1001.826 5        33.485               
G18  21496505.978 5 112964894.950 5      -214.825 5        33.557               
G22  25049768.504 5 131637383.324 5       357.466 5        32.215               
G24  20690926.412 5 108731497.250 5      1819.582 5        33.036               
