     3.02           OBSERVATION DATA    G                   RINEX VERSION / TYPE
G = GPS  R = GLONASS  E = GALILEO  S = GEO  M = MIXED       COMMENT             
GNSS-SDR            suhjw               20250805 101554 UTC PGM / RUN BY / DATE 
GPS OBSERVATION DATA FILE GENERATED BY GNSS-SDR             COMMENT             
GNSS-SDR VERSION 0.0.20                                     COMMENT             
See https://gnss-sdr.org                                    COMMENT             
DEFAULT MARKER NAME                                         MARKER NAME         
suhjw               CTTC                                    OBSERVER / AGENCY   
GNSS-SDR            Software Receiver   0.0.20              REC # / TYPE / VERS 
Antenna number      Antenna type                            ANT # / TYPE        
        0.0000        0.0000        0.0000                  APPROX POSITION XYZ 
        0.0000        0.0000        0.0000                  ANTENNA: DELTA H/E/N
G    4 C1C L1C D1C S1C                                      SYS / # / OBS TYPES 
DBHZ                                                        SIGNAL STRENGTH UNIT
  2025    08    05    10    16   12.1200000     GPS         TIME OF FIRST OBS   
    18    18   137     7                                    LEAP SECONDS        
                                                            END OF HEADER       
> 2025 08 05 10 16 13.0000000  0  6                                             
G31  27913205.974 7 146684896.275 7      2429.198 7        42.082               
G12  27653144.547 7 145318263.092 7     -2705.082 7        44.654               
G23  29450781.766 7 154764912.913 7     -3873.404 7        46.070               
G25  25345761.739 7 133192871.645 7      -996.647 7        45.774               
G28  26478864.495 7 139147369.326 7      1161.893 7        45.347               
G29  29651254.389 7 155818412.174 7      2749.274 7        45.775               
> 2025 08 05 10 16 14.0000000  0  6                                             
G31  27912745.212 7 146682465.884 7      2432.100 7        42.610               
G12  27653660.399 7 145320969.738 7     -2706.958 7        44.650               
G23  29451517.720 7 154768787.651 7     -3876.007 7        45.893               
G25  25345949.793 7 133193870.134 7      -999.193 7        45.778               
G28  26478643.098 7 139146208.824 7      1162.998 7        45.521               
G29  29650731.550 7 155815663.561 7      2752.939 7        46.047               
> 2025 08 05 10 16 15.0000000  0  6                                             
G31  27912283.513 7 146680035.747 7      2434.458 7        42.148               
G12  27654173.258 7 145323676.840 7     -2709.638 7        44.790               
G23  29452259.249 7 154772662.419 7     -3875.276 7        45.890               
G25  25346138.409 7 133194869.325 7     -1001.841 7        45.402               
G28  26478420.923 7 139145048.600 7      1161.866 7        45.005               
G29  29650209.230 7 155812915.048 7      2748.644 7        45.235               
> 2025 08 05 10 16 16.0000000  0  6                                             
G31  27911821.616 7 146677605.823 7      2428.001 7        42.028               
G12  27654684.526 7 145326384.369 7     -2702.759 7        44.812               
G23  29452990.172 7 154776537.160 7     -3877.130 7        45.973               
G25  25346328.741 7 133195869.158 7     -1001.469 7        45.540               
G28  26478198.597 7 139143888.627 7      1157.805 7        45.025               
G29  29649685.220 7 155810166.590 7      2750.672 7        45.451               
> 2025 08 05 10 16 17.0000000  0  6                                             
G31  27911355.092 6 146675176.132 6      2432.309 6        41.878               
G12  27655196.027 7 145329092.368 7     -2710.571 7        44.452               
G23  29453733.452 7 154780411.920 7     -3875.116 7        45.963               
G25  25346516.375 7 133196869.675 7      -998.528 7        45.928               
G28  26477977.968 7 139142728.932 7      1161.821 7        45.033               
G29  29649162.918 7 155807418.222 7      2751.449 7        45.963               
> 2025 08 05 10 16 18.0000000  0  6                                             
G31  27910892.320 7 146672746.655 7      2428.424 7        42.516               
G12  27655717.499 7 145331800.778 7     -2712.034 7        44.535               
G23  29454470.183 7 154784286.675 7     -3874.546 7        45.473               
G25  25346709.995 7 133197870.818 7     -1004.642 7        45.716               
G28  26477756.705 7 139141569.486 7      1158.210 7        44.726               
G29  29648640.133 7 155804669.921 7      2752.484 7        45.738               
> 2025 08 05 10 16 19.0000000  0  6                                             
G31  27910431.245 7 146670317.472 7      2430.601 7        42.480               
G12  27656231.475 7 145334509.707 7     -2710.004 7        44.730               
G23  29455208.388 7 154788161.477 7     -3872.679 7        45.992               
G25  25346898.951 7 133198872.701 7     -1000.768 7        45.795               
G28  26477534.691 7 139140410.354 7      1157.401 7        44.613               
G29  29648115.132 7 155801921.737 7      2746.357 7        45.408               
> 2025 08 05 10 16 20.0000000  0  6                                             
G31  27909967.580 7 146667888.462 7      2426.547 7        42.657               
G12  27656745.682 7 145337219.031 7     -2705.630 7        44.055               
G23  29455943.520 7 154792036.253 7     -3878.150 7        45.959               
G25  25347089.622 7 133199875.208 7     -1003.529 7        45.619               
G28  26477310.176 7 139139251.451 7      1159.504 7        44.222               
G29  29647593.392 7 155799173.599 7      2752.612 7        45.561               
> 2025 08 05 10 16 21.0000000  0  6                                             
G31  27909506.273 7 146665459.673 7      2428.676 7        42.406               
G12  27657261.329 7 145339928.799 7     -2709.802 7        43.545               
G23  29456681.144 7 154795911.034 7     -3874.163 7        45.129               
G25  25347285.726 7 133200878.378 7      -999.662 7        45.494               
G28  26477092.290 7 139138092.817 7      1159.983 7        44.000               
G29  29647070.875 7 155796425.531 7      2745.478 7        45.322               
> 2025 08 05 10 16 22.0000000  0  6                                             
G31  27909044.690 7 146663031.102 7      2424.000 7        42.009               
G12  27657779.280 7 145342639.009 7     -2715.231 7        43.794               
G23  29457418.063 7 154799785.791 7     -3874.687 7        45.212               
G25  25347475.941 7 133201882.201 7     -1002.362 7        45.381               
G28  26476866.783 7 139136934.422 7      1152.705 7        44.377               
G29  29646548.412 7 155793677.521 7      2743.728 7        45.417               
> 2025 08 05 10 16 23.0000000  0  6                                             
G31  27908586.993 7 146660602.733 7      2434.990 7        42.121               
G12  27658297.545 7 145345349.639 7     -2710.660 7        44.037               
G23  29458155.705 7 154803660.537 7     -3873.155 7        45.658               
G25  25347665.228 7 133202886.674 7     -1003.625 7        44.549               
G28  26476648.504 7 139135776.273 7      1161.900 7        44.132               
G29  29646025.600 7 155790929.577 7      2746.447 7        44.629               
> 2025 08 05 10 16 24.0000000  0  6                                             
G31  27908121.898 7 146658174.624 7      2428.727 7        42.328               
G12  27658815.541 7 145348060.729 7     -2711.680 7        44.366               
G23  29458892.748 7 154807535.313 7     -3874.892 7        45.188               
G25  25347856.534 7 133203891.830 7     -1007.824 7        44.869               
G28  26476427.518 7 139134618.420 7      1157.470 7        44.435               
G29  29645499.196 7 155788181.704 7      2744.275 7        44.894               
> 2025 08 05 10 16 25.0000000  0  6                                             
G31  27907661.440 7 146655746.688 7      2431.395 7        42.661               
G12  27659331.402 7 145350772.226 7     -2713.448 7        44.564               
G23  29459631.972 7 154811410.039 7     -3872.405 7        45.446               
G25  25348045.901 7 133204897.617 7     -1006.264 7        44.942               
G28  26476207.211 7 139133460.770 7      1159.676 7        44.644               
G29  29644976.795 7 155785433.880 7      2751.718 7        44.871               
> 2025 08 05 10 16 26.0000000  0  6                                             
G31  27907198.516 7 146653318.938 7      2427.151 7        42.033               
G12  27659845.467 7 145353484.129 7     -2708.881 7        44.264               
G23  29460369.051 7 154815284.740 7     -3877.600 7        45.511               
G25  25348236.447 7 133205904.021 7     -1006.282 7        44.834               
G28  26475988.780 7 139132303.363 7      1157.879 7        44.731               
G29  29644453.555 7 155782686.088 7      2748.004 7        45.353               
> 2025 08 05 10 16 27.0000000  0  6                                             
G31  27906734.850 6 146650891.392 6      2426.681 6        41.874               
G12  27660364.785 7 145356196.456 7     -2713.449 7        44.371               
G23  29461105.112 7 154819159.393 7     -3873.075 7        45.394               
G25  25348429.593 7 133206911.058 7     -1003.762 7        45.022               
G28  26475769.938 7 139131146.177 7      1155.056 7        45.185               
G29  29643931.422 7 155779938.357 7      2746.840 7        44.830               
> 2025 08 05 10 16 28.0000000  0  6                                             
G31  27906272.632 7 146648464.035 7      2424.579 7        42.429               
G12  27660874.365 7 145358909.172 7     -2713.805 7        44.204               
G23  29461842.611 7 154823034.036 7     -3874.455 7        45.078               
G25  25348623.597 7 133207918.732 7     -1009.334 7        45.011               
G28  26475549.354 7 139129989.231 7      1159.325 7        45.202               
G29  29643409.164 7 155777190.641 7      2745.152 7        44.856               
> 2025 08 05 10 16 29.0000000  0  6                                             
G31  27905806.867 6 146646036.903 6      2428.124 6        41.449               
G12  27661394.353 7 145361622.363 7     -2712.938 7        44.448               
G23  29462582.121 7 154826908.678 7     -3877.739 7        45.942               
G25  25348814.501 7 133208927.091 7     -1011.452 7        45.285               
G28  26475329.145 7 139128832.550 7      1157.850 7        45.698               
G29  29642886.084 7 155774443.031 7      2748.307 7        44.941               
> 2025 08 05 10 16 30.0000000  0  6                                             
G31  27905352.378 7 146643610.022 7      2422.724 7        42.049               
G12  27661909.312 7 145364335.992 7     -2714.718 7        44.844               
G23  29463315.055 7 154830783.326 7     -3871.501 7        45.909               
G25  25349007.987 7 133209936.120 7     -1009.324 7        45.471               
G28  26475109.427 7 139127676.150 7      1156.982 7        45.520               
G29  29642362.423 7 155771695.512 7      2742.045 7        45.127               
> 2025 08 05 10 16 31.0000000  0  6                                             
G31  27904887.381 6 146641183.316 6      2426.645 6        41.690               
G12  27662425.003 7 145367050.046 7     -2715.973 7        44.337               
G23  29464055.538 7 154834657.955 7     -3878.135 7        45.532               
G25  25349199.811 7 133210945.791 7     -1009.906 7        45.757               
G28  26474889.156 7 139126519.983 7      1154.012 7        46.119               
G29  29641841.363 7 155768948.030 7      2750.951 7        45.001               
> 2025 08 05 10 16 32.0000000  0  6                                             
G31  27904425.931 7 146638756.862 7      2426.232 7        42.269               
G12  27662941.400 7 145369764.560 7     -2718.579 7        43.638               
G23  29464789.856 7 154838532.597 7     -3879.846 7        45.675               
G25  25349393.323 7 133211956.138 7     -1010.690 7        45.425               
G28  26474673.298 7 139125364.094 7      1157.730 7        46.345               
G29  29641319.614 7 155766200.634 7      2748.610 7        44.988               
> 2025 08 05 10 16 33.0000000  0  6                                             
G31  27903963.767 7 146636330.593 7      2426.804 7        42.869               
G12  27663457.529 7 145372479.456 7     -2717.535 7        43.684               
G23  29465530.653 7 154842407.200 7     -3877.267 7        45.028               
G25  25349578.125 7 133212967.108 7     -1009.433 7        45.202               
G28  26474451.588 7 139124208.423 7      1155.899 7        45.952               
G29  29640797.231 7 155763453.265 7      2751.399 7        45.294               
> 2025 08 05 10 16 34.0000000  0  6                                             
G31  27903501.817 7 146633904.526 7      2425.276 7        42.694               
G12  27663969.735 7 145375194.791 7     -2717.251 7        44.048               
G23  29466267.115 7 154846281.776 7     -3873.573 7        45.084               
G25  25349775.354 7 133213978.727 7     -1015.266 7        44.925               
G28  26474234.113 7 139123052.988 7      1155.155 7        45.766               
G29  29640276.420 7 155760705.973 7      2746.135 7        45.334               
> 2025 08 05 10 16 35.0000000  0  6                                             
G31  27903040.046 7 146631478.722 7      2417.730 7        42.672               
G12  27664484.694 7 145377910.594 7     -2718.037 7        43.554               
G23  29467002.917 7 154850156.381 7     -3874.646 7        45.440               
G25  25349965.909 7 133214991.027 7     -1015.627 7        45.273               
G28  26474015.441 7 139121897.858 7      1154.566 7        45.881               
G29  29639752.340 7 155757958.773 7      2746.574 7        45.588               
> 2025 08 05 10 16 36.0000000  0  6                                             
G31  27902581.375 7 146629053.126 7      2420.911 7        42.091               
G12  27665000.215 7 145380626.830 7     -2723.492 7        43.401               
G23  29467739.344 7 154854030.991 7     -3874.600 7        45.170               
G25  25350158.394 7 133216003.988 7     -1017.486 7        45.158               
G28  26473796.501 7 139120742.967 7      1155.743 7        45.344               
G29  29639229.171 7 155755211.641 7      2749.910 7        45.500               
> 2025 08 05 10 16 37.0000000  0  6                                             
G31  27902120.131 7 146626627.722 7      2421.671 7        42.386               
G12  27665517.139 7 145383343.465 7     -2712.964 7        43.225               
G23  29468476.039 7 154857905.539 7     -3877.546 7        45.078               
G25  25350352.961 7 133217017.564 7     -1016.319 7        45.146               
G28  26473577.007 7 139119588.309 7      1152.422 7        46.072               
G29  29638704.867 7 155752464.543 7      2742.231 7        45.850               
> 2025 08 05 10 16 38.0000000  0  6                                             
G31  27901660.289 7 146624202.503 7      2428.918 7        42.202               
G12  27666031.874 7 145386060.518 7     -2720.178 7        43.597               
G23  29469217.648 7 154861780.072 7     -3869.466 7        44.837               
G25  25350546.251 7 133218031.789 7     -1015.679 7        45.227               
G28  26473358.513 7 139118433.882 7      1151.898 7        45.573               
G29  29638182.984 7 155749717.486 7      2746.371 7        45.172               
> 2025 08 05 10 16 39.0000000  0  6                                             
G31  27901198.902 7 146621777.521 7      2422.891 7        42.124               
G12  27666548.905 7 145388778.027 7     -2716.664 7        42.421               
G23  29469949.948 7 154865654.617 7     -3874.408 7        45.411               
G25  25350737.753 7 133219046.669 7     -1016.649 7        45.322               
G28  26473137.366 7 139117279.725 7      1155.745 7        45.543               
G29  29637659.591 7 155746970.530 7      2745.040 7        45.481               
> 2025 08 05 10 16 40.0000000  0  6                                             
G31  27900732.762 7 146619352.724 7      2423.704 7        42.290               
G12  27667070.055 7 145391495.950 7     -2722.952 7        42.579               
G23  29470689.931 7 154869529.136 7     -3877.091 7        45.152               
G25  25350932.105 7 133220062.197 7     -1012.769 7        45.619               
G28  26472918.042 7 139116125.810 7      1153.339 7        45.795               
G29  29637135.359 7 155744223.608 7      2746.840 7        45.660               
> 2025 08 05 10 16 41.0000000  0  6                                             
G31  27900276.735 6 146616928.161 6      2420.066 6        41.954               
G12  27667585.264 7 145394214.295 7     -2718.423 7        43.467               
G23  29471427.403 7 154873403.652 7     -3874.494 7        44.871               
G25  25351126.851 7 133221078.375 7     -1018.964 7        46.131               
G28  26472699.370 7 139114972.146 7      1151.882 7        45.864               
G29  29636613.700 7 155741476.764 7      2750.104 7        45.703               
> 2025 08 05 10 16 42.0000000  0  6                                             
G31  27899809.720 6 146614503.812 6      2427.686 6        41.557               
G12  27668101.527 7 145396933.070 7     -2717.844 7        43.005               
G23  29472165.108 7 154877278.136 7     -3876.453 7        45.053               
G25  25351319.845 7 133222095.230 7     -1018.968 7        46.074               
G28  26472478.821 7 139113818.749 7      1153.373 7        45.929               
G29  29636089.101 7 155738729.997 7      2744.430 7        45.294               
> 2025 08 05 10 16 43.0000000  0  6                                             
G31  27899348.913 7 146612079.693 7      2424.131 7        42.007               
G12  27668618.933 7 145399652.319 7     -2719.309 7        43.106               
G23  29472901.115 7 154881152.665 7     -3876.667 7        45.161               
G25  25351516.771 7 133223112.753 7     -1016.207 7        46.193               
G28  26472257.790 7 139112665.632 7      1152.079 7        46.155               
G29  29635564.672 7 155735983.311 7      2748.348 7        45.822               
> 2025 08 05 10 16 44.0000000  0  6                                             
G31  27898890.242 7 146609655.743 7      2426.091 7        42.401               
G12  27669135.875 7 145402371.944 7     -2718.147 7        43.153               
G23  29473639.436 7 154885027.121 7     -3871.383 7        44.700               
G25  25351708.371 7 133224130.895 7     -1018.282 7        45.746               
G28  26472037.081 7 139111512.715 7      1153.884 7        46.799               
G29  29635040.511 7 155733236.655 7      2744.761 7        45.316               
> 2025 08 05 10 16 45.0000000  0  6                                             
G31  27898427.551 7 146607232.053 7      2419.664 7        42.366               
G12  27669653.648 7 145405092.026 7     -2718.694 7        43.582               
G23  29474377.150 7 154888901.591 7     -3877.940 7        44.537               
G25  25351905.619 7 133225149.703 7     -1019.477 7        45.827               
G28  26471816.533 7 139110360.070 7      1149.504 7        46.407               
G29  29634520.844 7 155730490.079 7      2744.799 7        45.406               
> 2025 08 05 10 16 46.0000000  0  6                                             
G31  27897966.315 7 146604808.558 7      2425.837 7        42.282               
G12  27670179.435 7 145407812.537 7     -2722.693 7        43.181               
G23  29475111.880 7 154892776.053 7     -3870.234 7        44.945               
G25  25352095.995 7 133226169.172 7     -1020.819 7        45.892               
G28  26471600.058 7 139109207.674 7      1153.552 7        46.379               
G29  29633998.854 7 155727743.583 7      2744.128 7        45.081               
> 2025 08 05 10 16 47.0000000  0  6                                             
G31  27897504.893 7 146602385.307 7      2427.789 7        42.344               
G12  27670699.540 7 145410533.523 7     -2725.209 7        43.486               
G23  29475851.648 7 154896650.528 7     -3874.234 7        44.649               
G25  25352288.319 7 133227189.310 7     -1017.890 7        45.340               
G28  26471380.689 7 139108055.565 7      1151.030 7        45.872               
G29  29633476.837 7 155724997.177 7      2746.577 7        44.988               
> 2025 08 05 10 16 48.0000000  0  6                                             
G31  27897044.301 7 146599962.253 7      2422.946 7        42.252               
G12  27671217.759 7 145413254.892 7     -2720.553 7        44.304               
G23  29476587.039 7 154900524.961 7     -3876.774 7        44.293               
G25  25352483.637 7 133228210.077 7     -1018.661 7        45.647               
G28  26471160.543 7 139106903.677 7      1150.702 7        45.996               
G29  29632952.757 7 155722250.818 7      2750.108 7        45.397               
> 2025 08 05 10 16 49.0000000  0  6                                             
G31  27896582.976 7 146597539.385 7      2423.714 7        42.523               
G12  27671740.553 7 145415976.700 7     -2722.054 7        43.939               
G23  29477326.155 7 154904399.380 7     -3877.770 7        44.380               
G25  25352676.417 7 133229231.502 7     -1022.677 7        45.495               
G28  26470937.841 7 139105752.035 7      1150.684 7        45.372               
G29  29632431.884 7 155719504.518 7      2748.411 7        45.548               
> 2025 08 05 10 16 50.0000000  0  6                                             
G31  27896119.248 7 146595116.790 7      2421.759 7        42.204               
G12  27672260.256 7 145418698.948 7     -2724.539 7        44.435               
G23  29478066.317 7 154908273.798 7     -3873.883 7        44.713               
G25  25352870.206 7 133230253.587 7     -1019.299 7        45.753               
G28  26470720.733 7 139104600.675 7      1153.135 7        46.192               
G29  29631912.279 7 155716758.302 7      2747.964 7        45.355               
> 2025 08 05 10 16 51.0000000  0  6                                             
G31  27895662.382 7 146592694.397 7      2416.489 7        43.071               
G12  27672773.758 7 145421421.641 7     -2726.978 7        43.831               
G23  29478798.474 7 154912148.231 7     -3878.878 7        44.523               
G25  25353067.552 7 133231276.360 7     -1022.423 7        45.750               
G28  26470498.871 7 139103449.565 7      1151.551 7        45.942               
G29  29631389.298 7 155714012.165 7      2743.678 7        45.766               
> 2025 08 05 10 16 52.0000000  0  6                                             
G31  27895203.648 7 146590272.238 7      2420.863 7        42.855               
G12  27673296.356 7 145424144.794 7     -2725.601 7        44.232               
G23  29479536.554 7 154916022.678 7     -3880.452 7        44.591               
G25  25353261.600 7 133232299.781 7     -1019.115 7        46.098               
G28  26470281.208 7 139102298.742 7      1149.751 7        45.566               
G29  29630862.474 7 155711266.132 7      2743.668 7        45.463               
> 2025 08 05 10 16 53.0000000  0  6                                             
G31  27894740.537 7 146587850.305 7      2424.859 7        42.429               
G12  27673811.448 7 145426868.372 7     -2723.715 7        44.117               
G23  29480273.302 7 154919897.109 7     -3877.783 7        44.941               
G25  25353457.543 7 133233323.896 7     -1026.370 7        45.512               
G28  26470060.499 7 139101148.178 7      1151.611 7        46.185               
G29  29630341.002 7 155708520.176 7      2743.654 7        45.236               
> 2025 08 05 10 16 54.0000000  0  6                                             
G31  27894272.386 7 146585428.608 7      2419.951 7        42.772               
G12  27674325.218 7 145429592.423 7     -2720.565 7        43.983               
G23  29481012.999 7 154923771.557 7     -3874.781 7        44.727               
G25  25353648.947 7 133234348.671 7     -1026.050 7        45.797               
G28  26469841.773 7 139099997.896 7      1151.947 7        46.605               
G29  29629820.263 7 155705774.304 7      2742.597 7        45.561               
> 2025 08 05 10 16 55.0000000  0  6                                             
G31  27893815.690 7 146583007.191 7      2421.334 7        42.173               
G12  27674843.000 7 145432316.939 7     -2720.049 7        43.723               
G23  29481751.151 7 154927646.046 7     -3876.391 7        44.512               
G25  25353846.320 7 133235374.138 7     -1025.208 7        46.160               
G28  26469623.575 7 139098847.903 7      1151.028 7        45.995               
G29  29629298.568 7 155703028.541 7      2745.177 7        45.575               
> 2025 08 05 10 16 56.0000000  0  6                                             
G31  27893353.409 6 146580585.956 6      2424.016 6        41.919               
G12  27675360.916 7 145435041.880 7     -2729.093 7        43.771               
G23  29482483.915 7 154931520.504 7     -3876.286 7        44.982               
G25  25354036.723 7 133236400.258 7     -1025.334 7        45.552               
G28  26469408.726 7 139097698.160 7      1149.287 7        46.020               
G29  29628773.183 7 155700282.845 7      2742.566 7        45.262               
> 2025 08 05 10 16 57.0000000  0  6                                             
G31  27892892.942 7 146578164.912 7      2417.363 7        42.496               
G12  27675878.170 7 145437767.194 7     -2722.218 7        43.304               
G23  29483222.638 7 154935394.910 7     -3880.162 7        45.234               
G25  25354232.174 7 133237426.974 7     -1026.605 7        45.071               
G28  26469186.123 7 139096548.615 7      1149.776 7        46.260               
G29  29628253.749 7 155697537.151 7      2748.137 7        44.997               
> 2025 08 05 10 16 58.0000000  0  6                                             
G31  27892436.612 7 146575744.101 7      2423.842 7        42.441               
G12  27676397.507 7 145440492.989 7     -2720.923 7        43.675               
G23  29483960.915 7 154939269.331 7     -3872.113 7        44.778               
G25  25354426.268 7 133238454.389 7     -1029.083 7        45.897               
G28  26468968.871 7 139095399.373 7      1146.172 7        46.225               
G29  29627730.785 7 155694791.598 7      2746.757 7        45.066               
> 2025 08 05 10 16 59.0000000  0  6                                             
G31  27891974.859 7 146573323.525 7      2415.858 7        42.327               
G12  27676918.228 7 145443219.215 7     -2727.682 7        43.411               
G23  29484698.521 7 154943143.766 7     -3870.579 7        45.162               
G25  25354622.827 7 133239482.453 7     -1031.774 7        45.746               
G28  26468749.717 7 139094250.377 7      1146.770 7        46.290               
G29  29627203.819 7 155692046.099 7      2747.313 7        44.683               
> 2025 08 05 10 17 00.0000000  0  6                                             
G31  27891514.356 7 146570903.140 7      2421.048 7        42.981               
G12  27677438.967 7 145445945.860 7     -2726.509 7        43.365               
G23  29485438.058 7 154947018.151 7     -3872.700 7        44.856               
G25  25354818.779 7 133240511.163 7     -1029.928 7        45.389               
G28  26468530.151 7 139093101.635 7      1149.918 7        46.782               
G29  29626686.707 7 155689300.653 7      2745.689 7        44.797               
> 2025 08 05 10 17 01.0000000  0  6                                             
G31  27891055.194 7 146568483.077 7      2418.623 7        42.889               
G12  27677956.159 7 145448673.016 7     -2727.248 7        43.817               
G23  29486172.555 7 154950892.634 7     -3876.822 7        44.714               
G25  25355021.279 7 133241540.617 7     -1029.224 7        45.597               
G28  26468312.712 7 139091953.227 7      1149.509 7        46.700               
G29  29626166.245 7 155686555.384 7      2745.767 7        45.019               
> 2025 08 05 10 17 02.0000000  0  6                                             
G31  27890594.852 7 146566063.157 7      2419.701 7        42.392               
G12  27678473.878 7 145451400.550 7     -2729.434 7        43.862               
G23  29486907.624 7 154954767.020 7     -3873.238 7        44.890               
G25  25355217.222 7 133242570.670 7     -1028.322 7        45.608               
G28  26468094.996 7 139090804.998 7      1150.415 7        46.535               
G29  29625641.092 7 155683810.100 7      2742.440 7        44.817               
> 2025 08 05 10 17 03.0000000  0  6                                             
G31  27890135.243 7 146563643.444 7      2421.231 7        43.045               
G12  27678992.384 7 145454128.510 7     -2730.399 7        44.042               
G23  29487649.322 7 154958641.427 7     -3872.122 7        45.135               
G25  25355416.069 7 133243601.381 7     -1031.215 7        45.922               
G28  26467876.359 7 139089657.051 7      1146.429 7        46.303               
G29  29625119.665 7 155681064.915 7      2746.710 7        44.581               
> 2025 08 05 10 17 04.0000000  0  6                                             
G31  27889675.303 7 146561224.013 7      2419.738 7        42.888               
G12  27679512.649 7 145456856.938 7     -2726.995 7        43.818               
G23  29488388.001 7 154962515.871 7     -3870.834 7        44.680               
G25  25355613.289 7 133244632.793 7     -1033.016 7        46.420               
G28  26467656.642 7 139088509.393 7      1148.034 7        46.766               
G29  29624597.032 7 155678319.829 7      2748.841 7        45.085               
> 2025 08 05 10 17 05.0000000  0  6                                             
G31  27889214.926 7 146558804.788 7      2417.714 7        43.440               
G12  27680036.203 7 145459585.791 7     -2723.724 7        44.328               
G23  29489121.819 7 154966390.261 7     -3871.246 7        44.741               
G25  25355807.302 7 133245664.833 7     -1032.905 7        46.084               
G28  26467436.799 7 139087361.975 7      1147.411 7        46.476               
G29  29624072.040 7 155675574.808 7      2746.715 7        44.206               
> 2025 08 05 10 17 06.0000000  0  6                                             
G31  27888758.738 7 146556385.781 7      2416.466 7        43.301               
G12  27680555.325 7 145462315.092 7     -2730.288 7        43.867               
G23  29489859.765 7 154970264.650 7     -3875.703 7        44.956               
G25  25356007.095 7 133246697.549 7     -1033.009 7        46.350               
G28  26467220.763 7 139086214.815 7      1146.511 7        46.490               
G29  29623549.532 7 155672829.870 7      2744.700 7        44.359               
> 2025 08 05 10 17 07.0000000  0  6                                             
G31  27888296.967 7 146553966.989 7      2421.774 7        43.371               
G12  27681070.524 7 145465044.821 7     -2735.484 7        43.199               
G23  29490597.479 7 154974139.040 7     -3870.854 7        45.884               
G25  25356200.912 7 133247730.912 7     -1034.281 7        45.958               
G28  26467000.214 7 139085067.912 7      1144.864 7        46.191               
G29  29623027.247 7 155670084.997 7      2746.144 7        43.958               
> 2025 08 05 10 17 08.0000000  0  6                                             
G31  27887840.244 7 146551548.429 7      2421.392 7        43.765               
G12  27681593.729 7 145467774.971 7     -2730.675 7        44.203               
G23  29491331.976 7 154978013.442 7     -3872.163 7        45.606               
G25  25356393.379 7 133248764.955 7     -1035.414 7        46.237               
G28  26466785.062 7 139083921.280 7      1144.180 7        45.576               
G29  29622507.160 7 155667340.202 7      2746.551 7        43.943               
> 2025 08 05 10 17 09.0000000  0  6                                             
G31  27887383.154 7 146549130.047 7      2417.894 7        44.034               
G12  27682113.995 7 145470505.549 7     -2734.729 7        44.027               
G23  29492071.620 7 154981887.791 7     -3875.448 7        45.074               
G25  25356591.806 7 133249799.611 7     -1034.073 7        46.600               
G28  26466568.561 7 139082774.873 7      1146.751 7        46.072               
G29  29621982.061 7 155664595.469 7      2744.389 7        44.443               
> 2025 08 05 10 17 10.0000000  0  6                                             
G31  27886919.936 7 146546711.929 7      2417.366 7        43.591               
G12  27682634.457 7 145473236.592 7     -2733.033 7        44.403               
G23  29492807.850 7 154985762.173 7     -3872.934 7        44.859               
G25  25356788.660 7 133250834.955 7     -1035.860 7        46.336               
G28  26466351.774 7 139081628.765 7      1146.643 7        46.450               
G29  29621459.848 7 155661850.841 7      2748.785 7        44.480               
> 2025 08 05 10 17 11.0000000  0  6                                             
G31  27886459.978 7 146544294.037 7      2416.512 7        43.102               
G12  27683152.534 7 145475968.077 7     -2728.446 7        44.135               
G23  29493545.885 7 154989636.544 7     -3871.649 7        44.987               
G25  25356988.158 7 133251870.979 7     -1035.410 7        45.575               
G28  26466132.468 7 139080482.921 7      1144.403 7        46.391               
G29  29620936.250 7 155659106.277 7      2747.740 7        44.660               
> 2025 08 05 10 17 12.0000000  0  6                                             
G31  27886001.003 7 146541876.343 7      2418.052 7        43.596               
G12  27683672.531 7 145478699.980 7     -2732.379 7        43.991               
G23  29494282.813 7 154993510.905 7     -3873.052 7        45.678               
G25  25357185.254 7 133252907.630 7     -1040.049 7        45.175               
G28  26465916.020 7 139079337.315 7      1145.996 7        47.099               
G29  29620416.904 7 155656361.793 7      2742.381 7        44.552               
> 2025 08 05 10 17 13.0000000  0  6                                             
G31  27885538.651 7 146539458.839 7      2416.456 7        43.478               
G12  27684191.564 7 145481432.296 7     -2732.522 7        44.107               
G23  29495019.472 7 154997385.220 7     -3875.172 7        44.787               
G25  25357382.867 7 133253944.915 7     -1036.842 7        45.826               
G28  26465700.046 7 139078191.930 7      1147.117 7        46.970               
G29  29619888.732 7 155653617.331 7      2741.084 7        44.562               
> 2025 08 05 10 17 14.0000000  0  6                                             
G31  27885078.184 7 146537041.541 7      2416.966 7        43.317               
G12  27684712.321 7 145484165.003 7     -2729.441 7        44.658               
G23  29495757.758 7 155001259.491 7     -3871.545 7        45.146               
G25  25357583.697 7 133254982.838 7     -1034.103 7        45.738               
G28  26465482.866 7 139077046.783 7      1144.840 7        47.546               
G29  29619370.629 7 155650872.933 7      2742.380 7        44.499               
> 2025 08 05 10 17 15.0000000  0  6                                             
G31  27884616.199 7 146534624.487 7      2417.769 7        43.406               
G12  27685231.925 7 145486898.180 7     -2732.837 7        44.674               
G23  29496493.363 7 155005133.795 7     -3879.127 7        44.835               
G25  25357778.827 7 133256021.446 7     -1043.733 7        46.065               
G28  26465264.587 7 139075901.924 7      1142.077 7        47.301               
G29  29618843.340 7 155648128.632 7      2742.768 7        44.265               
> 2025 08 05 10 17 16.0000000  0  6                                             
G31  27884154.794 7 146532207.638 7      2412.137 7        43.342               
G12  27685753.674 7 145489631.779 7     -2732.259 7        43.912               
G23  29497233.301 7 155009008.075 7     -3873.532 7        45.041               
G25  25357974.073 7 133257060.665 7     -1039.807 7        45.612               
G28  26465043.619 7 139074757.296 7      1145.082 7        47.239               
G29  29618328.534 7 155645384.405 7      2748.151 7        44.460               
> 2025 08 05 10 17 17.0000000  0  6                                             
G31  27883694.246 7 146529791.067 7      2416.633 7        43.612               
G12  27686273.269 7 145492365.853 7     -2730.979 7        44.271               
G23  29497970.220 7 155012882.401 7     -3871.763 7        45.544               
G25  25358170.141 7 133258100.637 7     -1040.994 7        45.694               
G28  26464826.457 7 139073612.994 7      1145.251 7        47.393               
G29  29617806.097 7 155642640.308 7      2740.838 7        44.574               
> 2025 08 05 10 17 18.0000000  0  7                                             
G31  27883233.994 7 146527374.623 7      2417.763 7        43.819               
G10  26868589.458 6 141195380.077 6     -2603.387 6        38.428               
G12  27686795.607 7 145495100.285 7     -2736.623 7        44.388               
G23  29498705.316 7 155016756.622 7     -3869.077 7        45.518               
G25  25358366.825 7 133259141.148 7     -1042.123 7        45.403               
G28  26464607.588 7 139072468.851 7      1143.181 7        46.700               
G29  29617281.436 7 155639896.182 7      2740.764 7        44.300               
> 2025 08 05 10 17 19.0000000  0  7                                             
G31  27882774.823 7 146524958.427 7      2420.112 7        43.213               
G10  26869085.780 6 141197980.970 6     -2597.098 6        38.512               
G12  27687310.968 7 145497835.179 7     -2738.583 7        44.982               
G23  29499439.518 7 155020630.868 7     -3876.079 7        45.034               
G25  25358565.734 7 133260182.360 7     -1040.979 7        45.556               
G28  26464391.158 7 139071325.009 7      1141.317 7        46.335               
G29  29616756.435 7 155637152.168 7      2742.769 7        44.146               
> 2025 08 05 10 17 20.0000000  0  7                                             
G31  27882313.677 7 146522542.490 7      2410.651 7        43.029               
G10  26869581.913 6 141200582.365 6     -2596.166 6        38.833               
G12  27687831.671 7 145500570.544 7     -2734.146 7        44.466               
G23  29500181.806 7 155024505.135 7     -3872.488 7        45.566               
G25  25358765.715 7 133261224.257 7     -1040.781 7        45.841               
G28  26464171.682 7 139070181.457 7      1143.335 7        47.018               
G29  29616235.240 7 155634408.283 7      2743.141 7        43.892               
> 2025 08 05 10 17 21.0000000  0  7                                             
G31  27881854.353 7 146520126.776 7      2416.931 7        42.892               
G10  26870075.589 6 141203184.217 6     -2608.258 6        38.132               
G12  27688350.740 7 145503306.322 7     -2733.075 7        44.357               
G23  29500915.428 7 155028379.391 7     -3874.943 7        45.435               
G25  25358966.617 7 133262266.804 7     -1039.703 7        45.650               
G28  26463953.215 7 139069038.137 7      1138.777 7        46.891               
G29  29615713.197 7 155631664.447 7      2744.320 7        43.802               
> 2025 08 05 10 17 22.0000000  0  7                                             
G31  27881394.083 7 146517711.250 7      2418.367 7        43.572               
G10  26870560.867 6 141205786.521 6     -2596.089 6        38.073               
G12  27688871.077 7 145506042.536 7     -2734.854 7        44.003               
G23  29501653.803 7 155032253.623 7     -3876.565 7        45.466               
G25  25359165.454 7 133263310.007 7     -1043.910 7        45.762               
G28  26463735.088 7 139067895.083 7      1142.054 7        46.540               
G29  29615190.528 7 155628920.672 7      2743.821 7        44.009               
> 2025 08 05 10 17 23.0000000  0  7                                             
G31  27880937.619 7 146515295.951 7      2414.492 7        42.633               
G10  26871058.707 6 141208389.326 6     -2605.409 6        38.050               
G12  27689391.530 7 145508779.184 7     -2733.193 7        44.548               
G23  29502392.758 7 155036127.845 7     -3870.524 7        45.549               
G25  25359365.051 7 133264353.874 7     -1043.260 7        46.152               
G28  26463517.855 7 139066752.280 7      1142.996 7        46.800               
G29  29614668.904 7 155626176.982 7      2746.921 7        43.814               
> 2025 08 05 10 17 24.0000000  0  7                                             
G31  27880479.270 7 146512880.891 7      2414.607 7        43.241               
G10  26871545.674 6 141210992.657 6     -2609.086 6        37.445               
G12  27689912.644 7 145511516.277 7     -2740.035 7        44.044               
G23  29503128.426 7 155040002.077 7     -3874.889 7        45.588               
G25  25359560.797 7 133265398.410 7     -1045.097 7        46.224               
G28  26463301.041 7 139065609.747 7      1140.026 7        47.321               
G29  29614148.603 7 155623433.366 7      2746.492 7        43.784               
> 2025 08 05 10 17 25.0000000  0  7                                             
G31  27880017.400 7 146510465.985 7      2416.058 7        43.010               
G10  26872036.098 6 141213596.367 6     -2596.300 6        37.460               
G12  27690436.832 7 145514253.735 7     -2738.831 7        44.838               
G23  29503864.076 7 155043876.229 7     -3869.492 7        45.559               
G25  25359760.162 7 133266443.525 7     -1043.554 7        46.096               
G28  26463078.348 7 139064467.410 7      1141.070 7        47.400               
G29  29613625.729 7 155620689.776 7      2744.480 7        43.666               
> 2025 08 05 10 17 26.0000000  0  7                                             
G31  27879561.240 7 146508051.312 7      2417.402 7        42.811               
G10  26872523.029 6 141216200.537 6     -2607.058 6        37.048               
G12  27690961.368 7 145516991.631 7     -2740.767 7        44.547               
G23  29504606.167 7 155047750.385 7     -3873.319 7        44.936               
G25  25359958.499 7 133267489.310 7     -1045.839 7        45.411               
G28  26462863.991 7 139063325.336 7      1143.552 7        47.177               
G29  29613102.095 7 155617946.272 7      2744.295 7        43.160               
> 2025 08 05 10 17 27.0000000  0  7                                             
G31  27879100.201 7 146505636.795 7      2416.197 7        43.433               
G10  26873025.220 6 141218805.157 6     -2599.417 6        36.929               
G12  27691483.447 7 145519729.894 7     -2740.605 7        44.861               
G23  29505341.201 7 155051624.456 7     -3873.419 7        45.237               
G25  25360154.174 7 133268535.697 7     -1046.768 7        45.832               
G28  26462646.874 7 139062183.453 7      1141.283 7        46.643               
G29  29612585.859 7 155615202.776 7      2738.794 7        43.767               
> 2025 08 05 10 17 28.0000000  0  7                                             
G31  27878639.332 7 146503222.480 7      2410.572 7        44.386               
G10  26873518.914 6 141221410.257 6     -2604.455 6        36.524               
G12  27692001.792 7 145522468.570 7     -2739.411 7        44.570               
G23  29506078.110 7 155055498.513 7     -3873.418 7        44.721               
G25  25360351.975 7 133269582.709 7     -1047.204 7        45.930               
G28  26462425.861 7 139061041.817 7      1138.825 7        47.170               
G29  29612064.843 7 155612459.352 7      2743.881 7        43.695               
> 2025 08 05 10 17 29.0000000  0  7                                             
G31  27878182.510 7 146500808.345 7      2413.192 7        43.839               
G10  26874018.532 6 141224015.786 6     -2600.991 6        36.510               
G12  27692525.899 7 145525207.675 7     -2738.036 7        44.454               
G23  29506813.081 7 155059372.519 7     -3878.163 7        44.845               
G25  25360552.430 7 133270630.357 7     -1046.905 7        46.417               
G28  26462211.361 7 139059900.414 7      1139.385 7        47.269               
G29  29611540.351 7 155609715.971 7      2743.073 7        43.968               
> 2025 08 05 10 17 30.0000000  0  7                                             
G31  27877724.626 7 146498394.454 7      2412.941 7        43.973               
G10  26874522.001 6 141226621.786 6     -2601.115 6        36.969               
G12  27693045.691 7 145527947.200 7     -2738.080 7        44.212               
G23  29507549.794 7 155063246.532 7     -3872.995 7        45.115               
G25  25360752.509 7 133271678.660 7     -1050.820 7        45.892               
G28  26461995.539 7 139058759.277 7      1138.593 7        46.886               
G29  29611017.137 7 155606972.685 7      2743.188 7        43.811               
> 2025 08 05 10 17 31.0000000  0  7                                             
G31  27877266.401 7 146495980.827 7      2411.979 7        44.025               
G10  26875022.226 6 141229228.317 6     -2614.645 6        37.413               
G12  27693569.432 7 145530687.208 7     -2740.025 7        44.249               
G23  29508291.975 7 155067120.583 7     -3873.026 7        45.695               
G25  25360953.134 7 133272727.679 7     -1049.445 7        46.283               
G28  26461776.795 7 139057618.434 7      1140.581 7        46.881               
G29  29610498.453 7 155604229.527 7      2738.523 7        43.766               
> 2025 08 05 10 17 32.0000000  0  7                                             
G31  27876803.835 7 146493567.430 7      2415.104 7        44.073               
G10  26875516.546 6 141231835.338 6     -2621.048 6        37.465               
G12  27694089.019 7 145533427.642 7     -2741.602 7        44.786               
G23  29509026.597 7 155070994.624 7     -3874.425 7        45.545               
G25  25361155.563 7 133273777.348 7     -1049.751 7        46.161               
G28  26461559.374 7 139056477.857 7      1141.119 7        47.364               
G29  29609973.702 7 155601486.446 7      2745.128 7        43.845               
> 2025 08 05 10 17 33.0000000  0  7                                             
G31  27876344.833 7 146491154.260 7      2413.565 7        43.636               
G10  26876003.343 6 141234442.816 6     -2601.614 6        37.200               
G12  27694606.711 7 145536168.524 7     -2740.344 7        45.641               
G23  29509765.088 7 155074868.666 7     -3869.733 7        45.506               
G25  25361357.188 7 133274827.698 7     -1050.543 7        46.063               
G28  26461341.086 7 139055337.554 7      1142.166 7        47.045               
G29  29609451.096 7 155598743.451 7      2746.716 7        43.363               
> 2025 08 05 10 17 34.0000000  0  7                                             
G31  27875887.896 7 146488741.295 7      2412.516 7        43.451               
G10  26876505.882 6 141237050.767 6     -2613.459 6        37.229               
G12  27695129.711 7 145538909.823 7     -2742.491 7        44.962               
G23  29510501.140 7 155078742.684 7     -3868.723 7        45.477               
G25  25361557.866 7 133275878.677 7     -1050.798 7        45.923               
G28  26461128.695 7 139054197.488 7      1142.742 7        46.768               
G29  29608929.446 7 155596000.514 7      2739.043 7        43.709               
> 2025 08 05 10 17 35.0000000  0  7                                             
G31  27875422.729 7 146486328.555 7      2411.331 7        43.827               
G10  26876991.464 6 141239659.175 6     -2604.036 6        37.323               
G12  27695656.347 7 145541651.555 7     -2744.029 7        44.806               
G23  29511239.095 7 155082616.692 7     -3876.642 7        45.843               
G25  25361757.552 7 133276930.320 7     -1053.990 7        45.919               
G28  26460910.317 7 139053057.689 7      1136.872 7        46.734               
G29  29608402.015 7 155593257.657 7      2739.745 7        43.366               
> 2025 08 05 10 17 36.0000000  0  7                                             
G31  27874963.299 7 146483916.009 7      2404.586 7        42.956               
G10  26877489.912 6 141242268.058 6     -2605.954 6        37.409               
G12  27696174.361 7 145544393.694 7     -2742.454 7        44.902               
G23  29511976.049 7 155086490.653 7     -3872.784 7        45.004               
G25  25361958.356 7 133277982.580 7     -1052.243 7        46.139               
G28  26460694.022 7 139051918.110 7      1138.918 7        46.948               
G29  29607883.750 7 155590514.860 7      2741.138 7        43.751               
> 2025 08 05 10 17 37.0000000  0  7                                             
G31  27874504.851 7 146481503.694 7      2412.056 7        42.895               
G10  26877992.344 6 141244877.459 6     -2610.039 6        37.439               
G12  27696697.548 7 145547136.275 7     -2745.505 7        45.073               
G23  29512714.094 7 155090364.636 7     -3877.173 7        45.350               
G25  25362156.764 7 133279035.526 7     -1052.193 7        46.342               
G28  26460478.423 7 139050778.818 7      1137.478 7        46.610               
G29  29607362.332 7 155587772.158 7      2741.100 7        43.841               
> 2025 08 05 10 17 38.0000000  0  7                                             
G31  27874046.788 7 146479091.643 7      2418.923 7        42.765               
G10  26878484.662 6 141247487.351 6     -2608.017 6        37.209               
G12  27697219.422 7 145549879.351 7     -2748.388 7        45.031               
G23  29513450.476 7 155094238.638 7     -3876.323 7        45.538               
G25  25362356.737 7 133280089.173 7     -1054.531 7        45.480               
G28  26460261.502 7 139049639.819 7      1138.760 7        47.673               
G29  29606839.565 7 155585029.569 7      2742.295 7        43.430               
> 2025 08 05 10 17 39.0000000  0  7                                             
G31  27873594.478 7 146476679.817 7      2410.122 7        42.839               
G10  26878986.246 6 141250097.715 6     -2609.297 6        36.778               
G12  27697742.662 7 145552622.837 7     -2744.182 7        44.839               
G23  29514187.591 7 155098112.659 7     -3878.681 7        45.456               
G25  25362550.624 7 133281143.484 7     -1054.839 7        45.702               
G28  26460043.044 7 139048501.080 7      1139.561 7        47.467               
G29  29606314.698 7 155582287.077 7      2744.345 7        43.804               
