     3.02           OBSERVATION DATA    G                   RINEX VERSION / TYPE
G = GPS  R = GLONASS  E = GALILEO  S = GEO  M = MIXED       COMMENT             
GNSS-SDR            suhjw               20250805 121900 UTC PGM / RUN BY / DATE 
GPS OBSERVATION DATA FILE GENERATED BY GNSS-SDR             COMMENT             
GNSS-SDR VERSION 0.0.20                                     COMMENT             
See https://gnss-sdr.org                                    COMMENT             
DEFAULT MARKER NAME                                         MARKER NAME         
suhjw               CTTC                                    OBSERVER / AGENCY   
GNSS-SDR            Software Receiver   0.0.20              REC # / TYPE / VERS 
Antenna number      Antenna type                            ANT # / TYPE        
        0.0000        0.0000        0.0000                  APPROX POSITION XYZ 
        0.0000        0.0000        0.0000                  ANTENNA: DELTA H/E/N
G    4 C1C L1C D1C S1C                                      SYS / # / OBS TYPES 
DBHZ                                                        SIGNAL STRENGTH UNIT
  2025    08    05    12    19   18.1000000     GPS         TIME OF FIRST OBS   
                                                            END OF HEADER       
> 2025 08 05 12 19 19.0000000  0  7                                             
G31  20570894.886 7 108100770.649 7       668.923 7        42.674               
G03  23311960.642 6 122505180.211 6      -437.610 6        41.886               
G16  22678996.418 7 119178913.440 7      3175.260 7        43.714               
G25  23955748.901 7 125888294.507 7     -3472.078 7        42.706               
G26  20514556.251 7 107804711.680 7      1157.546 7        44.973               
G28  20979792.811 7 110249570.190 7      -632.074 7        45.312               
G29  22373201.898 7 117571958.426 7      -438.299 7        47.056               
> 2025 08 05 12 19 20.0000000  0  7                                             
G31  20570764.541 7 108100101.479 7       669.944 7        43.254               
G03  23312044.340 6 122505618.761 6      -431.988 6        41.352               
G16  22678391.328 7 119175735.631 7      3178.466 7        43.397               
G25  23956408.983 7 125891766.765 7     -3469.703 7        43.015               
G26  20514335.372 7 107803552.736 7      1157.277 7        44.848               
G28  20979914.294 7 110250204.335 7      -637.169 7        45.510               
G29  22373288.223 7 117572398.788 7      -442.601 7        47.205               
> 2025 08 05 12 19 21.0000000  0  7                                             
G31  20570633.918 7 108099432.595 7       668.245 7        43.318               
G03  23312127.878 7 122506057.918 7      -445.849 7        42.092               
G16  22677784.612 7 119172558.171 7      3175.363 7        44.013               
G25  23957070.351 7 125895239.043 7     -3475.642 7        42.984               
G26  20514111.938 7 107802394.287 7      1158.010 7        45.261               
G28  20980035.812 7 110250838.737 7      -631.134 7        45.571               
G29  22373372.520 7 117572839.809 7      -441.513 7        47.867               
> 2025 08 05 12 19 22.0000000  0  7                                             
G31  20570509.925 7 108098763.948 7       665.796 7        42.754               
G03  23312211.130 6 122506497.648 6      -436.303 6        41.709               
G16  22677184.115 7 119169380.970 7      3179.844 7        44.078               
G25  23957730.639 7 125898711.330 7     -3476.599 7        42.759               
G26  20513887.941 7 107801236.276 7      1155.801 7        44.904               
G28  20980157.705 7 110251473.383 7      -630.284 7        45.609               
G29  22373454.825 7 117573281.432 7      -441.254 7        47.749               
> 2025 08 05 12 19 23.0000000  0  7                                             
G31  20570384.029 7 108098095.595 7       668.848 7        43.150               
G03  23312298.893 6 122506938.041 6      -441.644 6        41.570               
G16  22676579.132 7 119166204.130 7      3176.815 7        44.323               
G25  23958392.570 7 125902183.629 7     -3475.842 7        43.133               
G26  20513666.776 7 107800078.753 7      1154.139 7        44.136               
G28  20980275.024 7 110252108.323 7      -634.101 7        45.759               
G29  22373537.728 8 117573723.733 8      -441.796 8        48.049               
> 2025 08 05 12 19 24.0000000  0  7                                             
G31  20570251.369 7 108097427.518 7       669.745 7        42.942               
G03  23312379.831 6 122507379.016 6      -441.071 6        41.613               
G16  22675973.444 7 119163027.567 7      3177.082 7        44.294               
G25  23959051.043 7 125905655.936 7     -3471.151 7        43.180               
G26  20513449.140 7 107798921.671 7      1156.800 7        44.669               
G28  20980396.159 7 110252743.508 7      -637.132 7        46.010               
G29  22373623.741 8 117574166.649 8      -442.899 8        48.198               
> 2025 08 05 12 19 25.0000000  0  7                                             
G31  20570126.590 7 108096759.746 7       667.381 7        42.948               
G03  23312464.441 6 122507820.654 6      -452.750 6        41.505               
G16  22675367.836 7 119159851.349 7      3176.813 7        43.994               
G25  23959712.394 7 125909128.290 7     -3477.410 7        43.132               
G26  20513230.218 7 107797765.105 7      1153.992 7        44.677               
G28  20980519.669 7 110253379.012 7      -636.627 7        45.810               
G29  22373708.136 7 117574610.264 7      -446.418 7        47.721               
> 2025 08 05 12 19 26.0000000  0  7                                             
G31  20569999.461 7 108096092.296 7       665.747 7        42.222               
G03  23312545.030 6 122508262.974 6      -452.004 6        40.994               
G16  22674762.648 7 119156675.516 7      3172.932 7        43.868               
G25  23960373.226 7 125912600.719 7     -3466.459 7        42.361               
G26  20513010.608 7 107796609.061 7      1159.150 7        44.523               
G28  20980639.963 7 110254014.833 7      -634.385 7        44.917               
G29  22373791.790 7 117575054.575 7      -446.757 7        47.128               
> 2025 08 05 12 19 27.0000000  0  7                                             
G31  20569871.804 7 108095425.096 7       664.383 7        42.486               
G03  23312626.924 6 122508705.858 6      -443.312 6        41.390               
G16  22674157.692 7 119153499.925 7      3175.245 7        43.798               
G25  23961033.093 7 125916073.149 7     -3473.865 7        42.557               
G26  20512790.015 7 107795453.454 7      1154.814 7        44.665               
G28  20980760.302 7 110254650.880 7      -634.458 7        45.002               
G29  22373874.729 7 117575499.482 7      -444.349 7        47.111               
> 2025 08 05 12 19 28.0000000  0  7                                             
G31  20569745.086 7 108094758.160 7       663.498 7        43.063               
G03  23312717.511 6 122509149.342 6      -444.816 6        41.242               
G16  22673554.139 7 119150324.650 7      3174.630 7        43.813               
G25  23961698.589 7 125919545.537 7     -3474.933 7        42.684               
G26  20512570.744 7 107794298.314 7      1154.990 7        44.545               
G28  20980880.552 7 110255287.180 7      -637.180 7        45.368               
G29  22373962.770 7 117575945.031 7      -443.946 7        47.219               
> 2025 08 05 12 19 29.0000000  0  7                                             
G31  20569617.475 7 108094091.498 7       661.739 7        42.820               
G03  23312793.794 6 122509593.456 6      -442.006 6        40.968               
G16  22672948.245 7 119147149.684 7      3171.320 7        43.790               
G25  23962354.811 7 125923017.994 7     -3473.673 7        42.909               
G26  20512351.035 7 107793143.627 7      1157.308 7        45.020               
G28  20981002.955 7 110255923.756 7      -635.566 7        45.227               
G29  22374047.603 7 117576391.217 7      -447.107 7        47.733               
> 2025 08 05 12 19 30.0000000  0  7                                             
G31  20569487.165 7 108093425.174 7       666.586 7        42.347               
G03  23312883.952 6 122510038.249 6      -446.158 6        41.201               
G16  22672348.623 7 119143975.081 7      3176.998 7        43.693               
G25  23963014.696 7 125926490.491 7     -3472.645 7        42.520               
G26  20512131.693 7 107791989.474 7      1152.423 7        44.696               
G28  20981126.037 7 110256560.652 7      -633.748 7        44.613               
G29  22374131.998 7 117576838.101 7      -444.154 7        47.921               
> 2025 08 05 12 19 31.0000000  0  7                                             
G31  20569365.030 7 108092759.098 7       666.537 7        42.938               
G03  23312969.062 6 122510483.628 6      -447.921 6        40.893               
G16  22671743.274 7 119140800.759 7      3178.798 7        44.009               
G25  23963675.806 7 125929962.978 7     -3473.563 7        43.010               
G26  20511913.843 7 107790835.761 7      1154.874 7        44.949               
G28  20981244.428 7 110257197.787 7      -637.063 7        44.955               
G29  22374216.331 7 117577285.620 7      -448.269 7        47.385               
> 2025 08 05 12 19 32.0000000  0  7                                             
G31  20569244.503 7 108092093.345 7       664.259 7        43.200               
G03  23313056.058 6 122510929.657 6      -440.265 6        41.487               
G16  22671136.665 7 119137626.811 7      3175.438 7        43.760               
G25  23964332.849 7 125933435.554 7     -3473.621 7        43.074               
G26  20511696.234 7 107789682.558 7      1149.061 7        43.968               
G28  20981363.838 7 110257835.240 7      -636.273 7        44.774               
G29  22374301.352 7 117577733.812 7      -447.246 7        46.913               
> 2025 08 05 12 19 33.0000000  0  7                                             
G31  20569115.489 7 108091427.884 7       665.556 7        43.899               
G03  23313141.346 6 122511376.301 6      -447.346 6        41.222               
G16  22670534.461 7 119134453.159 7      3174.406 7        44.213               
G25  23965001.017 7 125936908.125 7     -3476.169 7        43.379               
G26  20511474.703 7 107788529.847 7      1155.209 7        43.937               
G28  20981483.506 7 110258472.975 7      -640.660 7        44.912               
G29  22374382.906 7 117578182.666 7      -451.410 7        47.552               
> 2025 08 05 12 19 34.0000000  0  7                                             
G31  20568988.494 7 108090762.671 7       665.523 7        43.586               
G03  23313225.822 6 122511823.562 6      -449.643 6        41.470               
G16  22669932.534 7 119131279.807 7      3172.265 7        44.298               
G25  23965660.312 7 125940380.674 7     -3471.782 7        42.941               
G26  20511255.950 7 107787377.557 7      1154.683 7        44.538               
G28  20981606.267 7 110259110.945 7      -639.100 7        44.937               
G29  22374466.864 7 117578632.128 7      -449.117 7        46.998               
> 2025 08 05 12 19 35.0000000  0  7                                             
G31  20568866.815 7 108090097.740 7       665.406 7        43.482               
G03  23313306.438 6 122512271.441 6      -447.847 6        41.073               
G16  22669327.060 7 119128106.766 7      3169.234 7        44.181               
G25  23966324.459 7 125943853.281 7     -3468.442 7        43.218               
G26  20511035.804 7 107786225.757 7      1155.292 7        44.607               
G28  20981727.946 7 110259749.195 7      -637.932 7        45.001               
G29  22374552.760 7 117579082.260 7      -448.876 7        46.757               
> 2025 08 05 12 19 36.0000000  0  7                                             
G31  20568737.604 7 108089433.064 7       664.174 7        43.728               
G03  23313395.122 6 122512719.922 6      -450.178 6        41.152               
G16  22668727.698 7 119124934.023 7      3172.250 7        44.573               
G25  23966983.308 7 125947325.887 7     -3471.782 7        42.762               
G26  20510816.149 7 107785074.413 7      1152.833 7        44.768               
G28  20981847.454 7 110260387.693 7      -637.529 7        43.996               
G29  22374638.871 7 117579533.005 7      -450.964 7        46.587               
> 2025 08 05 12 19 37.0000000  0  7                                             
G31  20568611.359 7 108088768.689 7       662.828 7        43.937               
G03  23313486.933 6 122513169.037 6      -456.624 6        41.547               
G16  22668123.475 7 119121761.616 7      3176.594 7        44.620               
G25  23967641.737 7 125950798.523 7     -3475.484 7        42.688               
G26  20510600.559 7 107783923.568 7      1149.633 7        45.483               
G28  20981971.527 7 110261026.490 7      -640.110 7        44.547               
G29  22374725.563 7 117579984.424 7      -452.403 7        46.734               
> 2025 08 05 12 19 38.0000000  0  7                                             
G31  20568489.591 7 108088104.600 7       661.747 7        43.805               
G03  23313566.388 6 122513618.773 6      -447.614 6        41.740               
G16  22667519.350 7 119118589.528 7      3167.010 7        44.434               
G25  23968302.158 7 125954271.204 7     -3472.771 7        42.674               
G26  20510381.860 7 107782773.202 7      1148.695 7        44.808               
G28  20982094.627 7 110261665.556 7      -639.338 7        44.955               
G29  22374814.050 7 117580436.476 7      -453.627 7        46.922               
> 2025 08 05 12 19 39.0000000  0  7                                             
G31  20568358.423 7 108087440.762 7       665.576 7        44.306               
G03  23313659.209 7 122514069.117 7      -453.579 7        42.099               
G16  22666917.637 7 119115417.721 7      3173.307 7        45.290               
G25  23968962.329 7 125957743.834 7     -3472.108 7        42.479               
G26  20510162.026 7 107781623.270 7      1150.896 7        45.172               
G28  20982213.626 7 110262304.855 7      -641.245 7        45.011               
G29  22374899.848 7 117580889.167 7      -453.022 7        46.974               
> 2025 08 05 12 19 40.0000000  0  7                                             
G31  20568236.556 7 108086777.245 7       665.758 7        44.164               
G03  23313742.496 7 122514520.104 7      -454.168 7        42.131               
G16  22666315.004 7 119112246.284 7      3172.023 7        45.059               
G25  23969626.637 7 125961216.560 7     -3472.375 7        42.985               
G26  20509943.622 7 107780473.856 7      1149.714 7        44.771               
G28  20982339.218 7 110262944.480 7      -641.900 7        45.041               
G29  22374986.102 7 117581342.550 7      -454.495 7        47.031               
> 2025 08 05 12 19 41.0000000  0  7                                             
G31  20568108.400 7 108086113.957 7       663.179 7        44.269               
G03  23313829.348 7 122514971.665 7      -455.267 7        42.104               
G16  22665708.735 7 119109075.105 7      3170.536 7        45.201               
G25  23970285.012 7 125964689.250 7     -3474.827 7        42.522               
G26  20509725.102 7 107779324.856 7      1144.040 7        44.644               
G28  20982461.621 7 110263584.314 7      -638.860 7        44.503               
G29  22375070.345 7 117581796.521 7      -454.057 7        47.114               
> 2025 08 05 12 19 42.0000000  0  7                                             
G31  20567980.243 7 108085450.976 7       659.410 7        43.759               
G03  23313915.093 7 122515423.865 7      -455.997 7        42.541               
G16  22665106.460 7 119105904.263 7      3169.447 7        44.960               
G25  23970948.319 7 125968161.952 7     -3472.260 7        42.761               
G26  20509502.847 7 107778176.370 7      1146.236 7        44.495               
G28  20982582.058 7 110264224.437 7      -639.596 7        45.037               
G29  22375157.832 7 117582251.171 7      -457.345 7        47.420               
> 2025 08 05 12 19 43.0000000  0  7                                             
G31  20567852.417 7 108084788.266 7       663.590 7        43.747               
G03  23314003.089 7 122515876.675 7      -450.151 7        42.465               
G16  22664500.762 7 119102733.738 7      3170.322 7        45.048               
G25  23971604.434 7 125971634.712 7     -3468.193 7        42.018               
G26  20509286.373 7 107777028.315 7      1147.974 7        44.217               
G28  20982698.600 7 110264864.850 7      -637.848 7        44.465               
G29  22375243.702 7 117582706.457 7      -456.161 7        47.162               
> 2025 08 05 12 19 44.0000000  0  7                                             
G31  20567726.664 7 108084125.873 7       661.832 7        43.884               
G03  23314089.843 7 122516330.143 7      -449.277 7        42.577               
G16  22663901.007 7 119099563.546 7      3175.676 7        45.116               
G25  23972268.536 7 125975107.495 7     -3474.047 7        42.603               
G26  20509065.413 7 107775880.801 7      1148.656 7        44.105               
G28  20982823.808 7 110265505.551 7      -643.855 7        45.345               
G29  22375328.499 7 117583162.430 7      -454.766 7        47.574               
