     3.02           OBSERVATION DATA    G                   RINEX VERSION / TYPE
G = GPS  R = GLONASS  E = GALILEO  S = GEO  M = MIXED       COMMENT             
GNSS-SDR            suhjw               20250728 065648 UTC PGM / RUN BY / DATE 
GPS OBSERVATION DATA FILE GENERATED BY GNSS-SDR             COMMENT             
GNSS-SDR VERSION 0.0.20                                     COMMENT             
See https://gnss-sdr.org                                    COMMENT             
DEFAULT MARKER NAME                                         MARKER NAME         
suhjw               CTTC                                    OBSERVER / AGENCY   
GNSS-SDR            Software Receiver   0.0.20              REC # / TYPE / VERS 
Antenna number      Antenna type                            ANT # / TYPE        
        0.0000        0.0000        0.0000                  APPROX POSITION XYZ 
        0.0000        0.0000        0.0000                  ANTENNA: DELTA H/E/N
G    4 C1C L1C D1C S1C                                      SYS / # / OBS TYPES 
DBHZ                                                        SIGNAL STRENGTH UNIT
  2025    07    28    06    57    6.1200000     GPS         TIME OF FIRST OBS   
                                                            END OF HEADER       
> 2025 07 28 06 57 07.0000000  0  6                                             
G05  26649281.939 7 140042917.432 7     -2936.519 7        47.688               
G13  26413436.058 6 138803559.768 6     -2850.766 6        40.666               
G14  28453140.330 6 149522297.336 6      -888.842 6        39.283               
G15  23959243.676 7 125906690.907 7     -1348.797 7        46.138               
G23  24527979.993 7 128895395.379 7      2186.143 7        43.675               
G24  23498582.064 7 123485881.547 7      1025.559 7        47.629               
> 2025 07 28 06 57 08.0000000  0  6                                             
G05  26649839.229 7 140045852.514 7     -2936.736 7        47.741               
G13  26413982.497 6 138806414.624 6     -2860.557 6        40.809               
G14  28453301.938 6 149523187.067 6      -895.829 6        38.130               
G15  23959501.195 7 125908038.217 7     -1341.909 7        45.220               
G23  24527562.282 7 128893208.946 7      2183.473 7        43.892               
G24  23498385.165 7 123484855.397 7      1027.052 7        47.554               
> 2025 07 28 06 57 09.0000000  0  6                                             
G05  26650398.427 8 140048787.925 8     -2934.170 8        48.147               
G13  26414522.660 6 138809269.545 6     -2852.674 6        41.929               
G14  28453468.303 6 149524077.305 6      -889.038 6        37.324               
G15  23959758.281 7 125909385.852 7     -1348.005 7        46.184               
G23  24527148.623 7 128891022.856 7      2186.070 7        43.839               
G24  23498192.113 7 123483829.973 7      1024.846 7        47.958               
> 2025 07 28 06 57 10.0000000  0  6                                             
G05  26650959.362 8 140051723.603 8     -2932.970 8        48.405               
G13  26415067.817 6 138812124.504 6     -2855.795 6        41.256               
G14  28453632.327 5 149524968.104 5      -901.830 5        35.688               
G15  23960015.122 7 125910733.777 7     -1349.264 7        46.291               
G23  24526730.935 7 128888837.046 7      2183.634 7        43.476               
G24  23498002.670 8 123482805.211 8      1026.089 8        48.182               
> 2025 07 28 06 57 11.0000000  0  6                                             
G05  26651520.342 8 140054659.516 8     -2936.650 8        48.062               
G13  26415612.576 6 138814979.482 6     -2858.493 6        41.399               
G14  28453799.081 5 149525859.367 5      -905.325 5        35.911               
G15  23960274.607 7 125912081.940 7     -1350.612 7        46.103               
G23  24526318.991 7 128886651.491 7      2181.628 7        43.545               
G24  23497804.645 8 123481781.087 8      1024.367 8        48.087               
> 2025 07 28 06 57 12.0000000  0  7                                             
G05  26652080.027 8 140057595.707 8     -2936.211 8        48.129               
G12  28939441.470 6 152077758.474 6      3095.999 6        40.432               
G13  26416159.159 6 138817834.468 6     -2854.483 6        41.208               
G14  28453983.900 6 149526751.132 6      -896.188 6        36.193               
G15  23960530.648 7 125913430.378 7     -1350.216 7        45.797               
G23  24525900.816 7 128884466.205 7      2181.381 7        43.460               
G24  23497610.579 8 123480757.623 8      1024.098 8        48.248               
> 2025 07 28 06 57 13.0000000  0  7                                             
G05  26652635.964 8 140060532.115 8     -2937.258 8        48.375               
G12  28938845.020 6 152074661.793 6      3101.315 6        40.976               
G13  26416703.181 6 138820689.434 6     -2851.096 6        41.507               
G14  28454168.402 6 149527643.451 6      -896.021 6        36.956               
G15  23960789.882 7 125914779.040 7     -1348.213 7        46.829               
G23  24525487.010 7 128882281.162 7      2183.028 7        43.418               
G24  23497418.000 8 123479734.810 8      1024.090 8        48.271               
> 2025 07 28 06 57 14.0000000  0  7                                             
G05  26653194.822 8 140063468.858 8     -2936.533 8        48.282               
G12  28938264.000 6 152071564.995 6      3100.239 6        40.665               
G13  26417246.238 6 138823544.541 6     -2854.944 6        41.825               
G14  28454333.713 6 149528536.333 6      -885.676 6        37.370               
G15  23961049.247 7 125916128.054 7     -1351.975 7        47.184               
G23  24525075.178 7 128880096.486 7      2183.023 7        44.349               
G24  23497223.165 8 123478712.704 8      1020.704 8        48.265               
> 2025 07 28 06 57 15.0000000  0  7                                             
G05  26653754.654 8 140066405.798 8     -2938.299 8        48.304               
G12  28937670.449 6 152068467.983 6      3097.581 6        40.178               
G13  26417788.885 6 138826399.618 6     -2851.511 6        41.649               
G14  28454501.968 6 149529429.679 6      -893.951 6        37.557               
G15  23961309.170 7 125917477.284 7     -1346.848 7        47.146               
G23  24524658.553 7 128877912.033 7      2182.294 7        43.640               
G24  23497027.678 8 123477691.215 8      1022.545 8        48.062               
> 2025 07 28 06 57 16.0000000  0  7                                             
G05  26654313.396 8 140069343.006 8     -2936.322 8        48.639               
G12  28937072.574 6 152065370.758 6      3095.286 6        40.325               
G13  26418328.713 6 138829254.716 6     -2849.695 6        41.279               
G14  28454673.113 6 149530323.566 6      -894.596 6        37.064               
G15  23961562.217 7 125918826.792 7     -1347.379 7        47.781               
G23  24524240.007 7 128875727.848 7      2183.521 7        43.800               
G24  23496831.954 8 123476670.384 8      1020.141 8        48.370               
> 2025 07 28 06 57 17.0000000  0  7                                             
G05  26654869.024 8 140072280.467 8     -2938.278 8        48.090               
G12  28936485.139 6 152062273.362 6      3093.844 6        40.477               
G13  26418870.269 6 138832109.855 6     -2854.877 6        41.635               
G14  28454836.918 6 149531217.932 6      -898.623 6        37.359               
G15  23961818.280 7 125920176.573 7     -1344.622 7        47.287               
G23  24523827.205 7 128873543.945 7      2187.593 7        43.415               
G24  23496639.755 8 123475650.202 8      1021.769 8        48.247               
> 2025 07 28 06 57 18.0000000  0  8                                             
G05  26655429.821 8 140075218.197 8     -2936.446 8        48.032               
G12  28935894.648 6 152059175.757 6      3100.173 6        40.251               
G13  26419417.213 6 138834965.007 6     -2855.753 6        41.534               
G14  28455011.574 6 149532112.783 6      -891.563 6        37.200               
G15  23962073.615 7 125921526.608 7     -1346.672 7        46.727               
G22  28170836.365 6 148038721.672 6      -279.294 6        40.143               
G23  24523405.353 7 128871360.332 7      2181.514 7        43.654               
G24  23496444.035 7 123474630.702 7      1017.522 7        47.327               
> 2025 07 28 06 57 19.0000000  0  8                                             
G05  26655987.035 7 140078156.256 7     -2938.716 7        47.996               
G12  28935306.270 6 152056078.094 6      3102.153 6        39.952               
G13  26419959.484 6 138837820.264 6     -2860.154 6        41.888               
G14  28455177.814 5 149533008.276 5      -894.297 5        35.804               
G15  23962332.649 7 125922877.019 7     -1349.863 7        47.516               
G22  28170886.095 6 148038999.194 6      -275.922 6        40.263               
G23  24522992.624 7 128869177.085 7      2181.779 7        44.050               
G24  23496249.102 7 123473611.909 7      1021.036 7        47.516               
> 2025 07 28 06 57 20.0000000  0  8                                             
G05  26656546.666 7 140081094.563 7     -2937.789 7        47.883               
G12  28934710.566 6 152052980.187 6      3103.462 6        39.453               
G13  26420500.045 6 138840675.535 6     -2854.444 6        41.196               
G14  28455349.500 5 149533904.245 5      -901.368 5        35.838               
G15  23962589.869 7 125924227.674 7     -1352.148 7        47.596               
G22  28170942.087 6 148039277.229 6      -277.832 6        40.645               
G23  24522573.363 7 128866994.069 7      2179.437 7        44.021               
G24  23496053.115 7 123472593.783 7      1017.119 7        47.156               
> 2025 07 28 06 57 21.0000000  0  8                                             
G05  26657108.236 8 140084033.134 8     -2939.928 8        48.035               
G12  28934126.526 6 152049882.104 6      3091.863 6        39.785               
G13  26421044.822 6 138843530.861 6     -2857.722 6        40.804               
G14  28455513.336 5 149534800.741 5      -894.475 5        35.748               
G15  23962847.393 7 125925578.596 7     -1349.404 7        47.583               
G22  28170999.501 6 148039555.806 6      -279.138 6        40.562               
G23  24522160.124 7 128864811.365 7      2182.111 7        43.471               
G24  23495859.879 7 123471576.318 7      1021.416 7        47.691               
> 2025 07 28 06 57 22.0000000  0  8                                             
G05  26657662.667 8 140086971.991 8     -2939.431 8        48.239               
G12  28933537.465 6 152046783.871 6      3099.276 6        40.390               
G13  26421586.173 6 138846386.239 6     -2858.601 6        41.125               
G14  28455685.504 5 149535697.816 5      -889.928 5        34.542               
G15  23963102.201 7 125926929.836 7     -1354.638 7        47.621               
G22  28171049.346 6 148039834.940 6      -285.896 6        40.937               
G23  24521742.994 7 128862628.981 7      2179.493 7        43.735               
G24  23495665.567 7 123470559.547 7      1017.138 7        47.315               
> 2025 07 28 06 57 23.0000000  0  8                                             
G05  26658224.317 7 140089911.132 7     -2939.113 7        47.269               
G12  28932954.184 6 152043685.450 6      3098.413 6        40.752               
G13  26422130.959 6 138849241.652 6     -2858.226 6        41.564               
G14  28455865.830 5 149536595.383 5      -904.385 5        35.265               
G15  23963362.173 7 125928281.337 7     -1353.709 7        47.306               
G22  28171092.911 6 148040114.593 6      -277.904 6        40.285               
G23  24521327.150 7 128860446.856 7      2180.326 7        43.804               
G24  23495472.206 7 123469543.443 7      1014.129 7        47.354               
> 2025 07 28 06 57 24.0000000  0  8                                             
G05  26658781.545 7 140092850.569 7     -2939.082 7        46.918               
G12  28932365.033 6 152040586.875 6      3097.247 6        40.493               
G13  26422669.384 6 138852097.139 6     -2852.097 6        41.398               
G14  28456049.152 5 149537493.484 5      -896.035 5        34.497               
G15  23963617.106 7 125929633.146 7     -1351.587 7        46.398               
G22  28171142.935 6 148040394.791 6      -279.119 6        38.943               
G23  24520915.341 7 128858265.040 7      2180.906 7        43.726               
G24  23495281.410 7 123468528.033 7      1014.546 7        47.323               
> 2025 07 28 06 57 25.0000000  0  8                                             
G05  26659341.935 7 140095790.257 7     -2941.397 7        47.413               
G12  28931775.829 6 152037488.124 6      3100.563 6        41.319               
G13  26423212.710 6 138854952.661 6     -2855.266 6        41.096               
G14  28456222.294 5 149538392.170 5      -886.618 5        35.076               
G15  23963874.304 7 125930985.230 7     -1353.626 7        47.122               
G22  28171196.118 6 148040675.530 6      -277.870 6        38.569               
G23  24520500.913 7 128856083.520 7      2183.071 7        43.924               
G24  23495086.990 7 123467513.301 7      1014.404 7        47.577               
