     3.02           OBSERVATION DATA    G                   RINEX VERSION / TYPE
G = GPS  R = GLONASS  E = GALILEO  S = GEO  M = MIXED       COMMENT             
GNSS-SDR            suhjw               20250805 102100 UTC PGM / RUN BY / DATE 
GPS OBSERVATION DATA FILE GENERATED BY GNSS-SDR             COMMENT             
GNSS-SDR VERSION 0.0.20                                     COMMENT             
See https://gnss-sdr.org                                    COMMENT             
DEFAULT MARKER NAME                                         MARKER NAME         
suhjw               CTTC                                    OBSERVER / AGENCY   
GNSS-SDR            Software Receiver   0.0.20              REC # / TYPE / VERS 
Antenna number      Antenna type                            ANT # / TYPE        
        0.0000        0.0000        0.0000                  APPROX POSITION XYZ 
        0.0000        0.0000        0.0000                  ANTENNA: DELTA H/E/N
G    4 C1C L1C D1C S1C                                      SYS / # / OBS TYPES 
DBHZ                                                        SIGNAL STRENGTH UNIT
  2025    08    05    10    21   18.1200000     GPS         TIME OF FIRST OBS   
                                                            END OF HEADER       
> 2025 08 05 10 21 19.0000000  0  7                                             
G32  23336411.505 7 122633653.186 7       696.218 7        47.795               
G10  24673785.632 7 129661620.153 7     -2707.260 7        43.572               
G12  25497890.569 7 133992301.206 7     -2836.512 7        44.901               
G23  27359622.740 7 143775823.708 7     -3867.502 7        42.498               
G25  23093035.296 7 121354748.292 7     -1202.833 7        44.924               
G28  24096890.605 7 126630023.233 7      1082.931 7        46.189               
G29  27175235.366 7 142806830.102 7      2723.188 7        44.743               
> 2025 08 05 10 21 20.0000000  0  7                                             
G32  23336277.746 7 122632957.417 7       697.870 7        47.889               
G10  24674300.108 7 129664332.815 7     -2707.808 7        43.524               
G12  25498430.177 7 133995137.164 7     -2835.916 7        45.319               
G23  27360365.725 6 143779692.423 6     -3869.729 6        41.889               
G25  23093263.778 7 121355945.704 7     -1200.735 7        44.095               
G28  24096684.700 7 126628940.796 7      1083.560 7        46.012               
G29  27174717.870 7 142804107.347 7      2723.431 7        44.677               
> 2025 08 05 10 21 21.0000000  0  7                                             
G32  23336146.096 8 122632262.023 8       692.631 8        48.426               
G10  24674816.433 7 129667045.901 7     -2709.888 7        43.625               
G12  25498966.784 7 133997973.518 7     -2836.177 7        44.584               
G23  27361097.703 7 143783561.044 7     -3868.540 7        42.037               
G25  23093492.993 7 121357143.706 7     -1199.920 7        44.892               
G28  24096480.832 7 126627858.581 7      1083.151 7        46.687               
G29  27174195.505 7 142801384.678 7      2721.949 7        44.799               
> 2025 08 05 10 21 22.0000000  0  7                                             
G32  23336013.472 7 122631567.017 7       694.415 7        47.942               
G10  24675328.470 7 129669759.408 7     -2716.901 7        43.602               
G12  25499509.806 7 134000810.244 7     -2835.432 7        44.696               
G23  27361836.721 6 143787429.614 6     -3867.545 6        41.933               
G25  23093719.706 7 121358342.324 7     -1200.280 7        44.650               
G28  24096274.374 7 126626776.596 7      1085.093 7        46.825               
G29  27173675.623 7 142798662.059 7      2720.714 7        44.333               
> 2025 08 05 10 21 23.0000000  0  7                                             
G32  23335877.319 8 122630872.388 8       696.134 8        48.194               
G10  24675842.097 7 129672473.338 7     -2713.487 7        43.287               
G12  25500046.922 7 134003647.336 7     -2834.306 7        44.372               
G23  27362568.887 7 143791298.112 7     -3866.965 7        42.077               
G25  23093951.682 7 121359541.547 7     -1200.528 7        45.119               
G28  24096067.030 7 126625694.839 7      1083.045 7        47.057               
G29  27173158.682 7 142795939.527 7      2720.981 7        44.599               
> 2025 08 05 10 21 24.0000000  0  7                                             
G32  23335741.086 7 122630178.183 7       697.289 7        47.747               
G10  24676365.401 7 129675187.743 7     -2712.051 7        43.403               
G12  25500592.025 7 134006484.846 7     -2833.953 7        45.535               
G23  27363307.547 6 143795166.597 6     -3871.299 6        41.942               
G25  23094178.279 7 121360741.420 7     -1207.938 7        45.366               
G28  24095860.563 7 126624613.329 7      1080.552 7        47.037               
G29  27172642.401 7 142793217.098 7      2721.243 7        44.440               
> 2025 08 05 10 21 25.0000000  0  7                                             
G32  23335611.196 7 122629484.362 7       693.516 7        47.834               
G10  24676877.956 7 129677902.548 7     -2713.755 7        43.022               
G12  25501126.801 7 134009322.723 7     -2838.986 7        44.979               
G23  27364040.016 7 143799035.001 7     -3871.970 7        42.285               
G25  23094405.519 7 121361941.899 7     -1200.376 7        45.297               
G28  24095656.320 7 126623532.035 7      1087.403 7        47.199               
G29  27172123.690 7 142790494.740 7      2723.432 7        44.668               
> 2025 08 05 10 21 26.0000000  0  7                                             
G32  23335477.822 7 122628790.923 7       693.998 7        47.568               
G10  24677400.437 7 129680617.767 7     -2711.463 7        43.154               
G12  25501667.794 7 134012160.988 7     -2839.981 7        44.748               
G23  27364777.560 7 143802903.326 7     -3870.910 7        42.526               
G25  23094633.064 7 121363142.984 7     -1203.333 7        45.427               
G28  24095449.915 7 126622450.977 7      1084.743 7        46.335               
G29  27171609.813 7 142787772.462 7      2725.035 7        44.659               
> 2025 08 05 10 21 27.0000000  0  7                                             
G32  23335353.516 7 122628097.913 7       690.573 7        47.183               
G10  24677921.167 7 129683333.471 7     -2717.735 7        43.327               
G12  25502211.343 7 134014999.672 7     -2836.315 7        44.454               
G23  27365513.085 7 143806771.643 7     -3867.144 7        42.471               
G25  23094864.396 7 121364344.734 7     -1201.990 7        44.725               
G28  24095246.985 7 126621370.184 7      1081.144 7        46.704               
G29  27171087.671 7 142785050.298 7      2723.048 7        43.699               
> 2025 08 05 10 21 30.0000000  0  7                                             
G32  23334960.612 7 122626021.269 7       694.492 7        47.819               
G10  24679470.760 7 129691483.149 7     -2717.130 7        44.122               
G12  25503828.231 7 134023518.082 7     -2835.476 7        44.479               
G23  27367727.379 7 143818376.305 7     -3869.915 7        42.362               
G25  23095548.538 7 121367953.729 7     -1208.399 7        44.343               
G28  24094631.790 7 126618129.244 7      1073.217 7        46.855               
G29  27169535.907 7 142776884.325 7      2719.057 7        44.413               
> 2025 08 05 10 21 31.0000000  0  7                                             
G32  23334829.721 7 122625329.832 7       692.670 7        47.420               
G10  24679989.998 7 129694200.553 7     -2717.131 7        44.493               
G12  25504372.396 7 134026358.326 7     -2840.229 7        44.334               
G23  27368460.062 7 143822244.403 7     -3870.880 7        42.162               
G25  23095777.047 7 121369157.953 7     -1199.376 7        44.291               
G28  24094422.875 7 126617049.392 7      1079.570 7        46.945               
G29  27169018.697 7 142774162.495 7      2722.800 7        44.625               
> 2025 08 05 10 21 32.0000000  0  7                                             
G32  23334695.820 7 122624638.802 7       686.850 7        47.750               
G10  24680506.538 7 129696918.417 7     -2719.507 7        44.137               
G12  25504909.959 7 134029198.963 7     -2845.157 7        43.877               
G23  27369196.498 7 143826112.481 7     -3871.705 7        42.930               
G25  23096009.720 7 121370362.806 7     -1203.070 7        44.200               
G28  24094221.062 7 126615969.791 7      1079.981 7        47.076               
G29  27168499.852 7 142771440.765 7      2725.845 7        44.022               
> 2025 08 05 10 21 33.0000000  0  7                                             
G32  23334562.543 7 122623948.193 7       692.922 7        47.316               
G10  24681018.646 7 129699636.715 7     -2711.326 7        43.525               
G12  25505449.433 7 134032040.005 7     -2843.791 7        44.121               
G23  27369934.060 7 143829980.490 7     -3868.703 7        42.647               
G25  23096240.498 7 121371568.325 7     -1202.653 7        43.796               
G28  24094012.682 7 126614890.431 7      1077.762 7        46.905               
G29  27167980.980 7 142768719.128 7      2721.792 7        44.082               
> 2025 08 05 10 21 34.0000000  0  7                                             
G32  23334428.195 7 122623257.970 7       690.954 7        47.683               
G10  24681534.024 7 129702355.477 7     -2714.563 7        42.590               
G12  25505988.470 7 134034881.430 7     -2841.730 7        43.952               
G23  27370667.485 7 143833848.445 7     -3865.673 7        42.715               
G25  23096470.017 7 121372774.453 7     -1207.379 7        44.787               
G28  24093808.645 7 126613811.319 7      1078.781 7        46.884               
G29  27167467.416 7 142765997.593 7      2718.295 7        44.251               
> 2025 08 05 10 21 35.0000000  0  7                                             
G32  23334296.259 7 122622568.206 7       687.874 7        46.956               
G10  24682045.543 7 129705074.713 7     -2720.933 7        42.413               
G12  25506536.129 7 134037723.310 7     -2848.300 7        44.115               
G23  27371406.664 7 143837716.431 7     -3870.873 7        43.025               
G25  23096695.926 7 121373981.253 7     -1211.866 7        43.756               
G28  24093601.096 7 126612732.499 7      1079.056 7        46.570               
G29  27166947.507 7 142763276.191 7      2722.569 7        44.435               
> 2025 08 05 10 21 36.0000000  0  7                                             
G32  23334165.762 7 122621878.869 7       687.791 7        46.875               
G10  24682558.643 7 129707794.406 7     -2720.257 7        42.104               
G12  25507070.279 7 134040565.592 7     -2841.630 7        44.055               
G23  27372143.672 7 143841584.371 7     -3870.097 7        42.485               
G25  23096924.355 7 121375188.709 7     -1205.656 7        43.988               
G28  24093397.514 7 126611653.942 7      1074.473 7        46.246               
G29  27166429.359 7 142760554.897 7      2725.006 7        44.462               
> 2025 08 05 10 21 37.0000000  0  7                                             
G32  23334034.666 7 122621189.927 7       688.941 7        46.788               
G10  24683075.192 7 129710514.536 7     -2718.534 7        42.099               
G12  25507607.216 7 134043408.275 7     -2842.669 7        43.491               
G23  27372879.081 7 143845452.272 7     -3866.457 7        42.816               
G25  23097156.697 7 121376396.782 7     -1209.015 7        45.084               
G28  24093190.296 7 126610575.616 7      1077.285 7        46.972               
G29  27165912.980 7 142757833.704 7      2721.055 7        44.538               
> 2025 08 05 10 21 38.0000000  0  7                                             
G32  23333902.721 7 122620501.397 7       690.053 7        47.017               
G10  24683594.073 7 129713235.111 7     -2721.767 7        42.058               
G12  25508149.496 7 134046251.339 7     -2846.499 7        43.775               
G23  27373613.917 7 143849320.130 7     -3867.822 7        42.336               
G25  23097384.688 7 121377605.479 7     -1212.033 7        44.503               
G28  24092986.438 7 126609497.546 7      1079.140 7        46.861               
G29  27165394.520 7 142755112.611 7      2720.321 7        43.492               
> 2025 08 05 10 21 39.0000000  0  7                                             
G32  23333773.894 7 122619813.269 7       688.769 7        47.111               
G10  24684117.867 6 129715956.125 6     -2715.450 6        41.917               
G12  25508692.893 7 134049094.794 7     -2843.698 7        44.213               
G23  27374351.533 7 143853187.936 7     -3868.528 7        42.419               
G25  23097618.593 7 121378814.817 7     -1212.840 7        44.649               
G28  24092779.273 7 126608419.717 7      1079.879 7        46.851               
G29  27164875.853 7 142752391.602 7      2721.239 7        43.145               
> 2025 08 05 10 21 40.0000000  0  7                                             
G32  23333645.639 7 122619125.488 7       685.664 7        47.015               
G10  24684638.767 6 129718677.527 6     -2721.571 6        41.957               
G12  25509235.361 7 134051938.591 7     -2839.900 7        43.854               
G23  27375085.610 7 143857055.644 7     -3867.755 7        42.111               
G25  23097850.801 7 121380024.757 7     -1205.053 7        44.568               
G28  24092574.021 7 126607342.081 7      1078.549 7        46.376               
G29  27164360.207 7 142749670.650 7      2719.946 7        43.899               
> 2025 08 05 10 21 41.0000000  0  7                                             
G32  23333511.854 7 122618438.116 7       688.303 7        47.028               
G10  24685158.452 7 129721399.390 7     -2719.548 7        42.368               
G12  25509777.221 7 134054782.787 7     -2840.732 7        43.996               
G23  27375821.233 7 143860923.296 7     -3872.869 7        42.732               
G25  23098082.857 7 121381235.294 7     -1212.260 7        45.219               
G28  24092367.240 7 126606264.685 7      1078.532 7        47.021               
G29  27163841.657 7 142746949.783 7      2719.656 7        43.897               
> 2025 08 05 10 21 42.0000000  0  7                                             
G32  23333383.099 7 122617751.182 7       687.409 7        47.198               
G10  24685677.458 7 129724121.714 7     -2717.967 7        42.801               
G12  25510318.608 7 134057627.408 7     -2845.177 7        43.875               
G23  27376557.624 7 143864790.950 7     -3865.692 7        43.047               
G25  23098313.278 7 121382446.528 7     -1209.078 7        45.033               
G28  24092165.955 7 126605187.582 7      1079.022 7        46.631               
G29  27163325.090 7 142744229.057 7      2719.120 7        44.104               
> 2025 08 05 10 21 43.0000000  0  7                                             
G32  23333252.297 7 122617064.684 7       686.799 7        47.311               
G10  24686197.357 7 129726844.490 7     -2721.804 7        42.406               
G12  25510860.870 7 134060472.457 7     -2841.810 7        44.491               
G23  27377295.061 7 143868658.591 7     -3867.053 7        42.450               
G25  23098547.148 7 121383658.405 7     -1213.969 7        45.811               
G28  24091962.141 7 126604110.753 7      1076.299 7        46.998               
G29  27162807.889 7 142741508.436 7      2726.428 7        44.476               
> 2025 08 05 10 21 44.0000000  0  7                                             
G32  23333120.960 7 122616378.635 7       687.163 7        46.742               
G10  24686717.480 7 129729567.766 7     -2725.204 7        42.262               
G12  25511402.311 7 134063317.962 7     -2847.701 7        44.118               
G23  27378029.898 7 143872526.221 7     -3868.903 7        42.631               
G25  23098776.452 7 121384870.966 7     -1211.955 7        45.553               
G28  24091757.236 7 126603034.213 7      1077.588 7        47.241               
G29  27162294.539 7 142738787.983 7      2724.360 7        44.114               
> 2025 08 05 10 21 45.0000000  0  7                                             
G32  23332989.730 7 122615692.995 7       684.780 7        46.729               
G10  24687234.940 7 129732291.470 7     -2722.046 7        42.292               
G12  25511950.622 7 134066163.837 7     -2844.376 7        44.409               
G23  27378766.495 7 143876393.802 7     -3865.407 7        42.546               
G25  23099003.666 7 121386084.137 7     -1215.417 7        45.340               
G28  24091551.966 7 126601957.913 7      1080.797 7        47.027               
G29  27161770.986 7 142736067.605 7      2723.382 7        44.118               
> 2025 08 05 10 21 46.0000000  0  7                                             
G32  23332858.875 7 122615007.771 7       683.656 7        47.506               
G10  24687752.516 7 129735015.632 7     -2725.749 7        42.215               
G12  25512484.477 7 134069010.132 7     -2844.039 7        44.732               
G23  27379499.947 7 143880261.346 7     -3866.763 7        42.266               
G25  23099234.641 7 121387297.969 7     -1213.785 7        45.299               
G28  24091348.554 7 126600881.871 7      1074.713 7        47.074               
G29  27161251.587 7 142733347.333 7      2720.501 7        44.169               
> 2025 08 05 10 21 47.0000000  0  7                                             
G32  23332730.763 7 122614322.958 7       684.074 7        47.562               
G10  24688266.331 7 129737740.250 7     -2726.266 7        42.196               
G12  25513027.641 7 134071856.849 7     -2847.571 7        45.001               
G23  27380239.197 7 143884128.873 7     -3860.020 7        42.125               
G25  23099463.570 7 121388512.443 7     -1213.130 7        45.177               
G28  24091143.704 7 126599806.073 7      1076.689 7        47.407               
G29  27160735.494 7 142730627.182 7      2719.516 7        44.175               
> 2025 08 05 10 21 48.0000000  0  7                                             
G32  23332599.408 7 122613638.583 7       682.476 7        47.169               
G10  24688787.356 7 129740465.320 7     -2723.394 7        42.437               
G12  25513573.790 7 134074703.958 7     -2846.103 7        44.404               
G23  27380969.424 7 143887996.353 7     -3865.976 7        42.235               
G25  23099694.741 7 121389727.542 7     -1215.688 7        45.018               
G28  24090941.194 7 126598730.555 7      1073.262 7        47.854               
G29  27160218.355 7 142727907.140 7      2718.246 7        45.102               
> 2025 08 05 10 21 49.0000000  0  7                                             
G32  23332468.517 7 122612954.593 7       683.799 7        47.246               
G10  24689304.869 6 129743190.827 6     -2724.751 6        41.835               
G12  25514112.086 7 134077551.452 7     -2850.150 7        45.061               
G23  27381707.620 7 143891863.788 7     -3865.824 7        42.397               
G25  23099923.107 7 121390943.284 7     -1217.535 7        45.587               
G28  24090738.327 7 126597655.258 7      1076.178 7        47.900               
G29  27159698.688 7 142725187.184 7      2722.470 7        44.946               
> 2025 08 05 10 21 50.0000000  0  7                                             
G32  23332336.832 7 122612270.990 7       682.303 7        46.992               
G10  24689818.756 6 129745916.754 6     -2726.959 6        41.396               
G12  25514656.573 7 134080399.346 7     -2849.856 7        44.686               
G23  27382443.305 7 143895731.151 7     -3868.251 7        42.121               
G25  23100154.779 7 121392159.616 7     -1217.333 7        44.896               
G28  24090530.850 7 126596580.201 7      1074.948 7        47.661               
G29  27159179.781 7 142722467.313 7      2717.583 7        44.663               
> 2025 08 05 10 21 51.0000000  0  7                                             
G32  23332208.961 7 122611587.823 7       685.866 7        47.495               
G10  24690337.315 7 129748643.161 7     -2729.193 7        42.096               
G12  25515197.915 7 134083247.669 7     -2846.319 7        44.924               
G23  27383177.311 7 143899598.505 7     -3868.712 7        42.043               
G25  23100387.505 7 121393376.616 7     -1219.163 7        45.198               
G28  24090325.892 8 126595505.418 8      1073.999 8        48.548               
G29  27158665.430 7 142719747.569 7      2718.488 7        44.797               
> 2025 08 05 10 21 52.0000000  0  7                                             
G32  23332079.259 7 122610905.013 7       682.296 7        47.113               
G10  24690858.438 6 129751369.930 6     -2726.140 6        41.700               
G12  25515740.105 7 134086096.322 7     -2850.701 7        44.776               
G23  27383915.954 7 143903465.741 7     -3866.421 7        42.074               
G25  23100619.981 7 121394594.194 7     -1214.343 7        44.846               
G28  24090122.578 7 126594430.822 7      1074.083 7        46.936               
G29  27158147.487 7 142717027.870 7      2718.124 7        44.936               
> 2025 08 05 10 21 53.0000000  0  7                                             
G32  23331946.411 7 122610222.615 7       683.710 7        47.447               
G10  24691372.977 6 129754097.136 6     -2717.078 6        41.618               
G12  25516283.717 7 134088945.380 7     -2853.679 7        45.227               
G23  27384649.683 7 143907332.945 7     -3865.277 7        42.539               
G25  23100853.726 7 121395812.405 7     -1216.069 7        45.824               
G28  24089916.334 7 126593356.468 7      1073.156 7        47.123               
G29  27157630.009 7 142714308.239 7      2718.837 7        45.056               
> 2025 08 05 10 21 54.0000000  0  7                                             
G32  23331819.479 7 122609540.633 7       684.536 7        47.637               
G10  24691896.369 7 129756824.838 7     -2732.615 7        42.092               
G12  25516819.180 7 134091794.847 7     -2850.806 7        45.214               
G23  27385387.602 6 143911200.127 6     -3865.932 6        41.677               
G25  23101080.913 7 121397031.262 7     -1219.531 7        45.665               
G28  24089714.512 7 126592282.365 7      1073.707 7        46.867               
G29  27157112.728 7 142711588.747 7      2720.184 7        44.935               
> 2025 08 05 10 21 55.0000000  0  7                                             
G32  23331691.108 7 122608859.082 7       679.394 7        47.220               
G10  24692417.367 6 129759552.977 6     -2728.361 6        41.527               
G12  25517363.864 7 134094644.729 7     -2851.768 7        45.281               
G23  27386123.824 7 143915067.289 7     -3867.932 7        42.279               
G25  23101317.633 7 121398250.775 7     -1217.226 7        44.866               
G28  24089510.645 7 126591208.557 7      1072.874 7        47.203               
G29  27156597.716 7 142708869.394 7      2718.696 7        45.081               
> 2025 08 05 10 21 56.0000000  0  7                                             
G32  23331561.477 7 122608177.949 7       682.389 7        47.305               
G10  24692936.811 6 129762281.560 6     -2731.273 6        40.905               
G12  25517905.089 7 134097495.014 7     -2849.980 7        45.065               
G23  27386859.509 7 143918934.408 7     -3866.867 7        42.692               
G25  23101548.876 7 121399470.924 7     -1219.207 7        44.784               
G28  24089302.426 7 126590134.994 7      1074.596 7        46.717               
G29  27156076.950 7 142706150.123 7      2718.854 7        45.293               
> 2025 08 05 10 21 57.0000000  0  7                                             
G32  23331430.711 7 122607497.193 7       681.506 7        47.972               
G10  24693457.157 6 129765010.548 6     -2727.275 6        40.831               
G12  25518450.559 7 134100345.669 7     -2848.557 7        45.489               
G23  27387595.972 7 143922801.452 7     -3866.225 7        42.545               
G25  23101779.610 7 121400691.671 7     -1221.176 7        44.976               
G28  24089099.603 7 126589061.649 7      1074.302 7        47.057               
G29  27155561.857 7 142703430.940 7      2721.577 7        45.496               
> 2025 08 05 10 21 58.0000000  0  7                                             
G32  23331301.518 7 122606816.905 7       681.409 7        47.277               
G10  24693975.010 6 129767740.061 6     -2733.375 6        41.161               
G12  25518991.204 7 134103196.784 7     -2852.749 7        45.369               
G23  27388328.102 6 143926668.502 6     -3867.862 6        41.868               
G25  23102009.682 7 121401913.126 7     -1223.807 7        45.140               
G28  24088895.164 7 126587988.613 7      1072.696 7        47.054               
G29  27155043.620 7 142700711.917 7      2720.666 7        45.744               
> 2025 08 05 10 21 59.0000000  0  7                                             
G32  23331171.459 7 122606137.041 7       679.412 7        47.894               
G10  24694488.244 6 129770470.002 6     -2729.342 6        40.857               
G12  25519537.210 7 134106048.296 7     -2849.606 7        45.029               
G23  27389067.754 7 143930535.517 7     -3867.796 7        42.141               
G25  23102243.891 7 121403135.210 7     -1220.035 7        45.606               
G28  24088692.744 7 126586915.820 7      1073.261 7        46.691               
G29  27154526.330 7 142697992.994 7      2718.405 7        45.653               
> 2025 08 05 10 22 00.0000000  0  7                                             
G32  23331043.204 7 122605457.544 7       679.515 7        47.702               
G10  24695008.501 6 129773200.373 6     -2735.340 6        40.537               
G12  25520078.132 7 134108900.187 7     -2847.977 7        45.603               
G23  27389804.798 7 143934402.447 7     -3868.621 7        42.662               
G25  23102478.235 7 121404357.897 7     -1223.095 7        44.732               
G28  24088484.328 7 126585843.250 7      1072.815 7        47.164               
G29  27154009.102 7 142695274.143 7      2721.143 7        45.738               
> 2025 08 05 10 22 01.0000000  0  7                                             
G32  23330910.660 8 122604778.450 8       679.242 8        48.046               
G10  24695522.977 6 129775931.149 6     -2732.961 6        40.366               
G12  25520621.127 7 134111752.470 7     -2854.463 7        45.214               
G23  27390543.307 7 143938269.349 7     -3862.805 7        42.442               
G25  23102709.469 7 121405581.212 7     -1222.337 7        44.528               
G28  24088281.426 7 126584770.933 7      1069.053 7        46.893               
G29  27153495.108 7 142692555.394 7      2719.598 7        45.161               
> 2025 08 05 10 22 02.0000000  0  7                                             
G32  23330783.129 8 122604099.758 8       677.678 8        48.003               
G10  24696039.731 6 129778662.394 6     -2730.678 6        39.339               
G12  25521162.067 7 134114605.146 7     -2851.843 7        44.853               
G23  27391273.989 6 143942136.173 6     -3864.389 6        41.870               
G25  23102944.277 7 121406805.139 7     -1223.774 7        45.150               
G28  24088074.190 7 126583698.833 7      1069.674 7        46.450               
G29  27152973.449 7 142689836.722 7      2718.339 7        44.787               
> 2025 08 05 10 22 03.0000000  0  7                                             
G32  23330656.643 7 122603421.454 7       681.325 7        46.998               
G10  24696562.123 6 129781394.059 6     -2730.966 6        40.052               
G12  25521708.681 7 134117458.193 7     -2854.952 7        45.153               
G23  27392009.424 6 143946002.949 6     -3866.057 6        41.948               
G25  23103177.843 7 121408029.679 7     -1226.297 7        45.277               
G28  24087868.910 7 126582626.973 7      1073.937 7        46.439               
G29  27152459.947 7 142687118.128 7      2717.984 7        45.143               
> 2025 08 05 10 22 04.0000000  0  7                                             
G32  23330528.835 7 122602743.620 7       678.582 7        47.402               
G10  24697090.644 6 129784126.183 6     -2735.406 6        39.673               
G12  25522250.925 7 134120311.691 7     -2853.904 7        45.879               
G23  27392745.163 7 143949869.723 7     -3870.509 7        42.105               
G25  23103413.401 7 121409254.920 7     -1226.060 7        45.518               
G28  24087665.123 7 126581555.397 7      1074.235 7        47.195               
G29  27151940.914 7 142684399.689 7      2718.295 7        44.555               
> 2025 08 05 10 22 05.0000000  0  7                                             
G32  23330403.126 7 122602066.185 7       678.303 7        47.693               
G10  24697613.411 6 129786858.781 6     -2739.770 6        39.565               
G12  25522792.062 7 134123165.588 7     -2857.088 7        45.585               
G23  27393480.920 6 143953736.459 6     -3863.527 6        41.696               
G25  23103644.912 7 121410480.773 7     -1223.998 7        44.742               
G28  24087462.318 7 126580484.086 7      1069.696 7        46.932               
G29  27151421.399 7 142681681.367 7      2723.004 7        44.813               
> 2025 08 05 10 22 06.0000000  0  7                                             
G32  23330275.783 8 122601389.109 8       678.950 8        48.053               
G10  24698129.031 6 129789591.742 6     -2732.335 6        40.112               
G12  25523334.869 7 134126019.844 7     -2854.246 7        45.355               
G23  27394217.249 6 143957603.105 6     -3869.656 6        41.532               
G25  23103876.691 7 121411707.237 7     -1229.252 7        44.958               
G28  24087259.398 7 126579412.963 7      1068.195 7        46.717               
G29  27150901.849 7 142678963.094 7      2721.863 7        44.788               
> 2025 08 05 10 22 07.0000000  0  7                                             
G32  23330144.821 8 122600712.492 8       677.161 8        48.947               
G10  24698650.940 6 129792325.212 6     -2734.268 6        40.858               
G12  25523882.456 7 134128874.535 7     -2855.644 7        46.098               
G23  27394955.258 7 143961469.735 7     -3860.720 7        42.081               
G25  23104110.784 7 121412934.357 7     -1228.476 7        45.055               
G28  24087057.737 7 126578342.140 7      1068.626 7        46.954               
G29  27150387.524 7 142676244.973 7      2717.679 7        45.082               
> 2025 08 05 10 22 08.0000000  0  7                                             
G32  23330010.562 8 122600036.258 8       671.375 8        48.058               
G10  24699175.414 6 129795059.073 6     -2737.251 6        40.467               
G12  25524421.502 7 134131729.577 7     -2856.207 7        46.136               
G23  27395688.406 7 143965336.305 7     -3863.797 7        42.455               
G25  23104346.745 7 121414162.052 7     -1229.021 7        45.314               
G28  24086854.763 7 126577271.525 7      1072.197 7        46.974               
G29  27149871.235 7 142673526.928 7      2719.178 7        44.753               
> 2025 08 05 10 22 09.0000000  0  7                                             
G32  23329884.532 7 122599360.481 7       679.929 7        47.200               
G10  24699697.261 6 129797793.427 6     -2732.378 6        40.966               
G12  25524964.372 7 134134585.082 7     -2853.851 7        46.051               
G23  27396429.515 6 143969202.869 6     -3868.310 6        41.439               
G25  23104579.364 7 121415390.468 7     -1230.926 7        45.573               
G28  24086650.752 7 126576201.227 7      1069.494 7        47.050               
G29  27149355.106 7 142670809.024 7      2718.264 7        44.302               
> 2025 08 05 10 22 10.0000000  0  7                                             
G32  23329752.882 7 122598685.092 7       674.184 7        47.215               
G10  24700220.796 6 129800528.207 6     -2741.620 6        40.695               
G12  25525509.154 7 134137440.965 7     -2856.752 7        45.742               
G23  27397164.342 6 143973069.362 6     -3867.391 6        41.891               
G25  23104811.768 7 121416619.489 7     -1231.847 7        44.744               
G28  24086445.392 7 126575131.144 7      1069.387 7        46.688               
G29  27148834.304 7 142668091.205 7      2720.024 7        43.839               
> 2025 08 05 10 22 11.0000000  0  7                                             
G32  23329623.501 7 122598010.100 7       672.497 7        46.990               
G10  24700732.780 6 129803263.403 6     -2736.041 6        40.222               
G12  25526053.686 7 134140297.213 7     -2855.451 7        45.846               
G23  27397900.519 7 143976935.799 7     -3865.215 7        42.185               
G25  23105049.703 7 121417849.105 7     -1228.160 7        45.529               
G28  24086242.865 7 126574061.279 7      1069.486 7        46.640               
G29  27148316.013 7 142665373.469 7      2718.966 7        43.321               
> 2025 08 05 10 22 12.0000000  0  7                                             
G32  23329492.968 7 122597335.508 7       673.487 7        46.453               
G10  24701251.062 6 129805999.052 6     -2735.694 6        39.631               
G12  25526597.351 7 134143153.862 7     -2855.927 7        45.950               
G23  27398632.944 7 143980802.182 7     -3867.541 7        42.401               
G25  23105278.445 7 121419079.360 7     -1232.244 7        45.137               
G28  24086040.552 7 126572991.671 7      1066.932 7        46.776               
G29  27147799.607 7 142662655.833 7      2714.917 7        43.363               
> 2025 08 05 10 22 13.0000000  0  7                                             
G32  23329364.677 7 122596661.339 7       674.711 7        47.110               
G10  24701770.327 6 129808735.140 6     -2735.529 6        40.109               
G12  25527141.230 7 134146010.927 7     -2858.941 7        46.245               
G23  27399369.782 7 143984668.564 7     -3868.014 7        42.745               
G25  23105515.593 7 121420310.267 7     -1229.622 7        44.931               
G28  24085835.460 7 126571922.324 7      1069.283 7        46.858               
G29  27147284.193 7 142659938.303 7      2717.188 7        42.939               
> 2025 08 05 10 22 14.0000000  0  7                                             
G32  23329237.941 7 122595987.590 7       672.713 7        47.683               
G10  24702292.308 6 129811471.669 6     -2725.399 6        40.502               
G12  25527683.260 7 134148868.387 7     -2857.704 7        46.219               
G23  27400106.013 7 143988534.848 7     -3863.555 7        42.229               
G25  23105751.572 7 121421541.793 7     -1232.942 7        45.023               
G28  24085631.539 7 126570853.222 7      1063.995 7        46.822               
G29  27146764.839 7 142657220.873 7      2713.569 7        42.770               
> 2025 08 05 10 22 15.0000000  0  7                                             
G32  23329113.019 7 122595314.260 7       671.718 7        47.619               
G10  24702818.595 6 129814208.662 6     -2735.569 6        40.750               
G12  25528226.577 7 134151726.261 7     -2858.450 7        45.677               
G23  27400840.063 7 143992401.125 7     -3867.988 7        42.287               
G25  23105987.389 7 121422773.958 7     -1233.089 7        45.811               
G28  24085427.260 7 126569784.372 7      1071.953 7        46.905               
G29  27146247.013 7 142654503.562 7      2717.615 7        42.603               
> 2025 08 05 10 22 16.0000000  0  7                                             
G32  23328988.400 7 122594641.397 7       674.189 7        47.410               
G10  24703337.815 6 129816946.127 6     -2737.617 6        40.894               
G12  25528771.903 7 134154584.579 7     -2860.628 7        45.215               
G23  27401578.590 7 143996267.405 7     -3868.850 7        42.562               
G25  23106222.590 7 121424006.828 7     -1231.334 7        45.132               
G28  24085224.197 7 126568715.837 7      1071.723 7        47.256               
G29  27145729.392 7 142651786.416 7      2717.001 7        43.126               
> 2025 08 05 10 22 17.0000000  0  7                                             
G32  23328860.109 7 122593968.927 7       670.774 7        47.752               
G10  24703858.188 6 129819684.042 6     -2733.888 6        40.645               
G12  25529316.185 7 134157443.280 7     -2859.227 7        45.409               
G23  27402314.320 7 144000133.636 7     -3866.164 7        42.226               
G25  23106458.953 7 121425240.297 7     -1233.733 7        45.419               
G28  24085021.607 7 126567647.531 7      1064.392 7        47.314               
G29  27145212.807 7 142649069.321 7      2717.250 7        42.418               
> 2025 08 05 10 22 18.0000000  0  7                                             
G32  23328734.347 8 122593296.868 8       670.011 8        48.736               
G10  24704380.517 6 129822422.391 6     -2741.937 6        40.374               
G12  25529858.135 7 134160302.381 7     -2864.131 7        45.630               
G23  27403045.574 6 144003999.813 6     -3862.760 6        41.730               
G25  23106691.322 7 121426474.426 7     -1235.347 7        45.100               
G28  24084818.632 7 126566579.474 7      1068.223 7        47.657               
G29  27144688.485 7 142646352.371 7      2713.838 7        42.653               
> 2025 08 05 10 22 19.0000000  0  7                                             
G32  23328605.851 8 122592625.230 8       670.625 8        48.660               
G10  24704901.453 6 129825161.187 6     -2740.609 6        40.903               
G12  25530400.629 7 134163161.879 7     -2858.945 7        45.510               
G23  27403786.218 7 144007865.980 7     -3865.492 7        42.264               
G25  23106926.514 7 121427709.187 7     -1236.350 7        45.352               
G28  24084615.640 7 126565511.691 7      1066.547 7        47.059               
G29  27144184.919 7 142643635.521 7      2714.214 7        42.665               
> 2025 08 05 10 22 20.0000000  0  7                                             
G32  23328475.711 8 122591954.039 8       669.039 8        48.710               
G10  24705422.791 6 129827900.425 6     -2732.872 6        40.802               
G12  25530945.116 7 134166021.808 7     -2860.372 7        45.503               
G23  27404518.616 6 144011732.116 6     -3867.907 6        41.904               
G25  23107158.918 7 121428944.609 7     -1237.631 7        45.055               
G28  24084408.985 7 126564444.177 7      1066.875 7        46.842               
G29  27143665.010 7 142640918.813 7      2715.652 7        42.117               
> 2025 08 05 10 22 21.0000000  0  7                                             
G32  23328345.839 7 122591283.306 7       672.717 7        47.825               
G10  24705946.049 6 129830640.192 6     -2744.985 6        41.006               
G12  25531490.425 7 134168882.187 7     -2862.425 7        45.433               
G23  27405256.088 6 144015598.239 6     -3863.679 6        41.643               
G25  23107389.053 7 121430180.700 7     -1237.080 7        45.827               
G28  24084202.893 7 126563376.945 7      1070.501 7        46.948               
G29  27143144.504 7 142638202.249 7      2713.620 7        42.316               
> 2025 08 05 10 22 22.0000000  0  7                                             
G32  23328217.968 7 122590612.896 7       669.728 7        47.508               
G10  24706465.940 6 129833380.299 6     -2734.174 6        40.680               
G12  25532036.994 7 134171742.872 7     -2863.429 7        45.372               
G23  27405991.238 6 144019464.241 6     -3865.510 6        41.993               
G25  23107627.453 7 121431417.365 7     -1236.525 7        45.405               
G28  24084004.466 7 126562309.893 7      1063.058 7        46.311               
G29  27142628.973 7 142635485.715 7      2718.780 7        43.062               
> 2025 08 05 10 22 23.0000000  0  7                                             
G32  23328090.339 7 122589942.918 7       670.103 7        47.616               
G10  24706986.491 6 129836120.870 6     -2743.343 6        40.000               
G12  25532578.068 7 134174603.952 7     -2860.082 7        45.753               
G23  27406725.521 6 144023330.218 6     -3861.034 6        41.728               
G25  23107866.308 7 121432654.641 7     -1238.036 7        45.661               
G28  24083800.259 7 126561243.091 7      1063.158 7        45.849               
G29  27142113.014 7 142632769.305 7      2718.181 7        43.512               
> 2025 08 05 10 22 24.0000000  0  7                                             
G32  23327966.533 7 122589273.342 7       669.899 7        47.344               
G10  24707506.372 6 129838861.900 6     -2751.786 6        39.655               
G12  25533124.109 7 134177465.430 7     -2862.077 7        44.886               
G23  27407463.744 6 144027196.141 6     -3861.976 6        41.794               
G25  23108102.134 7 121433892.564 7     -1237.916 7        45.326               
G28  24083598.911 7 126560176.536 7      1066.864 7        46.245               
G29  27141597.323 7 142630052.995 7      2718.555 7        43.549               
> 2025 08 05 10 22 25.0000000  0  7                                             
G32  23327838.823 7 122588604.171 7       668.468 7        47.572               
G10  24708024.842 6 129841603.338 6     -2747.747 6        39.266               
G12  25533668.168 7 134180327.324 7     -2862.906 7        45.241               
G23  27408200.984 6 144031062.010 6     -3870.630 6        41.180               
G25  23108337.702 7 121435131.120 7     -1236.312 7        45.708               
G28  24083394.382 7 126559110.242 7      1067.512 7        46.667               
G29  27141083.705 7 142627336.778 7      2715.789 7        43.684               
> 2025 08 05 10 22 26.0000000  0  7                                             
G32  23327707.781 8 122587935.459 8       670.242 8        48.123               
G10  24708551.880 6 129844345.267 6     -2742.816 6        38.910               
G12  25534212.011 7 134183189.630 7     -2858.840 7        45.569               
G23  27408936.776 6 144034927.874 6     -3865.650 6        41.346               
G25  23108577.942 7 121436370.325 7     -1240.261 7        46.280               
G28  24083192.140 7 126558044.220 7      1065.152 7        46.812               
G29  27140561.715 7 142624620.715 7      2717.672 7        43.892               
> 2025 08 05 10 22 27.0000000  0  7                                             
G32  23327579.204 7 122587267.144 7       669.965 7        47.493               
G10  24709076.014 6 129847087.585 6     -2740.728 6        38.901               
G12  25534757.249 7 134186052.340 7     -2862.325 7        45.416               
G23  27409670.800 6 144038793.679 6     -3870.320 6        41.849               
G25  23108814.429 7 121437610.167 7     -1242.238 7        46.367               
G28  24082991.015 7 126556978.441 7      1065.596 7        46.794               
G29  27140053.341 7 142621904.751 7      2715.167 7        44.782               
