     3.02           OBSERVATION DATA    G                   RINEX VERSION / TYPE
G = GPS  R = GLONASS  E = GALILEO  S = GEO  M = MIXED       COMMENT             
GNSS-SDR            suhjw               20250806 060348 UTC PGM / RUN BY / DATE 
GPS OBSERVATION DATA FILE GENERATED BY GNSS-SDR             COMMENT             
GNSS-SDR VERSION 0.0.20                                     COMMENT             
See https://gnss-sdr.org                                    COMMENT             
DEFAULT MARKER NAME                                         MARKER NAME         
suhjw               CTTC                                    OBSERVER / AGENCY   
GNSS-SDR            Software Receiver   0.0.20              REC # / TYPE / VERS 
Antenna number      Antenna type                            ANT # / TYPE        
        0.0000        0.0000        0.0000                  APPROX POSITION XYZ 
        0.0000        0.0000        0.0000                  ANTENNA: DELTA H/E/N
G    4 C1C L1C D1C S1C                                      SYS / # / OBS TYPES 
DBHZ                                                        SIGNAL STRENGTH UNIT
  2025    08    06    06    04    6.3600000     GPS         TIME OF FIRST OBS   
    18    18   137     7                                    LEAP SECONDS        
                                                            END OF HEADER       
> 2025 08 06 06 04 07.0000000  0  6                                             
G05  24898450.150 8 130842236.398 8     -2666.196 8        49.516               
G13  24626580.811 7 129413562.219 7     -2797.462 7        44.301               
G14  27077564.957 6 142293556.860 6      -378.714 6        40.343               
G15  22483555.123 7 118151881.226 7     -1076.157 7        44.363               
G18  23385215.389 7 122890139.353 7      -383.519 7        45.125               
G24  22483800.661 7 118153168.042 7      1662.344 7        45.474               
> 2025 08 06 06 04 08.0000000  0  6                                             
G05  24898957.684 8 130844902.715 8     -2666.424 8        49.336               
G13  24627113.290 7 129416359.703 7     -2797.399 7        44.085               
G14  27077640.489 6 142293935.571 6      -378.917 6        40.541               
G15  22483758.329 7 118152957.617 7     -1076.510 7        44.413               
G18  23385287.491 7 122890523.207 7      -384.369 7        45.197               
G24  22483484.326 7 118151505.946 7      1661.846 7        45.557               
> 2025 08 06 06 04 09.0000000  0  6                                             
G05  24899464.897 8 130847569.303 8     -2666.624 8        49.262               
G13  24627645.751 7 129419157.236 7     -2797.683 7        43.786               
G14  27077712.412 6 142294314.800 6      -379.551 6        40.599               
G15  22483961.768 7 118154034.284 7     -1076.912 7        44.351               
G18  23385359.449 7 122890907.725 7      -384.862 7        45.266               
G24  22483167.490 7 118149844.466 7      1661.205 7        45.787               
> 2025 08 06 06 04 10.0000000  0  6                                             
G05  24899972.270 8 130850236.207 8     -2666.963 8        49.223               
G13  24628178.909 7 129421954.884 7     -2797.609 7        43.662               
G14  27077784.407 6 142294694.566 6      -379.947 6        40.731               
G15  22484165.582 7 118155111.283 7     -1076.998 7        44.159               
G18  23385432.123 7 122891292.964 7      -385.455 7        45.510               
G24  22482852.977 7 118148183.638 7      1660.564 7        45.898               
> 2025 08 06 06 04 11.0000000  0  6                                             
G05  24900481.215 8 130852903.314 8     -2667.259 8        49.079               
G13  24628712.103 7 129424752.493 7     -2797.652 7        43.539               
G14  27077851.737 6 142295074.770 6      -380.608 6        40.803               
G15  22484368.199 7 118156188.494 7     -1077.388 7        44.104               
G18  23385505.743 7 122891678.786 7      -386.200 7        45.579               
G24  22482539.144 7 118146523.357 7      1659.913 7        45.834               
> 2025 08 06 06 04 12.0000000  0  6                                             
G05  24900989.678 8 130855570.746 8     -2667.615 8        49.125               
G13  24629244.582 7 129427550.233 7     -2797.797 7        43.328               
G14  27077922.820 6 142295455.525 6      -380.909 6        40.819               
G15  22484571.370 7 118157266.041 7     -1077.725 7        44.107               
G18  23385580.043 7 122892065.342 7      -386.855 7        45.613               
G24  22482224.756 7 118144863.756 7      1659.232 7        46.090               
> 2025 08 06 06 04 13.0000000  0  6                                             
G05  24901497.051 8 130858238.499 8     -2668.048 8        49.140               
G13  24629778.705 7 129430348.066 7     -2797.953 7        43.465               
G14  27077993.385 6 142295836.829 6      -381.751 6        40.653               
G15  22484775.648 7 118158343.919 7     -1078.157 7        43.939               
G18  23385654.717 7 122892452.601 7      -387.748 7        45.622               
G24  22481910.118 7 118143204.812 7      1658.528 7        46.110               
> 2025 08 06 06 04 14.0000000  0  6                                             
G05  24902004.782 8 130860906.520 8     -2668.229 8        49.021               
G13  24630311.380 7 129433145.946 7     -2797.912 7        43.345               
G14  27078066.648 6 142296218.627 6      -382.198 6        40.835               
G15  22484980.338 7 118159422.075 7     -1078.273 7        43.890               
G18  23385727.390 7 122892840.525 7      -388.160 7        45.764               
G24  22481594.122 7 118141546.476 7      1658.101 7        46.524               
> 2025 08 06 06 04 15.0000000  0  6                                             
G05  24902513.531 8 130863574.900 8     -2668.484 8        49.327               
G13  24630842.787 7 129435943.958 7     -2798.059 7        43.656               
G14  27078140.840 6 142296601.007 6      -382.581 6        40.597               
G15  22485186.100 7 118160500.566 7     -1078.600 7        43.779               
G18  23385801.958 7 122893229.181 7      -388.824 7        45.842               
G24  22481277.180 7 118139888.825 7      1657.349 7        46.733               
> 2025 08 06 06 04 16.0000000  0  6                                             
G05  24903021.404 8 130866243.548 8     -2668.795 8        49.252               
G13  24631372.478 7 129438742.021 7     -2797.969 7        43.699               
G14  27078214.121 6 142296983.892 6      -383.001 6        40.480               
G15  22485394.989 7 118161579.355 7     -1078.866 7        43.973               
G18  23385877.151 7 122893618.503 7      -389.610 7        45.719               
G24  22480960.719 7 118138231.789 7      1656.705 7        47.045               
> 2025 08 06 06 04 17.0000000  0  6                                             
G05  24903528.402 8 130868912.537 8     -2669.121 8        49.282               
G13  24631906.637 7 129441540.199 7     -2798.191 7        43.861               
G14  27078289.492 6 142297367.348 6      -383.716 6        40.222               
G15  22485604.825 7 118162658.478 7     -1079.194 7        44.149               
G18  23385950.753 7 122894008.555 7      -390.230 7        45.536               
G24  22480644.348 7 118136575.432 7      1656.138 7        47.058               
> 2025 08 06 06 04 18.0000000  0  6                                             
G05  24904036.275 8 130871581.806 8     -2669.206 8        49.243               
G13  24632438.937 7 129444338.433 7     -2798.392 7        43.762               
G14  27078364.131 6 142297751.299 6      -384.138 6        40.224               
G15  22485812.963 7 118163737.887 7     -1079.376 7        44.081               
G18  23386024.070 7 122894399.275 7      -390.900 7        45.625               
G24  22480330.175 7 118134919.682 7      1655.435 7        47.285               
> 2025 08 06 06 04 19.0000000  0  6                                             
G05  24904542.183 8 130874251.359 8     -2669.796 8        49.207               
G13  24632970.648 7 129447136.736 7     -2798.406 7        43.749               
G14  27078442.683 6 142298135.780 6      -384.794 6        40.163               
G15  22486018.117 7 118164817.576 7     -1079.985 7        43.970               
G18  23386098.262 7 122894790.676 7      -391.895 7        45.656               
G24  22480016.520 7 118133264.570 7      1654.683 7        47.232               
> 2025 08 06 06 04 20.0000000  0  6                                             
G05  24905050.753 8 130876921.264 8     -2670.064 8        49.129               
G13  24633504.682 7 129449935.163 7     -2798.381 7        43.675               
G14  27078516.000 6 142298520.838 6      -385.380 6        40.064               
G15  22486222.682 7 118165897.618 7     -1080.253 7        43.718               
G18  23386174.581 7 122895182.807 7      -392.383 7        45.578               
G24  22479702.990 7 118131610.137 7      1654.083 7        47.006               
> 2025 08 06 06 04 21.0000000  0  6                                             
G05  24905558.519 8 130879591.433 8     -2670.367 8        49.265               
G13  24634037.339 7 129452733.635 7     -2798.480 7        43.722               
G14  27078590.085 6 142298906.379 6      -385.790 6        40.032               
G15  22486427.389 7 118166977.931 7     -1080.412 7        43.810               
G18  23386248.898 7 122895575.590 7      -393.215 7        45.211               
G24  22479389.639 7 118129956.312 7      1653.473 7        47.237               
> 2025 08 06 06 04 22.0000000  0  6                                             
G05  24906067.697 8 130882261.906 8     -2670.596 8        49.115               
G13  24634569.104 7 129455532.194 7     -2798.631 7        43.593               
G14  27078659.435 6 142299292.460 6      -386.407 6        39.782               
G15  22486633.258 7 118168058.556 7     -1080.945 7        43.757               
G18  23386323.984 7 122895969.081 7      -393.859 7        44.983               
G24  22479073.232 7 118128303.128 7      1652.973 7        47.191               
> 2025 08 06 06 04 23.0000000  0  6                                             
G05  24906575.553 8 130884932.650 8     -2671.069 8        49.347               
G13  24635100.511 7 129458330.801 7     -2798.953 7        43.297               
G14  27078725.711 6 142299679.041 6      -386.931 6        39.725               
G15  22486840.146 7 118169139.462 7     -1081.247 7        43.725               
G18  23386398.337 7 122896363.224 7      -394.738 7        44.909               
G24  22478757.897 7 118126650.559 7      1652.112 7        47.057               
> 2025 08 06 06 04 24.0000000  0  6                                             
G05  24907085.284 8 130887603.732 8     -2671.115 8        49.506               
G13  24635633.043 7 129461129.534 7     -2798.487 7        43.220               
G14  27078799.099 6 142300066.191 6      -387.183 6        39.766               
G15  22487045.800 7 118170220.713 7     -1081.256 7        43.704               
G18  23386474.083 7 122896758.106 7      -395.083 7        44.901               
G24  22478442.777 7 118124998.670 7      1651.601 7        46.951               
> 2025 08 06 06 04 25.0000000  0  6                                             
G05  24907595.070 8 130890275.103 8     -2671.590 8        49.630               
G13  24636167.649 7 129463928.322 7     -2798.733 7        43.015               
G14  27078873.095 6 142300453.842 6      -387.754 6        39.715               
G15  22487252.777 7 118171302.250 7     -1081.675 7        43.889               
G18  23386550.741 7 122897153.661 7      -396.021 7        45.063               
G24  22478128.265 7 118123347.403 7      1650.949 7        47.219               
> 2025 08 06 06 04 26.0000000  0  6                                             
G05  24908103.801 8 130892946.755 8     -2671.724 8        49.583               
G13  24636699.073 7 129466727.172 7     -2798.777 7        43.181               
G14  27078949.985 6 142300842.016 6      -388.431 6        39.540               
G15  22487458.646 7 118172384.064 7     -1081.815 7        44.095               
G18  23386628.329 7 122897549.879 7      -396.496 7        45.254               
G24  22477814.967 7 118121696.740 7      1650.502 7        47.158               
> 2025 08 06 06 04 27.0000000  0  6                                             
G05  24908612.836 8 130895618.741 8     -2672.221 8        49.476               
G13  24637233.464 7 129469526.145 7     -2799.018 7        43.188               
G14  27079025.839 6 142301230.756 6      -388.688 6        39.661               
G15  22487663.890 7 118173466.226 7     -1082.256 7        44.424               
G18  23386704.612 7 122897946.826 7      -397.372 7        45.290               
G24  22477500.025 7 118120046.756 7      1649.669 7        47.315               
> 2025 08 06 06 04 28.0000000  0  6                                             
G05  24909120.584 8 130898290.988 8     -2672.397 8        49.562               
G13  24637766.086 7 129472325.152 7     -2798.985 7        42.974               
G14  27079099.459 6 142301619.985 6      -389.523 6        39.876               
G15  22487869.884 7 118174548.662 7     -1082.650 7        44.592               
G18  23386779.769 7 122898344.433 7      -397.925 7        45.379               
G24  22477185.084 7 118118397.383 7      1649.005 7        47.379               
> 2025 08 06 06 04 29.0000000  0  6                                             
G05  24909629.190 8 130900963.523 8     -2672.770 8        49.586               
G13  24638298.279 7 129475124.232 7     -2799.107 7        43.058               
G14  27079175.242 6 142302009.755 6      -390.190 6        40.072               
G15  22488076.396 7 118175631.400 7     -1082.929 7        44.431               
G18  23386854.086 7 122898742.721 7      -398.720 7        45.470               
G24  22476870.428 7 118116748.640 7      1648.283 7        47.337               
> 2025 08 06 06 04 30.0000000  0  6                                             
G05  24910137.135 8 130903636.380 8     -2672.998 8        49.389               
G13  24638830.562 7 129477923.417 7     -2799.221 7        43.229               
G14  27079247.844 6 142302400.069 6      -390.769 6        40.067               
G15  22488281.497 7 118176714.484 7     -1083.258 7        44.674               
G18  23386928.743 7 122899141.734 7      -399.403 7        45.428               
G24  22476556.523 7 118115100.584 7      1647.641 7        46.996               
> 2025 08 06 06 04 31.0000000  0  6                                             
G05  24910644.651 8 130906309.557 8     -2673.353 8        49.460               
G13  24639364.935 7 129480722.689 7     -2799.231 7        43.254               
G14  27079320.428 6 142302790.940 6      -390.929 6        40.237               
G15  22488489.778 7 118177797.884 7     -1083.469 7        44.723               
G18  23387002.452 7 122899541.455 7      -399.924 7        45.476               
G24  22476241.010 7 118113453.165 7      1647.137 7        47.052               
> 2025 08 06 06 04 32.0000000  0  6                                             
G05  24911152.310 8 130908983.038 8     -2673.560 8        49.359               
G13  24639899.576 7 129483522.048 7     -2799.363 7        43.037               
G14  27079394.531 6 142303182.329 6      -391.560 6        40.159               
G15  22488697.273 7 118178881.587 7     -1083.587 7        44.830               
G18  23387077.181 7 122899941.862 7      -400.503 7        45.837               
G24  22475926.712 7 118111806.391 7      1646.513 7        47.052               
> 2025 08 06 06 04 33.0000000  0  6                                             
G05  24911660.129 8 130911656.726 8     -2673.734 8        49.290               
G13  24640433.395 7 129486321.399 7     -2799.168 7        43.131               
G14  27079466.364 6 142303574.156 6      -391.856 6        39.898               
G15  22488902.589 7 118179965.507 7     -1084.083 7        44.860               
G18  23387154.732 7 122900342.874 7      -401.429 7        45.606               
G24  22475615.040 7 118110160.163 7      1645.995 7        46.931               
> 2025 08 06 06 04 34.0000000  0  6                                             
G05  24912169.397 8 130914330.787 8     -2674.206 8        49.151               
G13  24640966.267 7 129489120.883 7     -2799.479 7        43.207               
G14  27079541.057 6 142303966.573 6      -392.629 6        39.667               
G15  22489108.940 7 118181049.799 7     -1084.397 7        44.846               
G18  23387233.928 7 122900744.639 7      -402.105 7        45.789               
G24  22475304.566 7 118108514.642 7      1645.145 7        46.859               
> 2025 08 06 06 04 35.0000000  0  6                                             
G05  24912677.860 8 130917005.144 8     -2674.563 8        49.081               
G13  24641497.246 7 129491920.456 7     -2799.324 7        43.359               
G14  27079617.143 6 142304359.513 6      -393.331 6        39.562               
G15  22489317.007 7 118182134.385 7     -1084.831 7        44.853               
G18  23387311.801 7 122901147.088 7      -402.797 7        45.746               
G24  22474993.484 7 118106869.761 7      1644.599 7        46.668               
> 2025 08 06 06 04 36.0000000  0  6                                             
G05  24913187.163 8 130919679.836 8     -2674.833 8        49.108               
G13  24642028.563 7 129494720.141 7     -2799.815 7        43.354               
G14  27079698.018 6 142304753.031 6      -393.627 6        39.680               
G15  22489522.108 7 118183219.317 7     -1084.998 7        45.029               
G18  23387389.031 7 122901550.268 7      -403.519 7        45.815               
G24  22474681.866 7 118105225.553 7      1643.897 7        46.860               
> 2025 08 06 06 04 37.0000000  0  6                                             
G05  24913697.841 8 130922354.792 8     -2675.123 8        49.152               
G13  24642560.077 7 129497519.871 7     -2799.987 7        43.268               
G14  27079775.927 6 142305147.056 6      -394.363 6        39.817               
G15  22489727.762 7 118184304.522 7     -1085.355 7        45.415               
G18  23387466.118 7 122901954.108 7      -404.175 7        45.630               
G24  22474368.658 7 118103581.965 7      1643.241 7        46.728               
> 2025 08 06 06 04 38.0000000  0  6                                             
G05  24914208.216 8 130925030.084 8     -2675.504 8        49.208               
G13  24643090.716 7 129500319.730 7     -2799.833 7        43.209               
G14  27079850.048 6 142305541.650 6      -394.838 6        39.916               
G15  22489934.274 7 118185390.061 7     -1085.816 7        45.379               
G18  23387544.116 7 122902358.673 7      -404.964 7        45.711               
G24  22474053.430 7 118101939.045 7      1642.681 7        46.916               
> 2025 08 06 06 04 39.0000000  0  6                                             
G05  24914718.949 8 130927705.585 8     -2675.678 8        49.132               
G13  24643624.463 7 129503119.575 7     -2799.972 7        43.162               
G14  27079923.829 6 142305936.672 6      -395.535 6        39.723               
G15  22490140.376 7 118186475.824 7     -1085.975 7        45.131               
G18  23387621.400 7 122902763.844 7      -405.616 7        45.686               
G24  22473739.329 7 118100296.675 7      1641.914 7        46.867               
> 2025 08 06 06 04 40.0000000  0  6                                             
G05  24915228.091 8 130930381.367 8     -2676.037 8        49.191               
G13  24644157.353 7 129505919.481 7     -2799.955 7        43.225               
G14  27079994.662 6 142306332.206 6      -395.961 6        39.392               
G15  22490347.299 7 118187561.871 7     -1086.336 7        45.143               
G18  23387698.183 7 122903169.691 7      -406.256 7        45.357               
G24  22473427.014 7 118098654.933 7      1641.350 7        46.991               
> 2025 08 06 06 04 41.0000000  0  6                                             
G05  24915737.322 8 130933057.441 8     -2676.225 8        49.318               
G13  24644690.440 7 129508719.465 7     -2800.089 7        43.453               
G14  27080070.140 6 142306728.279 6      -396.119 6        39.265               
G15  22490554.848 7 118188648.222 7     -1086.617 7        45.181               
G18  23387775.163 7 122903576.224 7      -406.865 7        45.354               
G24  22473117.326 7 118097013.828 7      1640.597 7        46.940               
> 2025 08 06 06 04 42.0000000  0  6                                             
G05  24916247.036 8 130935733.759 8     -2676.583 8        49.216               
G13  24645223.705 7 129511519.483 7     -2800.040 7        43.625               
G14  27080144.065 6 142307124.808 6      -396.884 6        38.981               
G15  22490761.235 7 118189734.827 7     -1086.774 7        45.102               
G18  23387852.267 7 122903983.396 7      -407.659 7        45.189               
G24  22472806.691 7 118095373.321 7      1640.113 7        46.599               
> 2025 08 06 06 04 43.0000000  0  6                                             
G05  24916756.750 8 130938410.378 8     -2676.722 8        49.369               
G13  24645758.829 7 129514319.579 7     -2800.024 7        43.521               
G14  27080217.631 6 142307521.890 6      -397.177 6        38.770               
G15  22490966.639 7 118190821.745 7     -1087.022 7        45.254               
G18  23387930.766 7 122904391.262 7      -408.348 7        45.369               
G24  22472495.859 7 118093733.468 7      1639.535 7        46.770               
> 2025 08 06 06 04 44.0000000  0  6                                             
G05  24917265.249 8 130941087.276 8     -2676.891 8        49.417               
G13  24646294.078 7 129517119.732 7     -2800.164 7        43.475               
G14  27080292.538 6 142307919.476 6      -397.594 6        38.510               
G15  22491173.027 7 118191908.942 7     -1087.093 7        44.947               
G18  23388006.781 7 122904799.801 7      -408.788 7        45.547               
G24  22472184.724 7 118092094.239 7      1638.915 7        46.923               
> 2025 08 06 06 04 45.0000000  0  6                                             
G05  24917773.444 8 130943764.468 8     -2677.327 8        49.496               
G13  24646825.467 7 129519919.945 7     -2800.267 7        43.562               
G14  27080372.860 6 142308317.572 6      -398.639 6        38.325               
G15  22491378.199 7 118192996.422 7     -1087.607 7        44.962               
G18  23388082.742 7 122905209.013 7      -409.693 7        45.634               
G24  22471870.997 7 118090455.600 7      1638.422 7        46.853               
> 2025 08 06 06 04 46.0000000  0  6                                             
G05  24918281.460 8 130946441.948 8     -2677.681 8        49.452               
G13  24647357.642 7 129522720.233 7     -2800.356 7        43.615               
G14  27080450.572 6 142308716.199 6      -398.874 6        38.017               
G15  22491583.907 7 118194084.190 7     -1087.900 7        44.839               
G18  23388159.597 7 122905618.905 7      -410.210 7        45.612               
G24  22471558.111 7 118088817.603 7      1637.595 7        47.108               
> 2025 08 06 06 04 47.0000000  0  6                                             
G05  24918789.745 8 130949119.734 8     -2677.993 8        49.133               
G13  24647890.639 7 129525520.603 7     -2800.388 7        43.561               
G14  27080533.127 6 142309115.364 6      -399.661 6        37.958               
G15  22491789.043 7 118195172.269 7     -1088.371 7        44.609               
G18  23388237.631 7 122906029.493 7      -411.146 7        45.865               
G24  22471244.617 7 118087180.247 7      1637.143 7        47.186               
> 2025 08 06 06 04 48.0000000  0  6                                             
G05  24919298.869 8 130951797.825 8     -2678.291 8        49.044               
G13  24648421.438 7 129528321.054 7     -2800.370 7        43.388               
G14  27080612.036 6 142309515.061 6      -399.940 6        38.152               
G15  22491996.181 7 118196260.672 7     -1088.568 7        44.732               
G18  23388314.700 7 122906440.783 7      -411.627 7        45.722               
G24  22470932.963 7 118085543.539 7      1636.257 7        47.125               
> 2025 08 06 06 04 49.0000000  0  6                                             
G05  24919807.439 8 130954476.247 8     -2678.588 8        49.016               
G13  24648950.522 7 129531121.588 7     -2800.631 7        43.640               
G14  27080685.442 6 142309915.312 6      -400.536 6        38.089               
G15  22492202.622 7 118197349.387 7     -1088.990 7        44.881               
G18  23388394.003 7 122906852.769 7      -412.340 7        45.655               
G24  22470620.952 7 118083907.484 7      1635.791 7        47.159               
> 2025 08 06 06 04 50.0000000  0  6                                             
G05  24920315.920 8 130957154.952 8     -2678.950 8        48.861               
G13  24649482.018 7 129533922.200 7     -2800.574 7        43.532               
G14  27080760.457 6 142310316.081 6      -400.906 6        38.179               
G15  22492410.957 7 118198438.390 7     -1089.150 7        44.556               
G18  23388471.822 7 122907265.442 7      -413.134 7        45.505               
G24  22470309.477 7 118082272.056 7      1635.131 7        47.248               
> 2025 08 06 06 04 51.0000000  0  6                                             
G05  24920826.295 8 130959834.035 8     -2679.102 8        48.725               
G13  24650015.391 7 129536722.946 7     -2800.717 7        43.643               
G14  27080838.544 6 142310717.413 6      -401.485 6        38.204               
G15  22492617.809 7 118199527.761 7     -1089.374 7        44.537               
G18  23388550.374 7 122907678.854 7      -413.615 7        45.517               
G24  22469999.628 7 118080637.332 7      1634.516 7        47.303               
> 2025 08 06 06 04 52.0000000  0  6                                             
G05  24921337.188 8 130962513.412 8     -2679.760 8        48.599               
G13  24650548.209 7 129539523.774 7     -2800.988 7        43.600               
G14  27080911.736 6 142311119.292 6      -402.313 6        38.048               
G15  22492824.964 7 118200617.441 7     -1090.033 7        44.648               
G18  23388627.658 7 122908092.972 7      -414.516 7        45.431               
G24  22469688.278 7 118079003.248 7      1633.767 7        47.193               
> 2025 08 06 06 04 53.0000000  0  6                                             
G05  24921848.296 8 130965193.037 8     -2679.701 8        48.602               
G13  24651081.564 7 129542324.636 7     -2800.930 7        43.632               
G14  27080986.535 6 142311521.659 6      -402.459 6        38.033               
G15  22493033.728 7 118201707.381 7     -1090.067 7        44.579               
G18  23388706.961 7 122908507.727 7      -414.979 7        45.292               
G24  22469377.500 7 118077369.764 7      1633.093 7        47.175               
> 2025 08 06 06 04 54.0000000  0  6                                             
G05  24922358.742 8 130967873.017 8     -2680.110 8        48.867               
G13  24651611.988 7 129545125.630 7     -2801.033 7        43.115               
G14  27081059.513 6 142311924.606 6      -403.429 6        37.631               
G15  22493241.920 7 118202797.676 7     -1090.492 7        44.525               
G18  23388786.782 7 122908923.217 7      -415.835 7        45.491               
G24  22469067.794 7 118075736.973 7      1632.482 7        47.157               
> 2025 08 06 06 04 55.0000000  0  6                                             
G05  24922870.350 8 130970553.267 8     -2680.223 8        49.008               
G13  24652146.290 7 129547926.674 7     -2801.083 7        43.085               
G14  27081136.957 6 142312328.048 6      -403.726 6        37.431               
G15  22493450.040 7 118203888.249 7     -1090.712 7        44.345               
G18  23388867.550 7 122909339.377 7      -416.562 7        45.675               
G24  22468757.785 7 118074104.790 7      1631.910 7        47.302               
> 2025 08 06 06 04 56.0000000  0  6                                             
G05  24923381.387 8 130973233.771 8     -2680.708 8        49.091               
G13  24652680.574 7 129550727.746 7     -2801.246 7        43.255               
G14  27081211.632 6 142312731.985 6      -404.315 6        37.282               
G15  22493657.804 7 118204979.076 7     -1091.021 7        44.158               
G18  23388948.067 7 122909756.183 7      -417.243 7        45.252               
G24  22468448.990 7 118072473.213 7      1631.181 7        46.744               
> 2025 08 06 06 04 57.0000000  0  6                                             
G05  24923892.262 8 130975914.620 8     -2680.898 8        49.491               
G13  24653213.178 7 129553528.959 7     -2801.200 7        43.164               
G14  27081290.791 6 142313136.487 6      -404.979 6        37.145               
G15  22493866.746 7 118206070.256 7     -1091.508 7        44.147               
G18  23389026.673 7 122910173.723 7      -417.991 7        45.339               
G24  22468138.927 7 118070842.321 7      1630.580 7        46.932               
> 2025 08 06 06 04 58.0000000  0  6                                             
G05  24924402.405 8 130978595.813 8     -2681.316 8        49.747               
G13  24653745.925 7 129556330.293 7     -2801.267 7        43.136               
G14  27081366.592 6 142313541.571 6      -405.379 6        36.850               
G15  22494074.992 7 118207161.791 7     -1091.591 7        44.164               
G18  23389106.673 7 122910592.009 7      -418.467 7        45.534               
G24  22467827.988 7 118069212.111 7      1629.880 7        47.163               
> 2025 08 06 06 04 59.0000000  0  6                                             
G05  24924911.886 8 130981277.298 8     -2681.830 8        49.673               
G13  24654281.030 7 129559131.686 7     -2801.577 7        43.296               
G14  27081447.949 6 142313947.184 6      -406.075 6        36.907               
G15  22494283.755 7 118208253.627 7     -1091.965 7        44.127               
G18  23389186.297 7 122911010.977 7      -419.481 7        45.525               
G24  22467516.442 7 118067582.542 7      1629.088 7        47.473               
> 2025 08 06 06 05 00.0000000  0  6                                             
G05  24925420.975 8 130983959.073 8     -2681.974 8        49.609               
G13  24654814.081 7 129561933.164 7     -2801.741 7        43.152               
G14  27081525.090 6 142314353.325 6      -406.360 6        36.967               
G15  22494491.519 7 118209345.755 7     -1092.288 7        44.280               
G18  23389266.297 7 122911430.627 7      -420.239 7        45.456               
G24  22467205.806 7 118065953.607 7      1628.673 7        47.431               
> 2025 08 06 06 05 01.0000000  0  6                                             
G05  24925931.260 8 130986641.205 8     -2682.361 8        49.534               
G13  24655346.399 7 129564734.765 7     -2801.726 7        43.173               
G14  27081605.518 6 142314760.050 6      -406.765 6        36.791               
G15  22494700.425 7 118210438.256 7     -1092.628 7        44.386               
G18  23389347.029 7 122911851.022 7      -420.687 7        45.245               
G24  22466895.832 7 118064325.368 7      1627.793 7        47.332               
> 2025 08 06 06 05 02.0000000  0  6                                             
G05  24926440.134 8 130989323.610 8     -2682.568 8        49.489               
G13  24655879.522 7 129567536.412 7     -2801.505 7        43.382               
G14  27081679.961 6 142315167.270 6      -407.446 6        36.481               
G15  22494908.832 7 118211531.010 7     -1092.901 7        44.152               
G18  23389427.958 7 122912272.075 7      -421.336 7        45.201               
G24  22466586.716 7 118062697.735 7      1627.356 7        47.478               
> 2025 08 06 06 05 03.0000000  0  6                                             
G05  24926948.955 8 130992006.264 8     -2682.755 8        49.440               
G13  24656413.091 7 129570338.094 7     -2801.670 7        43.491               
G14  27081754.778 6 142315574.963 6      -407.788 6        36.357               
G15  22495118.221 7 118212624.033 7     -1093.072 7        44.324               
G18  23389507.386 7 122912693.766 7      -421.829 7        45.264               
G24  22466279.887 7 118061070.698 7      1626.921 7        47.629               
> 2025 08 06 06 05 04.0000000  0  6                                             
G05  24927459.062 8 130994689.230 8     -2683.150 8        49.280               
G13  24656948.750 7 129573139.851 7     -2801.627 7        43.291               
G14  27081829.810 6 142315983.201 6      -408.665 6        36.184               
G15  22495328.629 7 118213717.366 7     -1093.584 7        44.390               
G18  23389585.777 7 122913116.156 7      -422.793 7        45.086               
G24  22465973.094 7 118059444.313 7      1625.971 7        47.637               
> 2025 08 06 06 05 05.0000000  0  6                                             
G05  24927969.222 8 130997372.511 8     -2683.622 8        49.289               
G13  24657483.517 7 129575941.709 7     -2802.110 7        43.299               
G14  27081902.269 5 142316391.993 5      -409.422 5        35.861               
G15  22495537.464 7 118214811.024 7     -1094.106 7        44.635               
G18  23389664.687 7 122913539.253 7      -423.636 7        45.014               
G24  22465663.906 7 118057818.589 7      1625.228 7        47.620               
> 2025 08 06 06 05 06.0000000  0  7                                             
G05  24928482.296 8 131000056.122 8     -2683.912 8        49.122               
G13  24658016.478 7 129578743.676 7     -2802.090 7        43.329               
G14  27081977.962 5 142316801.349 5      -410.196 5        35.260               
G15  22495745.102 7 118215905.024 7     -1094.327 7        45.040               
G18  23389744.883 7 122913963.079 7      -424.278 7        44.958               
G23  23667064.632 6 124371261.095 6      2415.425 6        41.557               
G24  22465354.290 7 118056193.536 7      1624.570 7        47.834               
> 2025 08 06 06 05 07.0000000  0  7                                             
G05  24928993.421 8 131002740.048 8     -2684.090 8        49.105               
G13  24658550.172 7 129581545.738 7     -2802.163 7        43.396               
G14  27082060.642 5 142317211.250 5      -410.592 5        35.039               
G15  22495952.544 7 118216999.347 7     -1094.403 7        45.170               
G18  23389827.134 7 122914387.617 7      -425.015 7        45.274               
G23  23666605.881 6 124368845.525 6      2415.179 6        41.919               
G24  22465043.851 7 118054569.157 7      1624.117 7        47.862               
> 2025 08 06 06 05 08.0000000  0  7                                             
G05  24929505.172 8 131005424.229 8     -2684.293 8        49.206               
G13  24659085.618 7 129584347.839 7     -2802.134 7        43.527               
G14  27082145.931 5 142317621.642 5      -410.382 5        34.975               
G15  22496158.859 7 118218093.923 7     -1094.793 7        45.454               
G18  23389907.705 7 122914812.803 7      -425.520 7        45.190               
G23  23666142.698 7 124366430.117 7      2415.069 7        42.111               
G24  22464733.556 7 118052945.370 7      1623.479 7        47.907               
> 2025 08 06 06 05 09.0000000  0  7                                             
G05  24930016.244 8 131008108.699 8     -2684.703 8        49.294               
G13  24659619.437 7 129587150.017 7     -2802.201 7        43.724               
G14  27082223.268 5 142318032.534 5      -411.391 5        35.036               
G15  22496364.424 7 118219188.820 7     -1095.250 7        45.263               
G18  23389989.706 7 122915238.680 7      -426.356 7        45.421               
G23  23665682.231 6 124364014.928 6      2414.736 6        41.932               
G24  22464423.832 7 118051322.218 7      1622.712 7        47.964               
> 2025 08 06 06 05 10.0000000  0  7                                             
G05  24930526.798 8 131010793.482 8     -2684.930 8        49.240               
G13  24660150.004 7 129589952.289 7     -2802.275 7        43.719               
G14  27082298.533 5 142318444.004 5      -411.798 5        34.932               
G15  22496570.651 7 118220284.023 7     -1095.330 7        45.397               
G18  23390073.387 7 122915665.248 7      -426.868 7        45.676               
G23  23665223.748 6 124361599.967 6      2414.925 6        41.876               
G24  22464113.786 8 118049699.723 8      1622.328 8        48.032               
> 2025 08 06 06 05 11.0000000  0  7                                             
G05  24931038.602 8 131013478.568 8     -2685.267 8        49.437               
G13  24660680.750 7 129592754.647 7     -2802.421 7        43.777               
G14  27082375.209 5 142318855.996 5      -412.599 5        34.741               
G15  22496777.020 7 118221379.535 7     -1095.725 7        45.138               
G18  23390155.066 7 122916092.521 7      -427.681 7        45.560               
G23  23664764.478 6 124359185.227 6      2414.604 6        41.956               
G24  22463805.313 7 118048077.875 7      1621.421 7        47.698               
> 2025 08 06 06 05 12.0000000  0  7                                             
G05  24931549.585 8 131016163.979 8     -2685.572 8        49.587               
G13  24661213.050 7 129595557.118 7     -2802.429 7        43.683               
G14  27082456.495 5 142319268.544 5      -411.970 5        34.127               
G15  22496984.480 7 118222475.386 7     -1096.015 7        45.203               
G18  23390235.280 7 122916520.516 7      -428.616 7        45.512               
G23  23664301.992 7 124356770.734 7      2414.545 7        42.009               
G24  22463496.858 7 118046456.706 7      1620.964 7        47.825               
> 2025 08 06 06 05 13.0000000  0  7                                             
G05  24932060.764 8 131018849.737 8     -2685.986 8        49.614               
G13  24661745.189 7 129598359.724 7     -2802.529 7        43.574               
G14  27082539.282 5 142319681.689 5      -413.061 5        33.771               
G15  22497194.458 7 118223571.600 7     -1096.328 7        45.186               
G18  23390314.958 7 122916949.258 7      -429.197 7        45.362               
G23  23663842.901 7 124354356.519 7      2414.142 7        42.199               
G24  22463189.207 7 118044836.230 7      1620.173 7        47.626               
> 2025 08 06 06 05 14.0000000  0  7                                             
G05  24932572.104 8 131021535.773 8     -2686.275 8        49.595               
G13  24662277.472 7 129601162.374 7     -2802.657 7        43.509               
G14  27082630.414 5 142320095.311 5      -414.086 5        33.602               
G15  22497403.991 7 118224668.088 7     -1096.686 7        45.256               
G18  23390395.905 7 122917378.667 7      -429.920 7        45.381               
G23  23663382.988 7 124351942.484 7      2413.950 7        42.398               
G24  22462880.252 7 118043216.375 7      1619.575 7        47.490               
> 2025 08 06 06 05 15.0000000  0  7                                             
G05  24933083.766 8 131024222.123 8     -2686.477 8        49.502               
G13  24662812.042 7 129603965.122 7     -2802.768 7        43.402               
G14  27082711.146 5 142320509.519 5      -414.607 5        33.695               
G15  22497613.523 7 118225764.891 7     -1096.980 7        45.251               
G18  23390477.709 7 122917808.789 7      -430.427 7        45.223               
G23  23662919.591 7 124349528.694 7      2413.518 7        42.454               
G24  22462571.029 7 118041597.161 7      1618.847 7        47.250               
> 2025 08 06 06 05 16.0000000  0  7                                             
G05  24933595.124 8 131026908.770 8     -2686.733 8        49.461               
G13  24663348.059 7 129606767.936 7     -2802.805 7        43.393               
G14  27082790.914 5 142320924.246 5      -414.520 5        33.575               
G15  22497822.501 7 118226861.997 7     -1097.249 7        45.211               
G18  23390559.961 7 122918239.586 7      -431.030 7        45.363               
G23  23662460.589 7 124347115.108 7      2413.733 7        42.602               
G24  22462262.806 7 118039978.597 7      1618.253 7        47.519               
> 2025 08 06 06 05 17.0000000  0  7                                             
G05  24934106.338 8 131029595.746 8     -2687.125 8        49.421               
G13  24663880.305 7 129609570.865 7     -2803.031 7        43.380               
G14  27082870.002 5 142321339.555 5      -415.958 5        33.230               
G15  22498032.569 7 118227959.443 7     -1097.666 7        45.128               
G18  23390643.713 7 122918671.107 7      -431.802 7        45.673               
G23  23662002.963 7 124344701.769 7      2412.978 7        42.681               
G24  22461955.369 7 118038360.706 7      1617.553 7        47.762               
> 2025 08 06 06 05 18.0000000  0  7                                             
G05  24934617.518 8 131032282.993 8     -2687.250 8        49.514               
G13  24664410.712 7 129612373.841 7     -2802.985 7        43.376               
G14  27082951.235 5 142321755.358 5      -415.323 5        33.142               
G15  22498242.369 7 118229057.165 7     -1097.744 7        45.458               
G18  23390727.590 7 122919103.290 7      -432.494 7        45.714               
G23  23661542.657 7 124342288.633 7      2413.118 7        42.729               
G24  22461649.398 7 118036743.434 7      1616.946 7        47.636               
> 2025 08 06 06 05 19.0000000  0  7                                             
G05  24935128.071 8 131034970.504 8     -2687.667 8        49.451               
G13  24664943.048 7 129615176.852 7     -2802.976 7        43.439               
G14  27083029.447 5 142322171.630 5      -416.499 5        32.629               
G15  22498451.008 7 118230155.155 7     -1097.995 7        45.549               
G18  23390811.217 7 122919536.122 7      -433.165 7        45.771               
G23  23661084.639 7 124339875.658 7      2413.022 7        42.791               
G24  22461342.766 7 118035126.777 7      1616.448 7        47.725               
> 2025 08 06 06 05 20.0000000  0  7                                             
G05  24935639.107 8 131037658.312 8     -2688.010 8        49.436               
G13  24665477.617 7 129617979.947 7     -2803.081 7        43.609               
G14  27083091.757 5 142322588.456 5      -416.770 5        32.476               
G15  22498658.861 7 118231253.439 7     -1098.412 7        45.623               
G18  23390892.682 7 122919969.645 7      -433.876 7        45.804               
G23  23660624.976 7 124337462.904 7      2412.548 7        42.401               
G24  22461037.366 7 118033510.751 7      1615.591 7        47.699               
> 2025 08 06 06 05 21.0000000  0  7                                             
G05  24936149.179 8 131040346.476 8     -2688.492 8        49.170               
G13  24666010.525 7 129620783.154 7     -2803.648 7        43.851               
G14  27083172.578 5 142323005.849 5      -418.200 5        32.419               
G15  22498869.197 7 118232352.082 7     -1099.002 7        45.823               
G18  23390975.237 7 122920403.911 7      -434.618 7        45.360               
G23  23660166.796 7 124335050.416 7      2412.371 7        42.286               
G24  22460730.180 7 118031895.415 7      1614.942 7        47.649               
> 2025 08 06 06 05 22.0000000  0  7                                             
G05  24936660.537 8 131043034.923 8     -2688.689 8        49.387               
G13  24666542.021 7 129623586.453 7     -2803.380 7        43.628               
G14  27083252.864 5 142323423.736 5      -418.543 5        31.905               
G15  22499078.318 7 118233451.023 7     -1099.161 7        45.716               
G18  23391056.701 7 122920838.860 7      -435.324 7        45.515               
G23  23659708.009 7 124332638.147 7      2412.123 7        42.562               
G24  22460421.760 7 118030280.720 7      1614.338 7        47.731               
> 2025 08 06 06 05 23.0000000  0  7                                             
G05  24937171.591 8 131045723.692 8     -2688.953 8        49.227               
G13  24667076.252 7 129626389.843 7     -2803.354 7        43.556               
G14  27083342.459 5 142323842.206 5      -418.333 5        31.497               
G15  22499288.029 7 118234550.285 7     -1099.470 7        45.678               
G18  23391138.935 7 122921274.520 7      -436.250 7        45.446               
G23  23659249.972 7 124330226.107 7      2411.706 7        42.775               
G24  22460112.519 7 118028666.680 7      1613.754 7        47.923               
> 2025 08 06 06 05 24.0000000  0  7                                             
G05  24937683.502 8 131048412.740 8     -2689.291 8        49.159               
G13  24667612.590 7 129629193.286 7     -2803.687 7        43.413               
G14  27083416.133 5 142324261.220 5      -419.365 5        30.968               
G15  22499496.721 7 118235649.842 7     -1099.727 7        45.602               
G18  23391221.365 7 122921710.854 7      -436.723 7        45.499               
G23  23658794.151 7 124327814.273 7      2411.759 7        42.848               
G24  22459804.779 7 118027053.270 7      1613.092 7        47.950               
> 2025 08 06 06 05 25.0000000  0  7                                             
G05  24938195.575 8 131051102.134 8     -2689.504 8        49.006               
G13  24668148.375 7 129631996.866 7     -2803.545 7        43.329               
G14  27083493.184 4 142324680.739 4      -420.421 4        29.828               
G15  22499707.022 7 118236749.758 7     -1099.984 7        45.489               
G18  23391303.223 7 122922147.939 7      -437.372 7        45.615               
G23  23658335.972 7 124325402.709 7      2411.381 7        42.904               
G24  22459497.306 8 118025440.562 8      1612.471 8        48.043               
> 2025 08 06 06 05 26.0000000  0  7                                             
G05  24938708.934 8 131053791.787 8     -2689.833 8        49.134               
G13  24668681.390 7 129634800.475 7     -2803.644 7        43.328               
G14  27083562.230 4 142325100.765 4      -419.814 4        29.132               
G15  22499916.929 7 118237849.920 7     -1100.254 7        45.510               
G18  23391385.402 7 122922585.666 7      -437.935 7        45.737               
G23  23657874.379 7 124322991.313 7      2411.481 7        42.865               
G24  22459189.941 8 118023828.445 8      1611.825 8        48.108               
> 2025 08 06 06 05 27.0000000  0  7                                             
G05  24939221.686 8 131056481.740 8     -2690.113 8        48.957               
G13  24669216.657 7 129637604.173 7     -2803.979 7        43.383               
G14  27083649.199 4 142325521.323 4      -423.853 4        27.550               
G15  22500127.802 7 118238950.403 7     -1100.593 7        45.412               
G18  23391469.404 7 122923024.091 7      -438.978 7        45.478               
G23  23657415.128 7 124320580.143 7      2411.162 7        42.927               
G24  22458883.130 7 118022216.977 7      1611.297 7        47.787               
> 2025 08 06 06 05 28.0000000  0  7                                             
G05  24939733.812 8 131059172.007 8     -2690.606 8        49.131               
G13  24669750.154 7 129640407.962 7     -2804.196 7        43.597               
G14  27083703.270 4 142325942.512 4      -421.796 4        26.102               
G15  22500337.620 7 118240051.200 7     -1101.208 7        45.583               
G18  23391553.585 7 122923463.209 7      -439.548 7        45.372               
G23  23656957.609 7 124318169.200 7      2410.601 7        43.048               
G24  22458575.283 7 118020606.164 7      1610.419 7        47.807               
> 2025 08 06 06 05 29.0000000  0  7                                             
G05  24940244.848 8 131061862.613 8     -2690.748 8        48.986               
G13  24670285.278 7 129643211.867 7     -2803.936 7        43.672               
G14  27083796.832 4 142326364.278 4      -421.989 4        24.823               
G15  22500547.098 7 118241152.329 7     -1101.409 7        45.449               
G18  23391638.374 7 122923903.065 7      -440.250 7        45.549               
G23  23656500.359 7 124315758.513 7      2410.507 7        42.953               
G24  22458267.703 7 118018996.030 7      1609.745 7        47.779               
> 2025 08 06 06 05 30.0000000  0  6                                             
G05  24940755.295 8 131064553.530 8     -2691.005 8        48.854               
G13  24670820.366 7 129646015.856 7     -2804.237 7        43.741               
G15  22500756.362 7 118242253.786 7     -1101.711 7        45.761               
G18  23391721.679 7 122924343.623 7      -440.984 7        45.666               
G23  23656042.947 7 124313348.065 7      2410.283 7        42.898               
G24  22457960.624 7 118017386.560 7      1609.094 7        47.761               
> 2025 08 06 06 05 31.0000000  0  6                                             
G05  24941266.956 8 131067244.761 8     -2691.356 8        48.778               
G13  24671353.828 7 129648819.923 7     -2803.864 7        43.503               
G15  22500966.288 7 118243355.553 7     -1101.881 7        45.953               
G18  23391806.414 7 122924784.887 7      -441.479 7        45.746               
G23  23655580.854 7 124310937.827 7      2410.439 7        42.853               
G24  22457654.027 7 118015777.727 7      1608.684 7        47.874               
> 2025 08 06 06 05 32.0000000  0  6                                             
G05  24941780.583 8 131069936.330 8     -2691.716 8        48.649               
G13  24671886.539 7 129651624.115 7     -2804.173 7        43.391               
G15  22501176.481 7 118244457.650 7     -1102.246 7        46.041               
G18  23391891.042 7 122925226.872 7      -442.459 7        45.945               
G23  23655121.835 7 124308527.852 7      2409.779 7        43.002               
G24  22457349.343 8 118014169.580 8      1607.926 8        48.017               
> 2025 08 06 06 05 33.0000000  0  6                                             
G05  24942292.674 8 131072628.151 8     -2691.856 8        48.819               
G13  24672417.142 7 129654428.331 7     -2804.113 7        43.464               
G15  22501385.388 7 118245560.012 7     -1102.557 7        45.861               
G18  23391976.295 7 122925669.492 7      -442.935 7        45.991               
G23  23654663.691 7 124306118.045 7      2409.772 7        43.169               
G24  22457045.873 7 118012562.036 7      1607.280 7        47.992               
> 2025 08 06 06 05 34.0000000  0  6                                             
G05  24942804.729 8 131075320.355 8     -2692.361 8        48.733               
G13  24672948.227 7 129657232.702 7     -2804.246 7        43.411               
G15  22501593.812 7 118246662.752 7     -1103.051 7        45.528               
G18  23392060.815 7 122926112.882 7      -443.884 7        46.094               
G23  23654205.958 7 124303708.531 7      2409.452 7        42.914               
G24  22456741.135 8 118010955.206 8      1606.539 8        48.019               
> 2025 08 06 06 05 35.0000000  0  6                                             
G05  24943317.194 8 131078012.873 8     -2692.665 8        48.682               
G13  24673483.011 7 129660037.190 7     -2804.584 7        43.426               
G15  22501802.343 7 118247765.830 7     -1103.292 7        45.525               
G18  23392145.265 7 122926556.995 7      -444.412 7        45.982               
G23  23653746.689 7 124301299.264 7      2409.255 7        43.033               
G24  22456435.610 8 118009349.050 8      1605.813 8        48.035               
> 2025 08 06 06 05 36.0000000  0  6                                             
G05  24943830.017 8 131080705.720 8     -2693.028 8        48.603               
G13  24674017.223 7 129662841.770 7     -2804.766 7        43.389               
G15  22502013.680 7 118248869.237 7     -1103.648 7        45.861               
G18  23392230.142 7 122927001.830 7      -445.159 7        46.040               
G23  23653287.669 7 124298890.246 7      2408.867 7        43.197               
G24  22456129.282 7 118007743.580 7      1605.138 7        47.903               
> 2025 08 06 06 05 37.0000000  0  6                                             
G05  24944343.555 8 131083398.893 8     -2693.361 8        48.578               
G13  24674551.543 7 129665646.466 7     -2804.680 7        43.529               
G15  22502224.052 7 118249972.990 7     -1103.854 7        45.898               
G18  23392314.931 7 122927447.380 7      -446.088 7        46.015               
G23  23652830.222 7 124296481.478 7      2408.849 7        43.311               
G24  22455823.149 7 118006138.772 7      1604.567 7        47.844               
> 2025 08 06 06 05 38.0000000  0  6                                             
G05  24944857.629 8 131086092.378 8     -2693.599 8        48.645               
G13  24675086.059 7 129668451.245 7     -2804.677 7        43.580               
G15  22502433.299 7 118251077.035 7     -1104.319 7        45.818               
G18  23392398.451 7 122927893.634 7      -446.503 7        45.860               
G23  23652371.185 7 124294072.942 7      2408.539 7        43.447               
G24  22455516.928 7 118004534.627 7      1603.919 7        47.613               
> 2025 08 06 06 05 39.0000000  0  6                                             
G05  24945370.399 8 131088786.160 8     -2693.881 8        48.794               
G13  24675620.521 7 129671256.105 7     -2804.733 7        43.546               
G15  22502645.565 7 118252181.392 7     -1104.561 7        45.835               
G18  23392482.096 7 122928340.571 7      -447.281 7        45.922               
G23  23651914.024 7 124291664.621 7      2408.193 7        43.445               
G24  22455210.707 7 118002931.124 7      1603.178 7        47.290               
> 2025 08 06 06 05 40.0000000  0  6                                             
G05  24945882.221 8 131091480.277 8     -2694.227 8        48.730               
G13  24676153.447 7 129674061.072 7     -2805.005 7        43.580               
G15  22502855.526 7 118253286.098 7     -1104.774 7        45.936               
G18  23392564.508 7 122928788.253 7      -447.898 7        46.289               
G23  23651454.718 7 124289256.559 7      2407.841 7        43.555               
G24  22454906.254 7 118001328.303 7      1602.337 7        47.361               
> 2025 08 06 06 05 41.0000000  0  6                                             
G05  24946394.955 8 131094174.660 8     -2694.566 8        48.894               
G13  24676685.176 7 129676866.082 7     -2804.929 7        43.335               
G15  22503065.844 7 118254391.067 7     -1105.141 7        45.963               
G18  23392649.082 7 122929236.577 7      -448.742 7        46.178               
G23  23650995.610 7 124286848.674 7      2407.795 7        43.616               
G24  22454601.980 7 117999726.094 7      1601.832 7        47.525               
> 2025 08 06 06 05 42.0000000  0  6                                             
G05  24946908.689 8 131096869.300 8     -2694.856 8        49.067               
G13  24677218.030 7 129679671.121 7     -2805.480 7        43.456               
G15  22503274.447 7 118255496.286 7     -1105.535 7        45.943               
G18  23392735.389 7 122929685.538 7      -449.361 7        46.261               
G23  23650539.896 7 124284440.959 7      2407.452 7        43.696               
G24  22454297.564 7 117998124.468 7      1601.048 7        47.411               
> 2025 08 06 06 05 43.0000000  0  6                                             
G05  24947421.066 8 131099564.202 8     -2695.121 8        49.233               
G13  24677751.456 7 129682476.195 7     -2804.876 7        43.505               
G15  22503485.337 7 118256601.782 7     -1105.503 7        45.866               
G18  23392824.663 7 122930135.162 7      -449.861 7        46.348               
G23  23650081.448 7 124282033.427 7      2407.436 7        43.822               
G24  22453991.503 7 117996523.463 7      1600.796 7        47.319               
> 2025 08 06 06 05 44.0000000  0  6                                             
G05  24947933.603 8 131102259.420 8     -2695.252 8        49.366               
G13  24678286.079 7 129685281.361 7     -2805.060 7        43.303               
G15  22503695.781 7 118257707.584 7     -1105.755 7        45.786               
G18  23392911.238 7 122930585.488 7      -450.604 7        46.364               
G23  23649623.394 7 124279626.127 7      2407.191 7        43.881               
G24  22453687.551 7 117994923.102 7      1600.199 7        47.292               
> 2025 08 06 06 05 45.0000000  0  6                                             
G05  24948446.158 8 131104954.924 8     -2695.708 8        49.576               
G13  24678821.060 7 129688086.593 7     -2805.179 7        43.446               
G15  22503905.420 7 118258813.685 7     -1106.427 7        45.598               
G18  23392998.385 7 122931036.489 7      -451.330 7        46.595               
G23  23649168.180 7 124277219.034 7      2406.812 7        43.702               
G24  22453383.295 7 117993323.383 7      1599.390 7        47.572               
> 2025 08 06 06 05 46.0000000  0  6                                             
G05  24948960.178 8 131107650.717 8     -2696.025 8        49.643               
G13  24679353.896 7 129690891.895 7     -2805.595 7        43.435               
G15  22504115.453 7 118259920.086 7     -1106.552 7        45.410               
G18  23393086.104 7 122931488.172 7      -451.965 7        46.511               
G23  23648710.501 7 124274812.155 7      2406.711 7        43.810               
G24  22453080.076 7 117991724.301 7      1598.705 7        47.463               
> 2025 08 06 06 05 47.0000000  0  6                                             
G05  24949472.680 8 131110346.782 8     -2696.243 8        49.670               
G13  24679887.519 7 129693697.248 7     -2805.466 7        43.388               
G15  22504325.342 7 118261026.759 7     -1106.944 7        45.257               
G18  23393173.037 7 122931940.519 7      -452.568 7        46.399               
G23  23648251.660 7 124272405.457 7      2406.344 7        44.112               
G24  22452777.625 7 117990125.822 7      1598.212 7        47.402               
> 2025 08 06 06 05 48.0000000  0  6                                             
G05  24949985.806 8 131113043.202 8     -2696.503 8        49.676               
G13  24680422.428 7 129696502.740 7     -2805.374 7        43.321               
G15  22504533.695 7 118262133.796 7     -1107.017 7        45.324               
G18  23393258.755 7 122932393.620 7      -453.437 7        46.422               
G23  23647792.748 7 124269999.051 7      2406.343 7        44.133               
G24  22452474.977 7 117988528.066 7      1597.447 7        47.536               
> 2025 08 06 06 05 49.0000000  0  6                                             
G05  24950498.344 8 131115739.902 8     -2696.968 8        49.684               
G13  24680957.355 7 129699308.260 7     -2805.490 7        43.172               
G15  22504744.228 7 118263241.090 7     -1107.478 7        45.449               
G18  23393343.097 7 122932847.364 7      -454.186 7        46.237               
G23  23647335.623 7 124267592.819 7      2406.151 7        44.219               
G24  22452170.400 7 117986930.903 7      1596.745 7        47.611               
> 2025 08 06 06 05 50.0000000  0  6                                             
G05  24951011.310 8 131118436.943 8     -2697.142 8        49.674               
G13  24681491.514 7 129702113.903 7     -2805.654 7        43.163               
G15  22504954.618 7 118264348.725 7     -1107.723 7        45.559               
G18  23393428.100 7 122933301.836 7      -454.841 7        46.060               
G23  23646877.586 7 124265186.836 7      2406.176 7        44.228               
G24  22451866.876 7 117985334.425 7      1596.140 7        47.487               
> 2025 08 06 06 05 51.0000000  0  6                                             
G05  24951525.902 8 131121134.247 8     -2697.671 8        49.364               
G13  24682025.101 7 129704919.597 7     -2806.057 7        43.314               
G15  22505164.186 7 118265456.639 7     -1108.222 7        45.845               
G18  23393515.068 7 122933756.976 7      -455.635 7        45.970               
G23  23646418.727 7 124262781.055 7      2405.752 7        44.385               
G24  22451561.495 7 117983738.564 7      1595.361 7        47.589               
> 2025 08 06 06 05 52.0000000  0  6                                             
G05  24952038.957 8 131123831.880 8     -2697.775 8        49.241               
G13  24682558.080 7 129707725.402 7     -2805.933 7        43.354               
G15  22505372.306 7 118266564.896 7     -1108.389 7        45.712               
G18  23393602.823 7 122934212.840 7      -456.102 7        45.858               
G23  23645960.333 7 124260375.528 7      2405.462 7        44.453               
G24  22451256.095 7 117982143.386 7      1594.822 7        47.377               
> 2025 08 06 06 05 53.0000000  0  6                                             
G05  24952551.870 8 131126529.778 8     -2698.146 8        49.455               
G13  24683092.400 7 129710531.245 7     -2806.129 7        43.310               
G15  22505583.500 7 118267673.417 7     -1108.993 7        45.459               
G18  23393688.612 7 122934669.356 7      -456.985 7        46.086               
G23  23645503.011 7 124257970.181 7      2405.062 7        44.639               
G24  22450953.876 7 117980548.812 7      1594.155 7        47.445               
> 2025 08 06 06 05 54.0000000  0  6                                             
G05  24953065.783 8 131129228.009 8     -2698.386 8        49.337               
G13  24683628.739 7 129713337.206 7     -2805.911 7        43.224               
G15  22505792.496 7 118268782.284 7     -1108.902 7        45.143               
G18  23393774.580 7 122935126.601 7      -457.437 7        45.999               
G23  23645044.635 7 124255565.091 7      2404.936 7        44.656               
G24  22450649.156 7 117978954.927 7      1593.576 7        47.459               
> 2025 08 06 06 05 55.0000000  0  6                                             
G05  24953579.785 8 131131926.525 8     -2698.672 8        49.288               
G13  24684163.540 7 129716143.220 7     -2806.096 7        43.421               
G15  22506005.763 7 118269891.445 7     -1109.261 7        44.912               
G18  23393860.887 7 122935584.529 7      -458.201 7        46.185               
G23  23644585.491 7 124253160.219 7      2404.836 7        44.537               
G24  22450346.205 7 117977361.676 7      1592.983 7        47.465               
> 2025 08 06 06 05 56.0000000  0  6                                             
G05  24954093.591 8 131134625.381 8     -2699.015 8        49.369               
G13  24684699.093 7 129718949.366 7     -2806.338 7        43.450               
G15  22506219.566 7 118271000.935 7     -1109.601 7        44.691               
G18  23393946.373 7 122936043.188 7      -459.116 7        46.126               
G23  23644128.741 7 124250755.606 7      2404.529 7        44.503               
G24  22450043.861 7 117975769.121 7      1592.234 7        47.567               
> 2025 08 06 06 05 57.0000000  0  6                                             
G05  24954606.486 8 131137324.480 8     -2699.137 8        49.293               
G13  24685233.395 7 129721755.537 7     -2806.149 7        43.625               
G15  22506432.422 7 118272110.698 7     -1109.824 7        44.603               
G18  23394033.591 7 122936502.493 7      -459.463 7        46.128               
G23  23643669.739 7 124248351.168 7      2404.355 7        44.762               
G24  22449742.107 8 117974177.152 8      1591.738 8        48.062               
> 2025 08 06 06 05 58.0000000  0  6                                             
G05  24955118.987 8 131140023.833 8     -2699.462 8        49.297               
G13  24685767.893 7 129724561.745 7     -2806.300 7        43.992               
G15  22506644.545 7 118273220.714 7     -1110.090 7        44.846               
G18  23394120.935 7 122936962.450 7      -460.358 7        46.147               
G23  23643213.025 7 124245946.911 7      2404.010 7        44.974               
G24  22449440.585 8 117972585.789 8      1590.995 8        48.047               
> 2025 08 06 06 05 59.0000000  0  6                                             
G05  24955633.722 8 131142723.522 8     -2699.771 8        49.416               
G13  24686303.392 7 129727368.073 7     -2806.327 7        44.284               
G15  22506857.597 7 118274331.073 7     -1110.425 7        45.059               
G18  23394209.047 7 122937423.136 7      -461.189 7        46.179               
G23  23642754.416 7 124243542.911 7      2403.991 7        45.084               
G24  22449136.150 8 117970995.104 8      1590.318 8        48.072               
> 2025 08 06 06 06 00.0000000  0  6                                             
G05  24956147.742 8 131145423.493 8     -2700.261 8        49.320               
G13  24686836.443 7 129730174.460 7     -2806.275 7        44.560               
G15  22507069.381 7 118275441.725 7     -1110.918 7        45.098               
G18  23394298.535 7 122937884.494 7      -461.745 7        46.165               
G23  23642297.166 7 124241139.116 7      2403.739 7        45.178               
G24  22448833.967 8 117969405.055 8      1589.524 8        48.121               
> 2025 08 06 06 06 01.0000000  0  6                                             
G05  24956661.155 8 131148123.782 8     -2700.496 8        49.394               
G13  24687369.315 7 129732980.923 7     -2806.476 7        44.627               
G15  22507280.271 7 118276552.690 7     -1111.135 7        45.375               
G18  23394387.470 7 122938346.557 7      -462.478 7        46.280               
G23  23641840.398 7 124238735.551 7      2403.575 7        45.264               
G24  22448532.606 8 117967815.653 8      1589.048 8        48.068               
> 2025 08 06 06 06 02.0000000  0  6                                             
G05  24957174.765 8 131150824.344 8     -2700.737 8        49.640               
G13  24687901.901 7 129735787.445 7     -2806.469 7        44.595               
G15  22507493.270 7 118277663.928 7     -1111.457 7        45.682               
G18  23394476.368 7 122938809.277 7      -463.113 7        46.412               
G23  23641384.237 7 124236332.182 7      2403.158 7        45.288               
G24  22448230.905 7 117966226.864 7      1588.405 7        47.958               
> 2025 08 06 06 06 03.0000000  0  6                                             
G05  24957688.231 8 131153525.179 8     -2700.855 8        49.717               
G13  24688435.541 7 129738594.020 7     -2806.397 7        44.453               
G15  22507705.411 7 118278775.447 7     -1111.529 7        45.637               
G18  23394565.820 7 122939272.655 7      -463.670 7        46.479               
G23  23640928.988 7 124233929.000 7      2403.105 7        45.056               
G24  22447928.740 8 117964638.709 8      1587.937 8        48.096               
> 2025 08 06 06 06 04.0000000  0  6                                             
G05  24958203.180 8 131156226.318 8     -2701.290 8        49.528               
G13  24688969.021 7 129741400.672 7     -2806.702 7        44.473               
G15  22507918.177 7 118279887.268 7     -1112.052 7        45.515               
G18  23394654.343 7 122939736.737 7      -464.265 7        46.618               
G23  23640470.415 7 124231526.052 7      2402.778 7        45.155               
G24  22447627.111 8 117963051.190 8      1587.233 8        48.078               
> 2025 08 06 06 06 05.0000000  0  6                                             
G05  24958717.558 8 131158927.730 8     -2701.599 8        49.431               
G13  24689503.090 7 129744207.387 7     -2806.856 7        44.348               
G15  22508128.496 7 118280999.380 7     -1112.410 7        45.802               
G18  23394741.634 7 122940201.487 7      -465.189 7        46.857               
G23  23640014.076 7 124229123.305 7      2402.703 7        45.246               
G24  22447324.892 7 117961464.307 7      1586.395 7        47.893               
> 2025 08 06 06 06 06.0000000  0  7                                             
G05  24959230.935 8 131161629.399 8     -2701.913 8        49.192               
G13  24690037.571 7 129747014.137 7     -2807.011 7        44.371               
G15  22508339.422 7 118282111.764 7     -1112.540 7        45.869               
G18  23394829.013 7 122940666.899 7      -465.641 7        46.663               
G22  26906075.068 7 141392381.846 7       171.089 7        42.982               
G23  23639558.130 7 124226720.743 7      2402.211 7        45.385               
G24  22447022.959 7 117959878.031 7      1585.930 7        47.763               
> 2025 08 06 06 06 07.0000000  0  7                                             
G05  24959745.277 8 131164331.477 8     -2702.144 8        49.206               
G13  24690572.659 7 129749821.064 7     -2806.797 7        44.346               
G15  22508549.401 7 118283224.562 7     -1112.856 7        45.846               
G18  23394917.000 7 122941133.103 7      -466.428 7        46.576               
G22  26906040.634 7 141392211.189 7       170.604 7        42.914               
G23  23639099.182 7 124224318.504 7      2402.010 7        45.513               
G24  22446721.027 7 117958292.508 7      1585.321 7        47.777               
> 2025 08 06 06 06 08.0000000  0  7                                             
G05  24960259.155 8 131167033.824 8     -2702.446 8        49.110               
G13  24691108.032 7 129752628.043 7     -2807.014 7        44.529               
G15  22508760.845 7 118284337.623 7     -1113.169 7        45.620               
G18  23395005.327 7 122941599.973 7      -467.108 7        46.434               
G22  26906007.112 7 141392041.024 7       170.124 7        42.806               
G23  23638643.147 7 124221916.462 7      2401.891 7        45.466               
G24  22446419.058 7 117956707.606 7      1584.624 7        47.746               
> 2025 08 06 06 06 09.0000000  0  7                                             
G05  24960773.586 8 131169736.415 8     -2702.682 8        48.932               
G13  24691643.192 7 129755435.053 7     -2807.103 7        44.849               
G15  22508972.253 7 118285450.947 7     -1113.499 7        45.621               
G18  23395093.957 7 122942067.487 7      -467.837 7        46.390               
G22  26905976.431 7 141391871.325 7       169.498 7        42.619               
G23  23638186.129 7 124219514.585 7      2401.690 7        45.467               
G24  22446116.625 7 117955123.298 7      1583.974 7        47.683               
> 2025 08 06 06 06 10.0000000  0  7                                             
G05  24961288.911 8 131172439.313 8     -2703.087 8        48.985               
G13  24692176.028 7 129758242.146 7     -2807.059 7        44.883               
G15  22509183.215 7 118286564.584 7     -1113.771 7        45.468               
G18  23395184.321 7 122942535.695 7      -468.604 7        46.428               
G22  26905946.250 7 141391702.153 7       168.892 7        42.567               
G23  23637730.183 7 124217112.948 7      2401.496 7        45.512               
G24  22445814.656 7 117953539.657 7      1583.298 7        47.874               
> 2025 08 06 06 06 11.0000000  0  7                                             
G05  24961803.020 8 131175142.555 8     -2703.302 8        48.959               
G13  24692707.524 7 129761049.357 7     -2806.987 7        44.839               
G15  22509396.214 7 118287678.560 7     -1114.114 7        45.532               
G18  23395275.185 7 122943004.626 7      -469.229 7        46.411               
G22  26905914.104 7 141391533.518 7       168.414 7        42.331               
G23  23637270.663 7 124214711.571 7      2401.466 7        45.700               
G24  22445512.419 7 117951956.680 7      1582.852 7        47.952               
> 2025 08 06 06 06 12.0000000  0  7                                             
G05  24962316.379 8 131177846.077 8     -2703.725 8        49.002               
G13  24693240.129 7 129763856.610 7     -2807.314 7        44.717               
G15  22509609.212 7 118288792.814 7     -1114.442 7        45.547               
G18  23395365.548 7 122943474.225 7      -469.974 7        46.316               
G22  26905880.635 7 141391365.395 7       167.923 7        42.195               
G23  23636814.002 7 124212310.381 7      2401.122 7        45.580               
G24  22445210.201 7 117950374.345 7      1581.950 7        47.909               
> 2025 08 06 06 06 13.0000000  0  7                                             
G05  24962830.829 8 131180549.873 8     -2703.869 8        48.905               
G13  24693773.036 7 129766663.926 7     -2807.309 7        44.568               
G15  22509823.587 7 118289907.354 7     -1114.584 7        45.614               
G18  23395454.804 7 122943944.502 7      -470.633 7        46.383               
G22  26905850.937 7 141391197.751 7       167.424 7        42.027               
G23  23636355.930 7 124209909.399 7      2400.953 7        45.632               
G24  22444907.678 7 117948792.632 7      1581.368 7        47.652               
> 2025 08 06 06 06 14.0000000  0  7                                             
G05  24963345.564 8 131183253.975 8     -2704.516 8        48.782               
G13  24694307.928 7 129769471.316 7     -2807.596 7        44.632               
G15  22510037.872 7 118291022.203 7     -1115.192 7        45.665               
G18  23395544.703 7 122944415.473 7      -471.410 7        46.446               
G22  26905822.007 6 141391030.634 6       166.708 6        41.795               
G23  23635899.305 7 124207508.644 7      2400.497 7        45.584               
G24  22444606.156 7 117947211.565 7      1580.561 7        47.519               
> 2025 08 06 06 06 15.0000000  0  7                                             
G05  24963860.495 8 131185958.364 8     -2704.416 8        48.568               
G13  24694840.478 7 129772278.793 7     -2807.452 7        44.617               
G15  22510248.548 7 118292137.352 7     -1115.272 7        45.704               
G18  23395633.995 7 122944887.127 7      -471.862 7        46.405               
G22  26905790.968 6 141390864.036 6       166.536 6        41.759               
G23  23635442.716 7 124205108.111 7      2400.534 7        45.856               
G24  22444305.742 7 117945631.142 7      1580.027 7        47.218               
> 2025 08 06 06 06 16.0000000  0  7                                             
G05  24964373.872 8 131188662.997 8     -2704.810 8        48.663               
G13  24695377.049 7 129775086.289 7     -2807.601 7        44.389               
G15  22510458.116 7 118293252.753 7     -1115.832 7        45.634               
G18  23395725.288 7 122945359.424 7      -472.728 7        46.227               
G22  26905762.021 6 141390697.890 6       165.758 6        41.558               
G23  23634984.733 7 124202707.740 7      2400.449 7        45.788               
G24  22444005.507 7 117944051.313 7      1579.396 7        47.247               
> 2025 08 06 06 06 17.0000000  0  7                                             
G05  24964889.251 8 131191367.975 8     -2705.075 8        48.690               
G13  24695912.423 7 129777893.903 7     -2807.688 7        44.525               
G15  22510668.202 7 118294368.508 7     -1115.877 7        45.658               
G18  23395815.669 7 122945832.454 7      -473.414 7        46.389               
G22  26905729.052 6 141390532.307 6       165.664 6        41.581               
G23  23634529.341 7 124200307.644 7      2400.067 7        45.548               
G24  22443706.469 7 117942472.173 7      1578.728 7        47.106               
> 2025 08 06 06 06 18.0000000  0  7                                             
G05  24965404.522 8 131194073.171 8     -2705.363 8        48.860               
G13  24696448.404 7 129780701.522 7     -2807.563 7        44.521               
G15  22510878.342 7 118295484.501 7     -1116.143 7        45.653               
G18  23395906.104 7 122946306.102 7      -474.005 7        46.374               
G22  26905695.351 6 141390367.167 6       164.940 6        41.692               
G23  23634074.538 7 124197907.696 7      2399.866 7        45.690               
G24  22443406.216 7 117940893.601 7      1578.228 7        47.017               
> 2025 08 06 06 06 19.0000000  0  7                                             
G05  24965918.739 8 131196778.664 8     -2705.575 8        48.653               
G13  24696982.974 7 129783509.199 7     -2807.800 7        44.377               
G15  22511090.072 7 118296600.795 7     -1116.273 7        45.564               
G18  23395995.556 7 122946780.427 7      -474.621 7        46.560               
G22  26905660.167 6 141390202.526 6       164.553 6        41.509               
G23  23633617.467 7 124195507.951 7      2399.725 7        45.710               
G24  22443106.213 7 117939315.664 7      1577.626 7        46.924               
> 2025 08 06 06 06 20.0000000  0  7                                             
G05  24966433.152 8 131199484.443 8     -2705.613 8        48.505               
G13  24697518.008 7 129786316.945 7     -2807.704 7        44.295               
G15  22511301.999 7 118297717.364 7     -1116.647 7        45.437               
G18  23396086.027 7 122947255.432 7      -475.231 7        46.663               
G22  26905625.233 6 141390038.397 6       164.004 6        41.529               
G23  23633160.323 7 124193108.424 7      2399.589 7        45.702               
G24  22442806.227 7 117937738.365 7      1577.088 7        46.928               
> 2025 08 06 06 06 21.0000000  0  7                                             
G05  24966948.441 8 131202190.500 8     -2706.154 8        48.661               
G13  24698054.794 7 129789124.757 7     -2807.844 7        44.403               
G15  22511515.766 7 118298834.225 7     -1117.103 7        45.159               
G18  23396175.033 7 122947731.116 7      -476.023 7        46.868               
G22  26905596.428 6 141389874.768 6       163.400 6        41.648               
G23  23632704.002 7 124190709.106 7      2399.182 7        45.868               
G24  22442506.314 7 117936161.699 7      1576.344 7        46.896               
> 2025 08 06 06 06 22.0000000  0  7                                             
G05  24967463.623 8 131204896.898 8     -2706.429 8        48.790               
G13  24698589.471 7 129791932.681 7     -2807.878 7        44.408               
G15  22511728.443 7 118299951.435 7     -1117.446 7        44.983               
G18  23396263.753 7 122948207.527 7      -476.781 7        46.672               
G22  26905565.372 6 141389711.706 6       162.951 6        41.465               
G23  23632247.520 7 124188310.052 7      2398.814 7        45.970               
G24  22442205.810 7 117934585.720 7      1575.619 7        47.101               
> 2025 08 06 06 06 23.0000000  0  7                                             
G05  24967979.788 8 131207603.596 8     -2706.940 8        48.889               
G13  24699121.628 7 129794740.689 7     -2807.982 7        44.511               
G15  22511940.727 7 118301068.947 7     -1117.778 7        44.941               
G18  23396354.027 7 122948684.633 7      -477.499 7        46.570               
G22  26905536.674 6 141389549.152 6       162.377 6        41.255               
G23  23631790.127 7 124185911.218 7      2398.780 7        46.129               
G24  22441906.379 7 117933010.387 7      1574.828 7        47.093               
> 2025 08 06 06 06 24.0000000  0  7                                             
G05  24968494.969 8 131210310.641 8     -2707.011 8        48.661               
G13  24699655.447 7 129797548.828 7     -2808.073 7        44.570               
G15  22512153.672 7 118302186.814 7     -1117.925 7        44.890               
G18  23396444.855 7 122949162.483 7      -478.027 7        46.233               
G22  26905506.797 6 141389387.168 6       161.748 6        41.116               
G23  23631334.341 7 124183512.654 7      2398.557 7        46.266               
G24  22441605.518 7 117931435.753 7      1574.517 7        47.113               
> 2025 08 06 06 06 25.0000000  0  7                                             
G05  24969010.151 8 131213017.932 8     -2707.277 8        48.795               
G13  24700189.767 7 129800356.979 7     -2808.224 7        44.433               
G15  22512365.509 7 118303304.934 7     -1118.208 7        44.865               
G18  23396537.649 7 122949640.962 7      -478.758 7        46.346               
G22  26905472.614 6 141389225.633 6       161.189 6        41.240               
G23  23630880.218 7 124181114.266 7      2398.430 7        46.451               
G24  22441305.051 7 117929861.713 7      1573.621 7        46.925               
> 2025 08 06 06 06 26.0000000  0  7                                             
G05  24969525.119 8 131215725.500 8     -2707.606 8        48.991               
G13  24700723.479 7 129803165.194 7     -2808.396 7        44.512               
G15  22512580.420 7 118304423.327 7     -1118.411 7        44.471               
G18  23396629.657 7 122950120.113 7      -479.615 7        46.502               
G22  26905440.503 6 141389064.608 6       160.874 6        41.214               
G23  23630422.771 7 124178716.072 7      2398.106 7        46.377               
G24  22441005.405 7 117928288.300 7      1573.149 7        46.863               
> 2025 08 06 06 06 27.0000000  0  7                                             
G05  24970042.838 8 131218433.354 8     -2708.089 8        48.846               
G13  24701257.209 7 129805973.486 7     -2808.304 7        44.925               
G15  22512794.169 7 118305542.019 7     -1118.995 7        44.390               
G18  23396720.753 7 122950599.947 7      -480.315 7        46.638               
G22  26905407.732 6 141388904.094 6       160.279 6        41.277               
G23  23629967.647 7 124176318.100 7      2397.825 7        46.510               
G24  22440705.402 7 117926715.529 7      1572.371 7        46.783               
> 2025 08 06 06 06 28.0000000  0  7                                             
G05  24970558.824 8 131221141.498 8     -2708.384 8        49.085               
G13  24701793.976 7 129808781.832 7     -2808.578 7        44.947               
G15  22513007.007 7 118306661.015 7     -1119.062 7        44.505               
G18  23396812.492 7 122951080.461 7      -480.942 7        46.584               
G22  26905378.587 6 141388744.076 6       159.662 6        41.217               
G23  23629511.790 7 124173920.340 7      2397.646 7        46.574               
G24  22440406.150 7 117925143.393 7      1571.819 7        46.668               
> 2025 08 06 06 06 29.0000000  0  7                                             
G05  24971073.523 8 131223849.901 8     -2708.624 8        49.130               
G13  24702329.833 7 129811590.210 7     -2808.620 7        44.925               
G15  22513221.149 7 118307780.266 7     -1119.531 7        44.782               
G18  23396903.071 7 122951561.622 7      -481.547 7        46.770               
G22  26905348.496 6 141388584.528 6       159.214 6        41.276               
G23  23629057.399 7 124171522.760 7      2397.232 7        46.942               
G24  22440108.434 7 117923571.855 7      1570.865 7        46.682               
> 2025 08 06 06 06 30.0000000  0  7                                             
G05  24971587.508 8 131226558.651 8     -2708.955 8        48.991               
G13  24702865.028 7 129814398.711 7     -2808.734 7        45.014               
G15  22513434.827 7 118308899.858 7     -1119.731 7        44.772               
G18  23396995.543 7 122952043.519 7      -482.355 7        46.570               
G22  26905320.334 6 141388425.552 6       158.716 6        41.252               
G23  23628600.256 7 124169125.451 7      2397.098 7        47.049               
G24  22439811.326 7 117922001.019 7      1570.481 7        46.486               
> 2025 08 06 06 06 31.0000000  0  7                                             
G05  24972102.296 8 131229267.658 8     -2709.182 8        49.030               
G13  24703396.971 7 129817207.250 7     -2808.528 7        44.907               
G15  22513646.861 7 118310019.724 7     -1120.072 7        44.951               
G18  23397088.783 7 122952526.069 7      -482.917 7        46.607               
G22  26905291.208 6 141388267.045 6       158.393 6        41.258               
G23  23628143.720 7 124166728.322 7      2396.960 7        47.020               
G24  22439514.843 7 117920430.791 7      1569.801 7        46.291               
> 2025 08 06 06 06 32.0000000  0  7                                             
G05  24972618.318 8 131231976.975 8     -2709.418 8        48.820               
G13  24703933.256 7 129820015.872 7     -2808.701 7        44.958               
G15  22513860.414 7 118311139.901 7     -1120.444 7        44.856               
G18  23397180.469 7 122953009.320 7      -483.595 7        46.780               
G22  26905258.615 6 141388109.056 6       157.730 6        41.386               
G23  23627687.202 7 124164331.429 7      2396.678 7        47.025               
G24  22439217.466 7 117918861.223 7      1569.231 7        46.583               
> 2025 08 06 06 06 33.0000000  0  7                                             
G05  24973133.410 8 131234686.565 8     -2709.837 8        48.788               
G13  24704470.381 7 129822824.554 7     -2808.884 7        45.215               
G15  22514075.074 7 118312260.371 7     -1120.536 7        44.696               
G18  23397271.298 7 122953493.249 7      -484.272 7        46.749               
G22  26905227.880 6 141387951.588 6       157.253 6        41.349               
G23  23627231.346 7 124161934.747 7      2396.570 7        47.120               
G24  22438917.642 7 117917292.287 7      1568.454 7        46.746               
> 2025 08 06 06 06 34.0000000  0  7                                             
G05  24973647.985 8 131237396.479 8     -2710.051 8        48.701               
G13  24705003.896 7 129825633.340 7     -2808.857 7        45.234               
G15  22514287.305 7 118313381.164 7     -1120.861 7        44.786               
G18  23397363.841 7 122953977.885 7      -485.080 7        46.733               
G22  26905197.538 6 141387794.640 6       156.500 6        41.240               
G23  23626775.167 7 124159538.310 7      2396.479 7        47.003               
G24  22438616.388 7 117915724.019 7      1567.904 7        46.750               
> 2025 08 06 06 06 35.0000000  0  7                                             
G05  24974162.648 8 131240106.663 8     -2710.299 8        48.672               
G13  24705537.662 7 129828442.169 7     -2808.895 7        45.247               
G15  22514500.518 7 118314502.229 7     -1121.167 7        44.977               
G18  23397454.741 7 122954463.191 7      -485.664 7        46.639               
G22  26905165.249 6 141387638.191 6       155.882 6        41.208               
G23  23626317.720 7 124157142.069 7      2396.033 7        46.861               
G24  22438316.510 7 117914156.370 7      1567.413 7        46.734               
> 2025 08 06 06 06 36.0000000  0  7                                             
G05  24974678.974 8 131242817.147 8     -2710.512 8        48.560               
G13  24706072.303 7 129831251.076 7     -2808.935 7        45.414               
G15  22514713.159 7 118315623.610 7     -1121.634 7        44.821               
G18  23397550.036 7 122954949.178 7      -486.378 7        46.513               
G22  26905131.744 6 141387482.251 6       155.660 6        40.982               
G23  23625862.168 7 124154746.047 7      2395.881 7        46.542               
G24  22438018.509 7 117912589.358 7      1566.697 7        46.618               
> 2025 08 06 06 06 37.0000000  0  7                                             
G05  24975193.923 8 131245527.865 8     -2710.729 8        48.551               
G13  24706606.551 7 129834059.981 7     -2808.640 7        45.130               
G15  22514923.764 7 118316745.231 7     -1121.656 7        44.832               
G18  23397642.419 7 122955435.798 7      -486.790 7        46.721               
G22  26905104.548 6 141387326.762 6       155.296 6        40.759               
G23  23625406.204 7 124152350.192 7      2395.672 7        46.383               
G24  22437722.312 7 117911022.941 7      1566.157 7        46.677               
> 2025 08 06 06 06 38.0000000  0  7                                             
G05  24975709.730 8 131248238.883 8     -2711.153 8        48.259               
G13  24707139.512 7 129836868.968 7     -2808.997 7        45.223               
G15  22515137.406 7 118317867.136 7     -1122.016 7        44.628               
G18  23397736.410 7 122955923.104 7      -487.604 7        46.598               
G22  26905075.957 6 141387171.791 6       154.710 6        40.581               
G23  23624950.633 7 124149954.559 7      2395.655 7        46.334               
G24  22437425.203 7 117909457.163 7      1565.725 7        46.393               
> 2025 08 06 06 06 39.0000000  0  7                                             
G05  24976226.538 8 131250950.179 8     -2711.417 8        48.050               
G13  24707672.992 7 129839678.019 7     -2809.123 7        45.265               
G15  22515351.065 7 118318989.345 7     -1122.354 7        44.467               
G18  23397829.883 7 122956411.084 7      -488.368 7        46.759               
G22  26905047.564 6 141387017.318 6       154.258 6        40.325               
G23  23624493.919 7 124147559.132 7      2395.197 7        46.493               
G24  22437129.632 7 117907892.025 7      1564.836 7        46.274               
> 2025 08 06 06 06 40.0000000  0  7                                             
G05  24976743.811 8 131253661.820 8     -2711.732 8        48.086               
G13  24708208.509 7 129842487.202 7     -2809.194 7        45.294               
G15  22515566.762 7 118320111.904 7     -1122.593 7        44.210               
G18  23397923.195 7 122956899.810 7      -488.993 7        46.557               
G22  26905017.508 6 141386863.424 6       153.954 6        40.383               
G23  23624038.098 7 124145163.988 7      2395.092 7        46.547               
G24  22436831.094 7 117906327.586 7      1564.184 7        46.214               
> 2025 08 06 06 06 41.0000000  0  7                                             
G05  24977260.708 8 131256373.698 8     -2712.135 8        48.114               
G13  24708744.865 7 129845296.389 7     -2809.207 7        45.259               
G15  22515779.868 7 118321234.710 7     -1122.989 7        44.462               
G18  23398015.757 7 122957389.159 7      -489.702 7        46.139               
G22  26904991.115 6 141386709.976 6       153.233 6        40.228               
G23  23623582.849 7 124142769.001 7      2394.768 7        46.622               
G24  22436530.698 7 117904763.721 7      1563.441 7        46.046               
> 2025 08 06 06 06 42.0000000  0  7                                             
G05  24977777.337 8 131259085.893 8     -2712.239 8        48.260               
G13  24709280.597 7 129848105.666 7     -2809.272 7        45.142               
G15  22515996.066 7 118322357.833 7     -1123.236 7        44.391               
G18  23398107.085 7 122957879.216 7      -490.348 7        46.399               
G22  26904961.721 6 141386557.067 6       152.983 6        40.000               
G23  23623126.474 7 124140374.258 7      2394.751 7        46.633               
G24  22436233.661 7 117903200.533 7      1562.998 7        46.241               
> 2025 08 06 06 06 43.0000000  0  7                                             
G05  24978294.467 8 131261798.372 8     -2712.642 8        48.298               
G13  24709812.950 7 129850915.003 7     -2809.353 7        44.949               
G15  22516211.798 7 118323481.248 7     -1123.413 7        44.546               
G18  23398198.182 7 122958369.953 7      -491.071 7        46.508               
G22  26904930.200 6 141386404.638 6       152.364 6        40.016               
G23  23622668.008 7 124137979.721 7      2394.307 7        46.532               
G24  22435936.339 7 117901637.963 7      1562.221 7        46.473               
> 2025 08 06 06 06 44.0000000  0  7                                             
G05  24978810.721 8 131264511.136 8     -2713.059 8        48.503               
G13  24710346.269 7 129853724.410 7     -2809.388 7        44.752               
G15  22516424.404 7 118324604.940 7     -1124.042 7        44.514               
G18  23398291.958 7 122958861.369 7      -491.791 7        46.568               
G22  26904901.949 6 141386252.730 6       151.362 6        39.869               
G23  23622212.991 7 124135585.410 7      2394.243 7        46.573               
G24  22435641.500 7 117900076.048 7      1561.346 7        46.641               
> 2025 08 06 06 06 45.0000000  0  7                                             
G05  24979328.207 8 131267224.248 8     -2713.159 8        48.545               
G13  24710880.785 7 129856533.927 7     -2809.718 7        44.866               
G15  22516638.243 7 118325728.994 7     -1124.211 7        44.630               
G18  23398384.931 7 122959353.520 7      -492.563 7        46.285               
G22  26904874.341 6 141386101.380 6       151.078 6        39.917               
G23  23621758.046 7 124133191.350 7      2393.947 7        46.512               
G24  22435345.231 7 117898514.819 7      1560.903 7        46.645               
> 2025 08 06 06 06 46.0000000  0  7                                             
G05  24979845.051 8 131269937.616 8     -2713.496 8        48.767               
G13  24711412.460 7 129859343.483 7     -2809.357 7        44.917               
G15  22516851.420 7 118326853.307 7     -1124.448 7        44.607               
G18  23398477.331 7 122959846.321 7      -493.141 7        45.989               
G22  26904848.699 6 141385950.499 6       150.559 6        40.033               
G23  23621303.851 7 124130797.482 7      2393.844 7        46.671               
G24  22435047.855 7 117896954.200 7      1560.431 7        46.468               
> 2025 08 06 06 06 47.0000000  0  7                                             
G05  24980360.537 8 131272651.263 8     -2713.664 8        48.839               
G13  24711946.154 7 129862153.094 7     -2809.486 7        44.748               
G15  22517064.365 7 118327977.911 7     -1124.632 7        44.386               
G18  23398571.608 7 122960339.791 7      -493.614 7        46.064               
G22  26904818.411 6 141385800.137 6       150.188 6        40.309               
G23  23620848.173 7 124128403.827 7      2393.653 7        46.510               
G24  22434749.853 7 117895394.206 7      1559.696 7        46.550               
> 2025 08 06 06 06 48.0000000  0  7                                             
G05  24980875.504 8 131275365.209 8     -2713.890 8        48.921               
G13  24712481.153 7 129864962.788 7     -2809.643 7        44.736               
G15  22517278.811 7 118329102.819 7     -1124.680 7        44.403               
G18  23398664.992 7 122960833.954 7      -494.319 7        45.931               
G22  26904788.052 6 141385650.283 6       149.753 6        40.225               
G23  23620392.335 7 124126010.393 7      2393.480 7        46.453               
G24  22434452.137 7 117893834.868 7      1559.191 7        46.733               
> 2025 08 06 06 06 49.0000000  0  8                                             
G05  24981390.793 8 131278079.421 8     -2714.312 8        48.896               
G13  24713016.670 7 129867772.512 7     -2809.698 7        44.825               
G14  27090554.736 7 142359754.025 7      -464.246 7        43.895               
G15  22517491.489 7 118330227.990 7     -1125.283 7        44.498               
G18  23398759.716 7 122961328.774 7      -494.998 7        46.007               
G22  26904759.104 6 141385500.896 6       149.044 6        40.351               
G23  23619937.318 7 124123617.151 7      2393.083 7        46.564               
G24  22434154.386 7 117892276.131 7      1558.538 7        46.535               
> 2025 08 06 06 06 50.0000000  0  8                                             
G05  24981906.850 8 131280793.885 8     -2714.710 8        49.004               
G13  24713553.062 7 129870582.270 7     -2809.891 7        44.757               
G14  27090640.650 7 142360218.494 7      -464.619 7        43.628               
G15  22517703.755 7 118331353.417 7     -1125.774 7        44.478               
G18  23398854.636 7 122961824.237 7      -495.983 7        46.107               
G22  26904730.263 6 141385351.987 6       148.552 6        40.194               
G23  23619481.836 7 124121224.077 7      2392.863 7        46.445               
G24  22433857.957 7 117890718.009 7      1557.770 7        46.452               
> 2025 08 06 06 06 51.0000000  0  8                                             
G05  24982422.104 8 131283508.668 8     -2714.857 8        49.022               
G13  24714084.916 7 129873392.123 7     -2809.867 7        44.753               
G14  27090727.601 7 142360683.507 7      -465.315 7        43.801               
G15  22517916.914 7 118332479.171 7     -1125.833 7        44.463               
G18  23398948.073 7 122962320.408 7      -496.367 7        46.145               
G22  26904703.853 6 141385203.612 6       148.005 6        40.223               
G23  23619025.640 7 124118831.255 7      2392.805 7        46.514               
G24  22433562.028 7 117889160.542 7      1557.161 7        46.525               
> 2025 08 06 06 06 52.0000000  0  8                                             
G05  24982937.554 8 131286223.757 8     -2715.222 8        48.807               
G13  24714620.700 7 129876202.061 7     -2810.241 7        44.659               
G14  27090815.838 7 142361149.050 7      -465.765 7        43.671               
G15  22518131.521 7 118333605.234 7     -1126.123 7        44.426               
G18  23399043.386 7 122962817.274 7      -497.249 7        46.192               
G22  26904675.477 6 141385055.765 6       147.658 6        40.265               
G23  23618571.106 7 124116438.663 7      2392.505 7        46.589               
G24  22433265.742 7 117887603.735 7      1556.583 7        46.458               
> 2025 08 06 06 06 53.0000000  0  8                                             
G05  24983453.575 8 131288939.168 8     -2715.624 8        48.583               
G13  24715157.432 7 129879012.092 7     -2810.200 7        44.560               
G14  27090904.719 7 142361615.144 7      -466.330 7        43.665               
G15  22518345.002 7 118334731.613 7     -1126.499 7        44.451               
G18  23399138.968 7 122963314.852 7      -497.769 7        46.068               
G22  26904647.154 6 141384908.449 6       147.106 6        40.300               
G23  23618118.394 7 124114046.323 7      2392.367 7        46.794               
G24  22432969.437 7 117886047.598 7      1555.902 7        46.352               
> 2025 08 06 06 06 54.0000000  0  8                                             
G05  24983971.491 8 131291654.858 8     -2715.811 8        48.445               
G13  24715691.591 7 129881822.191 7     -2810.042 7        44.716               
G14  27090996.941 7 142362081.768 7      -466.853 7        43.612               
G15  22518560.467 7 118335858.295 7     -1126.752 7        44.593               
G18  23399234.263 7 122963813.105 7      -498.431 7        46.170               
G22  26904615.062 6 141384761.639 6       146.652 6        40.245               
G23  23617662.019 7 124111654.193 7      2392.053 7        46.744               
G24  22432672.972 7 117884492.090 7      1555.226 7        46.321               
> 2025 08 06 06 06 55.0000000  0  8                                             
G05  24984488.442 8 131294370.875 8     -2716.105 8        48.501               
G13  24716226.482 7 129884632.377 7     -2810.160 7        44.535               
G14  27091086.179 7 142362548.954 7      -467.325 7        43.547               
G15  22518773.645 7 118336985.303 7     -1127.119 7        44.867               
G18  23399330.899 7 122964312.077 7      -499.239 7        46.040               
G22  26904584.649 6 141384615.375 6       146.170 6        39.917               
G23  23617206.824 7 124109262.318 7      2391.754 7        46.718               
G24  22432376.686 7 117882937.257 7      1554.524 7        46.209               
> 2025 08 06 06 06 56.0000000  0  8                                             
G05  24985006.358 8 131297087.135 8     -2716.577 8        48.607               
G13  24716758.979 7 129887442.597 7     -2810.352 7        44.456               
G14  27091176.578 7 142363016.614 7      -468.033 7        43.534               
G15  22518988.162 7 118338112.558 7     -1127.367 7        44.848               
G18  23399426.052 7 122964811.686 7      -500.153 7        46.080               
G22  26904560.204 6 141384469.572 6       145.255 6        39.739               
G23  23616752.200 7 124106870.613 7      2391.589 7        46.688               
G24  22432081.133 7 117881383.022 7      1553.843 7        46.050               
> 2025 08 06 06 06 57.0000000  0  8                                             
G05  24985523.165 8 131299803.738 8     -2716.662 8        48.473               
G13  24717292.959 7 129890252.947 7     -2810.329 7        44.388               
G14  27091267.138 7 142363484.873 7      -468.547 7        43.667               
G15  22519201.161 7 118339240.164 7     -1127.962 7        45.087               
G18  23399520.954 7 122965312.036 7      -500.934 7        46.085               
G22  26904536.098 6 141384324.338 6       145.309 6        39.703               
G23  23616295.236 7 124104479.183 7      2391.414 7        46.780               
G24  22431786.490 7 117879829.488 7      1553.125 7        46.046               
> 2025 08 06 06 06 58.0000000  0  8                                             
G05  24986041.206 8 131302520.623 8     -2716.980 8        48.424               
G13  24717827.440 7 129893063.325 7     -2810.318 7        44.257               
G14  27091355.483 7 142363953.620 7      -469.031 7        43.668               
G15  22519418.555 7 118340368.050 7     -1128.010 7        44.956               
G18  23399617.804 7 122965813.042 7      -501.241 7        46.298               
G22  26904509.599 6 141384179.602 6       144.544 6        39.681               
G23  23615838.932 7 124102087.946 7      2391.129 7        46.715               
G24  22431493.724 7 117878276.566 7      1552.677 7        46.062               
> 2025 08 06 06 06 59.0000000  0  8                                             
G05  24986559.783 8 131305237.766 8     -2717.303 8        48.305               
G13  24718361.670 7 129895873.753 7     -2810.450 7        44.298               
G14  27091444.774 7 142364422.876 7      -469.498 7        43.563               
G15  22519636.718 7 118341496.204 7     -1128.353 7        44.775               
G18  23399712.152 7 122966314.706 7      -502.147 7        46.383               
G22  26904481.705 6 141384035.324 6       143.581 6        39.647               
G23  23615384.845 7 124099696.909 7      2390.844 7        46.632               
G24  22431200.869 7 117876724.266 7      1551.846 7        45.899               
> 2025 08 06 06 07 00.0000000  0  8                                             
G05  24987077.556 8 131307955.200 8     -2717.750 8        48.495               
G13  24718897.365 7 129898684.248 7     -2810.514 7        44.225               
G14  27091533.333 7 142364892.652 7      -470.050 7        43.951               
G15  22519852.737 7 118342624.652 7     -1128.711 7        44.628               
G18  23399807.502 7 122966817.057 7      -502.836 7        46.497               
G22  26904455.956 6 141383891.578 6       143.277 6        39.592               
G23  23614931.740 7 124097306.083 7      2390.549 7        46.502               
G24  22430908.317 7 117875172.624 7      1551.373 7        46.266               
> 2025 08 06 06 07 01.0000000  0  8                                             
G05  24987593.971 8 131310672.944 8     -2717.884 8        48.453               
G13  24719431.363 7 129901494.817 7     -2810.357 7        44.066               
G14  27091620.391 7 142365362.974 7      -470.504 7        43.951               
G15  22520068.863 7 118343753.414 7     -1129.092 7        44.667               
G18  23399902.029 7 122967320.101 7      -503.255 7        46.273               
G22  26904422.577 6 141383748.353 6       142.977 6        39.536               
G23  23614477.402 7 124094915.491 7      2390.482 7        46.213               
G24  22430615.122 7 117873621.642 7      1550.763 7        46.486               
> 2025 08 06 06 07 02.0000000  0  8                                             
G05  24988110.886 8 131313390.977 8     -2718.161 8        48.511               
G13  24719965.432 7 129904305.448 7     -2810.604 7        44.018               
G14  27091707.020 7 142365833.805 7      -471.262 7        43.866               
G15  22520283.202 7 118344882.457 7     -1129.240 7        44.844               
G18  23399996.985 7 122967823.828 7      -504.032 7        46.421               
G22  26904395.451 6 141383605.629 6       142.420 6        39.429               
G23  23614022.689 7 124092525.115 7      2390.094 7        46.351               
G24  22430318.425 7 117872071.285 7      1549.983 7        46.763               
> 2025 08 06 06 07 03.0000000  0  8                                             
G05  24988627.176 8 131316109.285 8     -2718.517 8        48.353               
G13  24720503.719 7 129907116.143 7     -2810.966 7        44.155               
G14  27091795.758 7 142366305.163 7      -471.752 7        44.028               
G15  22520495.682 7 118346011.799 7     -1129.734 7        44.735               
G18  23400092.137 7 122968328.227 7      -504.797 7        46.573               
G22  26904369.488 6 141383463.406 6       141.970 6        39.192               
G23  23613567.636 7 124090134.951 7      2389.835 7        46.285               
G24  22430020.405 7 117870521.556 7      1549.088 7        46.902               
> 2025 08 06 06 07 04.0000000  0  8                                             
G05  24989144.984 8 131318827.986 8     -2718.884 8        48.448               
G13  24721039.664 7 129909926.971 7     -2810.924 7        43.957               
G14  27091887.872 7 142366777.127 7      -472.271 7        43.962               
G15  22520710.754 7 118347141.509 7     -1129.760 7        44.778               
G18  23400187.397 7 122968833.370 7      -505.506 7        46.397               
G22  26904343.935 6 141383321.759 6       141.317 6        39.117               
G23  23613112.709 7 124087745.070 7      2389.842 7        46.259               
G24  22429723.476 7 117868972.540 7      1548.706 7        46.735               
> 2025 08 06 06 07 05.0000000  0  8                                             
G05  24989662.614 8 131321546.952 8     -2719.086 8        48.610               
G13  24721575.449 7 129912737.840 7     -2810.912 7        43.892               
G14  27091983.382 7 142367249.577 7      -472.841 7        44.003               
G15  22520926.737 7 118348271.488 7     -1130.105 7        44.865               
G18  23400285.015 7 122969339.177 7      -506.200 7        46.264               
G22  26904314.255 6 141383180.598 6       140.770 6        38.944               
G23  23612657.782 7 124085355.383 7      2389.693 7        46.308               
G24  22429427.207 7 117867424.131 7      1548.092 7        46.439               
> 2025 08 06 06 07 06.0000000  0  8                                             
G05  24990178.939 8 131324266.260 8     -2719.394 8        48.561               
G13  24722109.679 7 129915548.823 7     -2811.049 7        43.882               
G14  27092075.426 7 142367722.610 7      -473.212 7        44.121               
G15  22521145.668 7 118349401.808 7     -1130.408 7        45.123               
G18  23400381.776 7 122969845.719 7      -506.721 7        46.186               
G22  26904284.735 6 141383040.009 6       140.152 6        38.995               
G23  23612202.318 7 124082965.977 7      2389.445 7        46.318               
G24  22429133.995 7 117865876.423 7      1547.363 7        46.295               
> 2025 08 06 06 07 07.0000000  0  8                                             
G05  24990696.623 8 131326985.835 8     -2719.706 8        48.570               
G13  24722645.018 7 129918359.847 7     -2810.991 7        43.968               
G14  27092163.359 7 142368196.141 7      -473.820 7        44.155               
G15  22521362.312 7 118350532.398 7     -1130.604 7        45.246               
G18  23400477.661 7 122970352.919 7      -507.519 7        45.969               
G22  26904259.629 6 141382899.895 6       139.762 6        38.934               
G23  23611747.266 7 124080576.754 7      2389.061 7        46.427               
G24  22428839.978 7 117864329.329 7      1546.708 7        46.085               
> 2025 08 06 06 07 08.0000000  0  8                                             
G05  24991212.716 8 131329705.756 8     -2720.078 8        48.741               
G13  24723182.571 7 129921171.011 7     -2811.294 7        44.105               
G14  27092251.453 7 142368670.261 7      -474.492 7        44.254               
G15  22521579.224 7 118351663.329 7     -1131.136 7        45.387               
G18  23400573.940 7 122970860.854 7      -508.361 7        45.845               
G22  26904236.292 6 141382760.342 6       139.300 6        39.122               
G23  23611293.035 7 124078187.814 7      2388.717 7        46.668               
G24  22428545.139 7 117862782.936 7      1546.007 7        45.970               
> 2025 08 06 06 07 09.0000000  0  8                                             
G05  24991731.650 8 131332425.935 8     -2720.480 8        48.686               
G13  24723715.551 7 129923982.213 7     -2811.237 7        44.158               
G14  27092341.478 7 142369144.873 7      -474.957 7        44.383               
G15  22521793.635 7 118352794.539 7     -1131.264 7        45.632               
G18  23400671.165 7 122971369.454 7      -508.893 7        46.018               
G22  26904210.847 6 141382621.292 6       138.570 6        39.236               
G23  23610839.269 7 124075799.065 7      2388.711 7        46.735               
G24  22428251.640 7 117861237.163 7      1545.439 7        45.824               
> 2025 08 06 06 07 10.0000000  0  8                                             
G05  24992249.816 8 131335146.375 8     -2720.548 8        48.719               
G13  24724250.174 7 129926793.460 7     -2811.219 7        44.073               
G14  27092431.573 7 142369619.993 7      -475.402 7        44.415               
G15  22522007.848 7 118353926.030 7     -1131.824 7        45.627               
G18  23400768.980 7 122971878.711 7      -509.472 7        46.072               
G22  26904184.365 6 141382482.732 6       138.502 6        39.261               
G23  23610386.325 7 124073410.519 7      2388.446 7        46.777               
G24  22427957.534 7 117859691.998 7      1544.824 7        46.026               
> 2025 08 06 06 07 11.0000000  0  8                                             
G05  24992766.016 8 131337867.109 8     -2720.951 8        48.568               
G13  24724784.458 7 129929604.771 7     -2811.598 7        44.088               
G14  27092519.971 7 142370095.630 7      -475.929 7        44.511               
G15  22522220.722 7 118355057.822 7     -1131.976 7        45.708               
G18  23400865.920 7 122972388.651 7      -510.386 7        45.959               
G22  26904158.133 6 141382344.675 6       137.628 6        39.288               
G23  23609931.791 7 124071022.189 7      2388.113 7        46.792               
G24  22427660.175 7 117858147.479 7      1544.216 7        46.118               
> 2025 08 06 06 07 12.0000000  0  8                                             
G05  24993284.147 8 131340588.216 8     -2721.200 8        48.389               
G13  24725317.848 7 129932416.240 7     -2811.450 7        43.851               
G14  27092610.246 7 142370571.880 7      -476.345 7        44.594               
G15  22522434.453 7 118356189.990 7     -1132.311 7        45.706               
G18  23400964.020 7 122972899.350 7      -511.121 7        46.121               
G22  26904132.223 6 141382207.214 6       137.161 6        39.411               
G23  23609478.704 7 124068634.164 7      2387.836 7        46.875               
G24  22427365.337 7 117856603.683 7      1543.487 7        45.948               
> 2025 08 06 06 07 13.0000000  0  8                                             
G05  24993802.366 8 131343309.516 8     -2721.505 8        48.383               
G13  24725849.612 7 129935227.661 7     -2811.440 7        43.824               
G14  27092701.163 7 142371048.553 7      -476.953 7        44.635               
G15  22522648.203 7 118357322.356 7     -1132.479 7        45.751               
G18  23401062.121 7 122973410.636 7      -511.575 7        45.934               
G22  26904107.617 6 141382070.151 6       137.197 6        39.567               
G23  23609023.758 7 124066246.256 7      2387.725 7        46.817               
G24  22427072.356 7 117855060.427 7      1542.969 7        45.951               
> 2025 08 06 06 07 14.0000000  0  8                                             
G05  24994322.158 8 131346031.108 8     -2721.647 8        48.424               
G13  24726383.575 7 129938039.161 7     -2811.467 7        43.877               
G14  27092791.169 7 142371525.748 7      -477.456 7        45.009               
G15  22522864.454 7 118358455.004 7     -1132.766 7        45.830               
G18  23401159.114 7 122973922.613 7      -512.160 7        45.961               
G22  26904080.885 6 141381933.598 6       136.490 6        39.678               
G23  23608569.170 7 124063858.569 7      2387.757 7        47.095               
G24  22426780.680 7 117853517.823 7      1542.312 7        46.150               
> 2025 08 06 06 07 15.0000000  0  8                                             
G05  24994840.360 8 131348752.963 8     -2722.194 8        48.463               
G13  24726922.326 7 129940850.707 7     -2811.853 7        44.024               
G14  27092885.768 7 142372003.461 7      -478.111 7        45.008               
G15  22523079.614 7 118359587.949 7     -1133.320 7        45.539               
G18  23401255.786 7 122974435.248 7      -513.175 7        46.067               
G22  26904053.617 6 141381797.538 6       135.338 6        39.605               
G23  23608114.493 7 124061471.089 7      2387.072 7        46.927               
G24  22426488.450 7 117851975.842 7      1541.452 7        46.169               
> 2025 08 06 06 07 16.0000000  0  8                                             
G05  24995358.025 8 131351475.134 8     -2722.181 8        48.516               
G13  24727456.449 7 129943662.347 7     -2811.434 7        43.833               
G14  27092979.491 7 142372481.733 7      -478.454 7        44.787               
G15  22523295.615 7 118360721.207 7     -1133.277 7        45.286               
G18  23401352.564 7 122974948.599 7      -513.500 7        46.043               
G22  26904029.351 6 141381662.037 6       135.790 6        39.704               
G23  23607658.261 7 124059083.855 7      2387.276 7        46.996               
G24  22426196.953 7 117850434.536 7      1541.204 7        46.058               
> 2025 08 06 06 07 17.0000000  0  8                                             
G05  24995877.192 8 131354197.586 8     -2722.662 8        48.574               
G13  24727991.340 7 129946474.043 7     -2811.817 7        43.892               
G14  27093070.730 7 142372960.525 7      -479.130 7        44.737               
G15  22523512.295 7 118361854.755 7     -1133.708 7        45.096               
G18  23401450.326 7 122975462.619 7      -514.310 7        46.030               
G22  26904002.869 6 141381527.023 6       134.793 6        39.719               
G23  23607202.905 7 124056696.835 7      2386.796 7        47.016               
G24  22425904.383 7 117848893.863 7      1540.248 7        46.068               
> 2025 08 06 06 07 18.0000000  0  8                                             
G05  24996395.447 8 131356920.322 8     -2722.772 8        48.732               
G13  24728525.588 7 129949285.806 7     -2811.954 7        43.864               
G14  27093163.220 7 142373439.844 7      -479.615 7        44.559               
G15  22523727.402 7 118362988.599 7     -1133.988 7        45.074               
G18  23401546.122 7 122975977.319 7      -514.913 7        45.904               
G22  26903976.655 6 141381392.524 6       134.365 6        39.599               
G23  23606746.977 7 124054310.034 7      2386.601 7        46.826               
G24  22425610.295 7 117847353.829 7      1539.626 7        45.912               
> 2025 08 06 06 07 19.0000000  0  8                                             
G05  24996912.112 8 131359643.313 8     -2723.132 8        48.711               
G13  24729061.355 7 129952097.597 7     -2811.813 7        43.809               
G14  27093249.474 7 142373919.637 7      -480.026 7        44.490               
G15  22523943.224 7 118364122.697 7     -1134.167 7        45.150               
G18  23401644.598 7 122976492.663 7      -515.611 7        45.956               
G22  26903949.905 6 141381258.501 6       133.824 6        39.436               
G23  23606292.049 7 124051923.408 7      2386.407 7        46.807               
G24  22425315.009 7 117845814.399 7      1539.150 7        46.144               
> 2025 08 06 06 07 20.0000000  0  8                                             
G05  24997429.992 8 131362366.669 8     -2723.417 8        48.654               
G13  24729598.998 7 129954909.522 7     -2811.767 7        43.624               
G14  27093341.267 7 142374400.043 7      -480.524 7        44.656               
G15  22524161.066 7 118365257.159 7     -1134.521 7        45.048               
G18  23401745.522 7 122977008.760 7      -516.417 7        45.812               
G22  26903921.797 6 141381125.053 6       133.451 6        39.403               
G23  23605836.282 7 124049537.078 7      2386.297 7        46.741               
G24  22425019.366 7 117844275.687 7      1538.471 7        46.283               
> 2025 08 06 06 07 21.0000000  0  8                                             
G05  24997947.997 8 131365090.271 8     -2723.797 8        48.431               
G13  24730133.675 7 129957721.475 7     -2812.259 7        43.418               
G14  27093432.542 7 142374880.915 7      -481.190 7        44.681               
G15  22524377.209 7 118366391.877 7     -1135.086 7        45.061               
G18  23401844.427 7 122977525.497 7      -517.215 7        45.710               
G22  26903896.995 6 141380992.081 6       132.792 6        39.394               
G23  23605382.034 7 124047150.929 7      2386.009 7        46.547               
G24  22424725.653 7 117842737.563 7      1537.613 7        46.250               
> 2025 08 06 06 07 22.0000000  0  8                                             
G05  24998464.877 8 131367814.168 8     -2724.019 8        48.405               
G13  24730672.962 7 129960533.496 7     -2811.778 7        43.384               
G14  27093522.423 7 142375362.314 7      -481.687 7        44.858               
G15  22524593.442 7 118367526.883 7     -1135.044 7        44.969               
G18  23401942.492 7 122978042.918 7      -517.704 7        45.715               
G22  26903876.267 6 141380859.602 6       132.221 6        39.413               
G23  23604926.785 7 124044764.994 7      2385.946 7        46.476               
G24  22424433.441 7 117841200.085 7      1537.372 7        45.848               
> 2025 08 06 06 07 23.0000000  0  8                                             
G05  24998984.079 8 131370538.380 8     -2724.328 8        48.359               
G13  24731210.730 7 129963345.608 7     -2811.794 7        43.214               
G14  27093614.699 7 142375844.271 7      -482.184 7        44.872               
G15  22524809.461 7 118368662.211 7     -1135.356 7        45.082               
G18  23402041.558 7 122978561.052 7      -518.411 7        45.611               
G22  26903851.215 6 141380727.677 6       131.940 6        39.528               
G23  23604472.214 7 124042379.310 7      2385.582 7        46.343               
G24  22424143.087 7 117839663.287 7      1536.528 7        45.544               
> 2025 08 06 06 07 24.0000000  0  8                                             
G05  24999501.227 8 131373262.896 8     -2724.703 8        48.229               
G13  24731745.121 7 129966157.796 7     -2812.093 7        43.270               
G14  27093707.296 7 142376326.767 7      -482.845 7        44.420               
G15  22525024.944 7 118369797.846 7     -1135.786 7        45.187               
G18  23402137.426 7 122979079.873 7      -519.315 7        45.469               
G22  26903825.555 6 141380596.268 6       131.039 6        39.502               
G23  23604019.949 7 124039993.861 7      2385.356 7        46.169               
G24  22423851.572 7 117838127.136 7      1535.805 7        45.245               
> 2025 08 06 06 07 25.0000000  0  8                                             
G05  25000018.517 8 131375987.704 8     -2725.000 8        48.187               
G13  24732278.672 7 129968970.053 7     -2812.322 7        43.277               
G14  27093799.375 7 142376809.800 7      -483.351 7        44.402               
G15  22525240.104 7 118370933.799 7     -1135.905 7        45.163               
G18  23402233.061 7 122979599.389 7      -519.850 7        45.091               
G22  26903801.860 6 141380465.370 6       130.573 6        39.619               
G23  23603566.041 7 124037608.635 7      2385.168 7        46.046               
G24  22423559.878 7 117836591.638 7      1535.329 7        45.115               
> 2025 08 06 06 07 26.0000000  0  8                                             
G05  25000538.845 8 131378712.779 8     -2725.095 8        48.053               
G13  24732811.670 7 129971782.362 7     -2812.349 7        43.578               
G14  27093891.865 7 142377293.339 7      -483.765 7        44.400               
G15  22525455.176 7 118372070.011 7     -1136.444 7        45.110               
G18  23402332.162 7 122980119.568 7      -520.543 7        45.207               
G22  26903776.004 6 141380334.964 6       130.060 6        39.851               
G23  23603112.203 7 124035223.610 7      2384.899 7        46.009               
G24  22423266.540 7 117835056.753 7      1534.355 7        45.036               
> 2025 08 06 06 07 27.0000000  0  8                                             
G05  25001058.137 8 131381438.205 8     -2725.647 8        48.036               
G13  24733348.026 7 129974594.808 7     -2812.600 7        43.551               
G14  27093985.696 7 142377777.456 7      -484.607 7        44.128               
G15  22525671.534 7 118373206.590 7     -1136.821 7        45.146               
G18  23402432.568 7 122980640.492 7      -521.365 7        45.021               
G22  26903754.257 6 141380205.161 6       129.276 6        39.885               
G23  23602658.062 7 124032838.874 7      2384.418 7        46.189               
G24  22422975.275 7 117833522.583 7      1533.833 7        44.900               
> 2025 08 06 06 07 28.0000000  0  8                                             
G05  25001577.303 7 131384163.922 7     -2725.821 7        47.965               
G13  24733882.221 7 129977407.315 7     -2812.581 7        43.640               
G14  27094078.186 7 142378262.083 7      -484.809 7        44.234               
G15  22525887.588 7 118374343.464 7     -1137.087 7        45.098               
G18  23402533.171 7 122981162.084 7      -521.970 7        44.929               
G22  26903728.687 6 141380075.830 6       129.085 6        39.875               
G23  23602204.350 7 124030454.346 7      2384.383 7        46.074               
G24  22422682.938 7 117831989.045 7      1533.261 7        44.923               
> 2025 08 06 06 07 29.0000000  0  8                                             
G05  25002095.112 7 131386889.931 7     -2726.221 7        47.823               
G13  24734416.665 7 129980219.895 7     -2812.898 7        43.688               
G14  27094168.406 7 142378747.262 7      -485.499 7        44.592               
G15  22526103.982 7 118375480.639 7     -1137.367 7        45.084               
G18  23402634.506 7 122981684.370 7      -522.840 7        45.050               
G22  26903702.920 6 141379947.028 6       128.328 6        40.071               
G23  23601751.477 7 124028070.048 7      2384.147 7        46.184               
G24  22422392.745 7 117830456.155 7      1532.486 7        45.267               
> 2025 08 06 06 07 30.0000000  0  8                                             
G05  25002613.903 7 131389616.236 7     -2726.374 7        47.867               
G13  24734951.717 7 129983032.546 7     -2812.677 7        43.747               
G14  27094260.218 7 142379232.964 7      -485.801 7        44.546               
G15  22526321.520 7 118376618.116 7     -1137.585 7        45.193               
G18  23402734.001 7 122982207.349 7      -523.200 7        45.239               
G22  26903675.919 6 141379818.734 6       128.116 6        39.999               
G23  23601296.710 7 124025685.986 7      2384.083 7        45.968               
G24  22422102.069 7 117828923.915 7      1531.967 7        45.337               
> 2025 08 06 06 07 31.0000000  0  8                                             
G05  25003134.213 8 131392342.829 8     -2726.744 8        48.057               
G13  24735487.020 7 129985845.263 7     -2812.988 7        43.555               
G14  27094351.653 7 142379719.190 7      -486.650 7        44.363               
G15  22526535.716 7 118377755.886 7     -1137.974 7        45.046               
G18  23402832.370 7 122982730.994 7      -524.089 7        45.073               
G22  26903650.635 6 141379690.955 6       127.637 6        39.785               
G23  23600843.445 7 124023302.127 7      2383.599 7        45.890               
G24  22421810.715 7 117827392.315 7      1531.213 7        45.317               
> 2025 08 06 06 07 32.0000000  0  8                                             
G05  25003652.683 8 131395069.755 8     -2727.260 8        48.263               
G13  24736023.305 7 129988658.080 7     -2813.052 7        43.527               
G14  27094443.965 7 142380205.990 7      -487.192 7        44.272               
G15  22526752.306 7 118378893.984 7     -1138.375 7        44.940               
G18  23402932.258 7 122983255.372 7      -524.953 7        45.131               
G22  26903625.725 6 141379563.723 6       127.015 6        39.856               
G23  23600392.127 7 124020918.547 7      2383.264 7        45.714               
G24  22421517.592 7 117825861.406 7      1530.492 7        45.478               
> 2025 08 06 06 07 33.0000000  0  8                                             
G05  25004171.957 8 131397796.931 8     -2727.452 8        48.173               
G13  24736557.231 7 129991470.934 7     -2813.130 7        43.665               
G14  27094537.688 7 142380693.274 7      -487.741 7        44.085               
G15  22526969.254 7 118380032.340 7     -1138.738 7        44.699               
G18  23403030.787 7 122983780.394 7      -525.455 7        45.081               
G22  26903603.979 6 141379436.979 6       126.416 6        39.859               
G23  23599938.075 7 124018535.143 7      2383.179 7        45.714               
G24  22421224.665 7 117824331.102 7      1529.991 7        45.435               
> 2025 08 06 06 07 34.0000000  0  8                                             
G05  25004691.356 8 131400524.462 8     -2727.573 8        48.141               
G13  24737091.587 7 129994283.921 7     -2812.982 7        43.715               
G14  27094631.875 7 142381181.143 7      -487.859 7        44.238               
G15  22527185.344 7 118381171.066 7     -1138.774 7        44.578               
G18  23403130.193 7 122984306.162 7      -526.133 7        44.930               
G22  26903584.787 6 141379310.800 6       125.965 6        39.843               
G23  23599483.183 7 124016152.021 7      2383.140 7        45.812               
G24  22420933.060 7 117822801.498 7      1529.305 7        45.333               
> 2025 08 06 06 07 35.0000000  0  8                                             
G05  25005209.897 8 131403252.325 8     -2727.989 8        48.141               
G13  24737627.925 7 129997097.006 7     -2813.186 7        43.686               
G14  27094726.224 7 142381669.587 7      -488.754 7        44.124               
G15  22527400.630 7 118382310.119 7     -1139.084 7        44.697               
G18  23403230.474 7 122984832.659 7      -526.744 7        44.970               
G22  26903564.792 6 141379185.188 6       125.215 6        39.893               
G23  23599028.935 7 124013769.168 7      2382.791 7        45.811               
G24  22420642.135 7 117821272.582 7      1528.665 7        45.467               
> 2025 08 06 06 07 36.0000000  0  8                                             
G05  25005729.600 8 131405980.443 8     -2728.358 8        48.254               
G13  24738163.406 7 129999910.135 7     -2813.145 7        43.672               
G14  27094819.589 7 142382158.527 7      -489.156 7        44.130               
G15  22527616.291 7 118383449.443 7     -1139.528 7        44.627               
G18  23403329.379 7 122985359.803 7      -527.593 7        44.853               
G22  26903536.630 6 141379060.060 6       124.909 6        39.873               
G23  23598576.241 7 124011386.507 7      2382.597 7        45.875               
G24  22420351.138 7 117819744.267 7      1527.888 7        45.422               
> 2025 08 06 06 07 37.0000000  0  8                                             
G05  25006248.069 8 131408708.889 8     -2728.625 8        48.232               
G13  24738699.352 7 130002723.350 7     -2813.468 7        43.556               
G14  27094909.792 7 142382648.028 7      -489.858 7        44.084               
G15  22527835.169 7 118384589.094 7     -1139.869 7        44.688               
G18  23403429.517 7 122985887.658 7      -528.204 7        44.606               
G22  26903514.044 6 141378935.464 6       124.561 6        39.753               
G23  23598122.672 7 124009004.096 7      2382.159 7        45.804               
G24  22420062.374 7 117818216.647 7      1527.267 7        45.473               
> 2025 08 06 06 07 38.0000000  0  8                                             
G05  25006765.663 8 131411437.636 8     -2728.910 8        48.240               
G13  24739232.564 7 130005536.663 7     -2813.309 7        43.388               
G14  27095003.158 7 142383138.061 7      -490.312 7        44.096               
G15  22528053.135 7 118385729.056 7     -1140.260 7        44.679               
G18  23403530.638 7 122986416.214 7      -529.042 7        44.631               
G22  26903490.385 6 141378811.403 6       123.801 6        39.950               
G23  23597669.781 7 124006621.923 7      2382.074 7        45.865               
G24  22419772.717 7 117816689.678 7      1526.592 7        45.466               
> 2025 08 06 06 07 39.0000000  0  8                                             
G05  25007284.812 8 131414166.620 8     -2729.119 8        48.082               
G13  24739768.473 7 130008349.982 7     -2813.233 7        43.303               
G14  27095096.988 7 142383628.566 7      -490.772 7        44.055               
G15  22528270.905 7 118386869.260 7     -1140.347 7        44.715               
G18  23403631.455 7 122986945.400 7      -529.695 7        44.685               
G22  26903464.761 6 141378687.802 6       123.218 6        39.726               
G23  23597216.319 7 124004239.920 7      2381.896 7        46.024               
G24  22419481.577 7 117815163.305 7      1525.980 7        45.472               
> 2025 08 06 06 07 40.0000000  0  8                                             
G05  25007804.568 7 131416895.934 7     -2729.608 7        47.861               
G13  24740302.239 7 130011163.415 7     -2813.552 7        43.378               
G14  27095187.656 7 142384119.648 7      -491.338 7        43.686               
G15  22528489.265 7 118388009.808 7     -1140.759 7        44.572               
G18  23403734.201 7 122987475.327 7      -530.314 7        44.596               
G22  26903443.247 6 141378564.749 6       122.689 6        39.708               
G23  23596763.411 7 124001858.187 7      2381.682 7        45.733               
G24  22419192.028 7 117813637.621 7      1525.332 7        45.165               
> 2025 08 06 06 07 41.0000000  0  8                                             
G05  25008323.342 7 131419625.469 7     -2729.623 7        47.543               
G13  24740838.792 7 130013976.839 7     -2813.506 7        43.296               
G14  27095281.932 7 142384611.191 7      -491.836 7        43.633               
G15  22528707.106 7 118389150.576 7     -1140.930 7        44.404               
G18  23403834.947 7 122988005.857 7      -530.881 7        44.434               
G22  26903414.835 6 141378442.136 6       122.305 6        39.202               
G23  23596309.895 7 123999476.609 7      2381.441 7        45.807               
G24  22418899.833 7 117812112.509 7      1524.654 7        45.219               
> 2025 08 06 06 07 42.0000000  0  8                                             
G05  25008842.919 7 131422355.328 7     -2730.035 7        47.823               
G13  24741373.076 7 130016790.376 7     -2813.379 7        43.498               
G14  27095378.675 7 142385103.290 7      -492.262 7        43.780               
G15  22528925.322 7 118390291.678 7     -1141.305 7        44.357               
G18  23403937.873 7 122988537.104 7      -531.513 7        44.669               
G22  26903389.944 6 141378320.095 6       121.822 6        39.207               
G23  23595857.201 7 123997095.291 7      2381.093 7        45.702               
G24  22418606.621 7 117810588.083 7      1524.015 7        45.214               
> 2025 08 06 06 07 43.0000000  0  8                                             
G05  25009361.443 7 131425085.434 7     -2730.304 7        47.705               
G13  24741909.540 7 130019603.922 7     -2813.627 7        43.438               
G14  27095473.560 7 142385595.875 7      -492.870 7        43.954               
G15  22529141.949 7 118391433.031 7     -1141.551 7        44.206               
G18  23404039.833 7 122989068.997 7      -532.327 7        44.738               
G22  26903366.875 6 141378198.495 6       121.192 6        39.086               
G23  23595404.811 7 123994714.153 7      2381.020 7        45.838               
G24  22418319.197 7 117809064.260 7      1523.643 7        45.453               
> 2025 08 06 06 07 44.0000000  0  8                                             
G05  25009881.771 7 131427815.843 7     -2730.582 7        47.885               
G13  24742441.018 7 130022417.561 7     -2813.526 7        43.240               
G14  27095567.908 7 142386088.999 7      -493.517 7        43.559               
G15  22529360.433 7 118392574.683 7     -1141.817 7        44.450               
G18  23404140.114 7 122989601.566 7      -533.012 7        44.868               
G22  26903343.180 6 141378077.416 6       121.151 6        39.265               
G23  23594953.368 7 123992333.240 7      2380.804 7        45.802               
G24  22418031.578 7 117807541.073 7      1522.847 7        45.110               
> 2025 08 06 06 07 45.0000000  0  8                                             
G05  25010402.206 7 131430546.612 7     -2730.834 7        47.678               
G13  24742976.767 7 130025231.328 7     -2813.743 7        42.871               
G14  27095662.239 7 142386582.709 7      -493.886 7        43.736               
G15  22529575.701 7 118393716.700 7     -1141.863 7        44.635               
G18  23404239.484 7 122990134.893 7      -533.425 7        44.727               
G22  26903322.184 6 141377956.924 6       120.529 6        39.203               
G23  23594501.460 7 123989952.620 7      2380.680 7        45.901               
G24  22417743.332 7 117806018.610 7      1522.224 7        45.094               
> 2025 08 06 06 07 46.0000000  0  8                                             
G05  25010921.641 7 131433277.664 7     -2731.074 7        47.678               
G13  24743512.320 7 130028045.148 7     -2813.666 7        42.909               
G14  27095755.229 7 142387076.938 7      -494.544 7        43.862               
G15  22529790.344 7 118394858.998 7     -1142.469 7        44.725               
G18  23404341.016 7 122990668.890 7      -534.265 7        44.589               
G22  26903299.437 6 141377836.932 6       119.934 6        39.306               
G23  23594046.694 7 123987572.205 7      2380.313 7        46.089               
G24  22417454.426 7 117804496.770 7      1521.533 7        45.152               
> 2025 08 06 06 07 47.0000000  0  8                                             
G05  25011440.825 7 131436009.027 7     -2731.558 7        47.821               
G13  24744049.391 7 130030859.054 7     -2814.084 7        42.798               
G14  27095846.915 7 142387571.721 7      -495.134 7        44.017               
G15  22530007.327 7 118396001.618 7     -1142.903 7        44.679               
G18  23404442.798 7 122991203.599 7      -535.025 7        44.672               
G22  26903276.279 6 141377717.482 6       119.063 6        39.426               
G23  23593594.089 7 123985192.043 7      2379.944 7        46.043               
G24  22417163.447 7 117802975.606 7      1520.766 7        45.310               
> 2025 08 06 06 07 48.0000000  0  8                                             
G05  25011961.207 8 131438740.661 8     -2731.820 8        48.044               
G13  24744587.302 7 130033673.020 7     -2813.995 7        42.805               
G14  27095940.299 7 142388067.010 7      -495.568 7        43.967               
G15  22530225.615 7 118397144.522 7     -1143.074 7        44.614               
G18  23404545.062 7 122991738.969 7      -535.734 7        44.774               
G22  26903253.835 6 141377598.519 6       118.546 6        39.638               
G23  23593142.771 7 123982812.094 7      2379.848 7        46.306               
G24  22416870.305 7 117801455.069 7      1520.300 7        45.437               
> 2025 08 06 06 07 49.0000000  0  8                                             
G05  25012480.767 8 131441472.621 8     -2732.186 8        48.066               
G13  24745124.052 7 130036487.080 7     -2814.028 7        42.931               
G14  27096033.432 7 142388562.862 7      -496.156 7        44.068               
G15  22530443.921 7 118398287.752 7     -1143.258 7        44.670               
G18  23404649.381 7 122992275.062 7      -536.624 7        44.774               
G22  26903231.195 6 141377480.102 6       118.097 6        39.751               
G23  23592689.202 7 123980432.402 7      2379.528 7        46.356               
G24  22416579.612 7 117799935.210 7      1519.441 7        45.445               
> 2025 08 06 06 07 50.0000000  0  8                                             
G05  25013001.113 7 131444204.856 7     -2732.435 7        47.918               
G13  24745660.837 7 130039301.178 7     -2813.876 7        42.995               
G14  27096127.691 7 142389059.217 7      -496.541 7        44.212               
G15  22530661.870 7 118399431.249 7     -1143.667 7        44.822               
G18  23404752.718 7 122992811.811 7      -537.073 7        44.839               
G22  26903206.732 6 141377362.172 6       117.818 6        39.710               
G23  23592236.830 7 123978052.910 7      2379.613 7        46.338               
G24  22416289.437 7 117798415.967 7      1518.915 7        45.495               
> 2025 08 06 06 07 51.0000000  0  8                                             
G05  25013521.190 7 131446937.399 7     -2732.623 7        47.877               
G13  24746197.676 7 130042115.358 7     -2814.314 7        43.249               
G14  27096222.147 7 142389556.121 7      -497.084 7        44.001               
G15  22530879.318 7 118400575.067 7     -1143.993 7        44.804               
G18  23404854.661 7 122993349.265 7      -537.751 7        44.741               
G22  26903183.753 6 141377244.780 6       117.397 6        39.965               
G23  23591784.333 7 123975673.659 7      2379.252 7        46.213               
G24  22416002.550 7 117796897.397 7      1518.035 7        45.504               
> 2025 08 06 06 07 52.0000000  0  8                                             
G05  25014040.411 7 131449670.202 7     -2732.876 7        47.695               
G13  24746734.569 7 130044929.587 7     -2814.515 7        43.195               
G14  27096317.246 7 142390053.524 7      -497.581 7        43.888               
G15  22531098.321 7 118401719.150 7     -1144.116 7        44.979               
G18  23404956.514 7 122993887.369 7      -538.328 7        44.639               
G22  26903162.239 6 141377127.879 6       116.643 6        39.876               
G23  23591332.693 7 123973294.608 7      2378.938 7        46.415               
G24  22415715.573 7 117795379.447 7      1517.548 7        45.546               
> 2025 08 06 06 07 53.0000000  0  8                                             
G05  25014559.917 7 131452403.310 7     -2733.197 7        47.610               
G13  24747268.799 7 130047743.884 7     -2814.120 7        43.069               
G14  27096413.471 7 142390551.460 7      -497.971 7        43.523               
G15  22531316.859 7 118402863.538 7     -1144.519 7        44.844               
G18  23405057.653 7 122994426.168 7      -539.139 7        44.521               
G22  26903142.404 6 141377011.504 6       116.333 6        39.707               
G23  23590880.357 7 123970915.785 7      2378.778 7        46.271               
G24  22415429.151 7 117793862.141 7      1516.851 7        45.414               
> 2025 08 06 06 07 54.0000000  0  8                                             
G05  25015078.726 7 131455136.693 7     -2733.537 7        47.619               
G13  24747801.207 7 130050558.231 7     -2814.468 7        42.943               
G14  27096510.696 7 142391049.909 7      -498.565 7        43.436               
G15  22531533.950 7 118404008.213 7     -1144.762 7        44.705               
G18  23405157.719 7 122994965.636 7      -539.603 7        44.370               
G22  26903122.087 6 141376895.621 6       115.501 6        39.509               
G23  23590427.073 7 123968537.171 7      2378.511 7        46.318               
G24  22415141.585 7 117792345.484 7      1516.367 7        45.390               
> 2025 08 06 06 07 55.0000000  0  8                                             
G05  25015600.162 7 131457870.422 7     -2733.818 7        47.687               
G13  24748335.580 7 130053372.696 7     -2814.309 7        42.999               
G14  27096607.403 7 142391548.945 7      -499.234 7        43.689               
G15  22531752.041 7 118405153.235 7     -1145.138 7        44.806               
G18  23405261.306 7 122995505.847 7      -540.453 7        44.536               
G22  26903099.447 6 141376780.307 6       115.264 6        39.411               
G23  23589973.432 7 123966158.841 7      2378.240 7        46.289               
G24  22414851.017 7 117790829.528 7      1515.733 7        45.572               
> 2025 08 06 06 07 56.0000000  0  8                                             
G05  25016120.972 7 131460604.410 7     -2734.268 7        47.602               
G13  24748868.523 7 130056187.210 7     -2814.686 7        43.079               
G14  27096700.465 7 142392048.494 7      -499.951 7        43.884               
G15  22531968.006 7 118406298.536 7     -1145.444 7        44.849               
G18  23405364.714 7 122996046.720 7      -541.224 7        44.586               
G22  26903075.645 6 141376665.483 6       114.357 6        39.504               
G23  23589521.507 7 123963780.714 7      2378.024 7        46.215               
G24  22414561.163 7 117789314.193 7      1515.032 7        45.771               
> 2025 08 06 06 07 57.0000000  0  8                                             
G05  25016642.712 7 131463338.735 7     -2734.456 7        47.845               
G13  24749402.950 7 130059001.846 7     -2814.532 7        42.995               
G14  27096790.846 7 142392548.616 7      -500.387 7        43.980               
G15  22532186.598 7 118407444.187 7     -1145.655 7        44.862               
G18  23405465.781 7 122996588.324 7      -541.756 7        44.380               
G22  26903054.488 6 141376551.230 6       114.027 6        39.579               
G23  23589068.884 7 123961402.870 7      2377.732 7        46.472               
G24  22414272.328 7 117787799.549 7      1514.405 7        45.730               
> 2025 08 06 06 07 58.0000000  0  8                                             
G05  25017164.184 7 131466073.477 7     -2734.876 7        47.985               
G13  24749937.341 7 130061816.674 7     -2814.777 7        42.937               
G14  27096884.569 7 142393049.386 7      -500.834 7        43.948               
G15  22532407.548 7 118408590.255 7     -1146.200 7        44.840               
G18  23405569.868 7 122997130.735 7      -542.626 7        44.438               
G22  26903035.887 6 141376437.606 6       113.303 6        39.567               
G23  23588616.762 7 123959025.360 7      2377.350 7        46.451               
G24  22413983.743 7 117786285.667 7      1513.603 7        45.793               
> 2025 08 06 06 07 59.0000000  0  8                                             
G05  25017684.548 8 131468808.477 8     -2735.149 8        48.317               
G13  24750472.715 7 130064631.530 7     -2814.671 7        42.723               
G14  27096979.615 7 142393550.644 7      -501.527 7        43.687               
G15  22532626.301 7 118409736.595 7     -1146.460 7        44.699               
G18  23405673.866 7 122997673.795 7      -543.402 7        44.287               
G22  26903011.442 6 141376324.473 6       113.007 6        39.460               
G23  23588163.479 7 123956648.056 7      2377.041 7        46.293               
G24  22413693.765 7 117784772.400 7      1512.970 7        45.753               
> 2025 08 06 06 08 00.0000000  0  8                                             
G05  25018206.109 8 131471543.782 8     -2735.586 8        48.363               
G13  24751008.339 7 130067446.474 7     -2815.109 7        42.727               
G14  27097078.305 7 142394052.451 7      -502.199 7        43.301               
G15  22532844.803 7 118410883.242 7     -1146.972 7        44.639               
G18  23405777.631 7 122998217.554 7      -544.084 7        44.342               
G22  26902990.732 6 141376211.870 6       112.439 6        39.504               
G23  23587710.320 7 123954270.990 7      2376.826 7        46.479               
G24  22413405.413 7 117783259.801 7      1512.353 7        45.370               
> 2025 08 06 06 08 01.0000000  0  8                                             
G05  25018726.705 8 131474279.313 8     -2735.644 8        48.257               
G13  24751545.571 7 130070261.411 7     -2814.965 7        42.448               
G14  27097176.049 7 142394554.724 7      -502.391 7        43.059               
G15  22533064.199 7 118412030.128 7     -1146.950 7        44.566               
G18  23405883.237 7 122998761.932 7      -544.736 7        44.319               
G22  26902967.323 6 141376099.711 6       111.915 6        39.339               
G23  23587258.270 7 123951894.081 7      2376.823 7        46.490               
G24  22413117.739 7 117781747.784 7      1511.696 7        45.304               
> 2025 08 06 06 08 02.0000000  0  8                                             
G05  25019247.104 8 131477015.166 8     -2736.026 8        48.266               
G13  24752083.750 7 130073076.445 7     -2815.063 7        42.181               
G14  27097271.148 7 142395057.548 7      -503.334 7        42.788               
G15  22533280.772 7 118413177.318 7     -1147.562 7        44.548               
G18  23405986.753 7 122999307.019 7      -545.722 7        44.362               
G22  26902949.562 6 141375988.087 6       111.366 6        39.332               
G23  23586807.202 7 123949517.425 7      2376.622 7        46.602               
G24  22412831.603 7 117780236.432 7      1511.023 7        45.106               
> 2025 08 06 06 08 03.0000000  0  8                                             
G05  25019768.773 8 131479751.321 8     -2736.161 8        48.474               
G13  24752621.286 7 130075891.543 7     -2814.945 7        42.339               
G14  27097367.069 7 142395560.915 7      -503.597 7        42.456               
G15  22533497.612 7 118414324.828 7     -1147.463 7        44.618               
G18  23406091.644 7 122999852.796 7      -546.117 7        44.447               
G22  26902931.228 6 141375876.993 6       111.142 6        39.417               
G23  23586356.545 7 123947140.998 7      2376.644 7        46.457               
G24  22412543.411 7 117778725.736 7      1510.592 7        44.839               
> 2025 08 06 06 08 04.0000000  0  8                                             
G05  25020289.619 8 131482487.807 8     -2736.574 8        48.642               
G13  24753156.696 7 130078706.758 7     -2815.078 7        42.466               
G14  27097465.670 7 142396064.838 7      -504.271 7        42.674               
G15  22533714.310 7 118415472.667 7     -1147.801 7        44.655               
G18  23406194.480 7 123000399.285 7      -546.699 7        44.595               
G22  26902912.394 6 141375766.440 6       110.507 6        39.256               
G23  23585904.441 7 123944764.836 7      2376.061 7        46.470               
G24  22412255.773 7 117777215.720 7      1509.713 7        45.011               
> 2025 08 06 06 08 05.0000000  0  8                                             
G05  25020809.965 8 131485224.566 8     -2736.888 8        48.737               
G13  24753693.821 7 130081522.017 7     -2815.342 7        42.500               
G14  27097561.126 7 142396569.289 7      -504.862 7        42.234               
G15  22533932.902 7 118416620.787 7     -1148.301 7        44.657               
G18  23406300.211 7 123000946.445 7      -547.535 7        44.789               
G22  26902889.200 6 141375656.403 6       109.906 6        39.143               
G23  23585451.872 7 123942388.888 7      2375.942 7        46.292               
G24  22411969.833 7 117775706.341 7      1508.989 7        44.998               
> 2025 08 06 06 08 06.0000000  0  8                                             
G05  25021330.079 8 131487961.651 8     -2737.323 8        48.770               
G13  24754232.625 7 130084337.375 7     -2815.208 7        42.718               
G14  27097654.188 7 142397074.286 7      -505.393 7        42.287               
G15  22534151.744 7 118417769.237 7     -1148.696 7        44.719               
G18  23406402.297 7 123001494.330 7      -548.234 7        44.825               
G22  26902864.183 6 141375546.895 6       109.428 6        39.170               
G23  23584999.697 7 123940013.199 7      2375.457 7        46.390               
G24  22411684.375 7 117774197.637 7      1508.329 7        44.986               
> 2025 08 06 06 08 07.0000000  0  8                                             
G05  25021848.924 8 131490699.015 8     -2737.678 8        48.443               
G13  24754766.856 7 130087152.777 7     -2815.521 7        42.766               
G14  27097749.126 7 142397579.819 7      -505.754 7        42.050               
G15  22534369.835 7 118418917.973 7     -1148.968 7        44.778               
G18  23406506.545 7 123002042.877 7      -549.010 7        44.704               
G22  26902843.723 6 141375437.895 6       108.738 6        39.048               
G23  23584549.183 7 123937637.726 7      2375.333 7        46.363               
G24  22411399.275 7 117772689.570 7      1507.632 7        45.326               
> 2025 08 06 06 08 08.0000000  0  8                                             
G05  25022369.573 8 131493436.721 8     -2737.711 8        48.391               
G13  24755301.032 7 130089968.311 7     -2815.451 7        42.423               
G14  27097843.653 7 142398085.910 7      -506.210 7        42.141               
G15  22534588.480 7 118420067.045 7     -1149.173 7        44.782               
G18  23406608.130 7 123002592.166 7      -549.542 7        44.487               
G22  26902822.388 6 141375329.462 6       108.205 6        38.998               
G23  23584098.580 7 123935262.526 7      2375.252 7        46.457               
G24  22411115.194 7 117771182.208 7      1507.176 7        45.645               
> 2025 08 06 06 08 09.0000000  0  8                                             
G05  25022890.044 8 131496174.637 8     -2738.246 8        48.314               
G13  24755835.709 7 130092783.817 7     -2815.459 7        42.238               
G14  27097940.110 7 142398592.457 7      -506.943 7        42.215               
G15  22534805.589 7 118421216.345 7     -1149.460 7        44.855               
G18  23406711.342 7 123003142.058 7      -550.268 7        44.306               
G22  26902801.963 6 141375221.447 6       107.835 6        38.880               
G23  23583644.725 7 123932887.465 7      2374.802 7        46.446               
G24  22410827.699 7 117769675.396 7      1506.352 7        45.750               
> 2025 08 06 06 08 10.0000000  0  8                                             
G05  25023411.194 8 131498912.862 8     -2738.404 8        48.178               
G13  24756368.492 7 130095599.412 7     -2815.606 7        42.040               
G14  27098034.209 6 142399099.547 6      -507.300 6        41.972               
G15  22535025.021 7 118422365.941 7     -1149.844 7        44.928               
G18  23406817.484 7 123003692.644 7      -551.081 7        44.193               
G22  26902780.681 6 141375113.958 6       107.273 6        38.856               
G23  23583192.281 7 123930512.647 7      2374.725 7        46.379               
G24  22410541.258 7 117768169.250 7      1505.744 7        45.866               
> 2025 08 06 06 08 11.0000000  0  8                                             
G05  25023933.452 8 131501651.356 8     -2738.719 8        48.094               
G13  24756902.669 7 130098415.061 7     -2815.647 7        42.088               
G14  27098129.790 6 142399607.152 6      -507.719 6        41.901               
G15  22535245.989 7 118423515.835 7     -1150.124 7        44.954               
G18  23406924.626 7 123004243.897 7      -551.657 7        44.286               
G22  26902762.937 6 141375006.991 6       106.518 6        38.805               
G23  23582740.355 7 123928138.049 7      2374.389 7        46.387               
G24  22410254.318 7 117766663.748 7      1505.112 7        45.930               
> 2025 08 06 06 08 12.0000000  0  8                                             
G05  25024455.853 8 131504390.180 8     -2739.045 8        48.254               
G13  24757440.365 6 130101230.809 6     -2815.642 6        41.959               
G14  27098230.947 6 142400115.302 6      -508.568 6        41.983               
G15  22535466.707 7 118424666.058 7     -1150.274 7        44.829               
G18  23407029.607 7 123004795.871 7      -552.174 7        44.346               
G22  26902736.456 6 141374900.572 6       106.124 6        38.782               
G23  23582288.251 7 123925763.711 7      2374.236 7        46.631               
G24  22409964.732 7 117765158.928 7      1504.565 7        45.978               
> 2025 08 06 06 08 13.0000000  0  8                                             
G05  25024977.504 8 131507129.263 8     -2739.283 8        48.467               
G13  24757975.114 6 130104046.599 6     -2816.038 6        41.827               
G14  27098330.638 6 142400623.980 6      -508.764 6        41.948               
G15  22535686.639 7 118425816.561 7     -1150.609 7        44.886               
G18  23407134.891 7 123005348.502 7      -553.141 7        44.108               
G22  26902713.387 6 141374794.638 6       105.548 6        38.494               
G23  23581835.951 7 123923389.571 7      2374.044 7        46.701               
G24  22409676.469 7 117763654.712 7      1503.819 7        45.980               
> 2025 08 06 06 08 14.0000000  0  8                                             
G05  25025499.350 8 131509868.721 8     -2739.510 8        48.521               
G13  24758508.718 6 130106862.531 6     -2815.707 6        41.807               
G14  27098430.615 6 142401133.247 6      -509.466 6        41.909               
G15  22535904.659 7 118426967.423 7     -1150.950 7        44.910               
G18  23407238.817 7 123005901.896 7      -553.860 7        44.021               
G22  26902695.821 6 141374689.303 6       104.910 6        38.389               
G23  23581385.669 7 123921015.738 7      2373.644 7        46.533               
G24  22409390.190 7 117762151.222 7      1503.092 7        45.993               
> 2025 08 06 06 08 15.0000000  0  8                                             
G05  25026020.661 8 131512608.446 8     -2739.894 8        48.432               
G13  24759045.218 6 130109678.507 6     -2815.975 6        41.744               
G14  27098526.822 7 142401643.012 7      -509.919 7        42.080               
G15  22536124.609 7 118428118.561 7     -1151.260 7        45.030               
G18  23407347.193 7 123006455.934 7      -554.264 7        43.939               
G22  26902673.396 6 141374584.432 6       104.690 6        38.202               
G23  23580932.850 7 123918642.090 7      2373.513 7        46.453               
G24  22409107.073 7 117760648.354 7      1502.633 7        45.827               
> 2025 08 06 06 08 16.0000000  0  8                                             
G05  25026542.115 8 131515348.489 8     -2740.142 8        48.466               
G13  24759581.825 6 130112494.568 6     -2815.963 6        41.618               
G14  27098623.672 6 142402153.334 6      -510.639 6        41.842               
G15  22536344.809 7 118429270.019 7     -1151.893 7        45.054               
G18  23407453.049 7 123007010.685 7      -555.220 7        43.834               
G22  26902653.222 6 141374480.114 6       104.111 6        37.862               
G23  23580481.068 7 123916268.704 7      2373.187 7        46.499               
G24  22408823.098 7 117759146.165 7      1501.874 7        45.870               
> 2025 08 06 06 08 17.0000000  0  8                                             
G05  25027063.658 8 131518088.802 8     -2740.387 8        48.519               
G13  24760120.683 6 130115310.663 6     -2816.236 6        41.532               
G14  27098721.165 6 142402664.146 6      -510.997 6        41.895               
G15  22536562.829 7 118430421.752 7     -1151.959 7        45.035               
G18  23407559.798 7 123007566.096 7      -555.696 7        44.054               
G22  26902633.584 6 141374376.273 6       103.701 6        37.581               
G23  23580029.375 7 123913895.519 7      2373.056 7        46.615               
G24  22408537.104 7 117757644.593 7      1501.449 7        45.959               
> 2025 08 06 06 08 18.0000000  0  8                                             
G05  25027584.808 8 131520829.385 8     -2740.778 8        48.624               
G13  24760658.326 6 130118126.820 6     -2816.299 6        41.435               
G14  27098816.872 6 142403175.474 6      -511.439 6        41.727               
G15  22536781.278 7 118431573.763 7     -1152.175 7        44.856               
G18  23407666.405 7 123008122.167 7      -556.406 7        43.946               
G22  26902613.660 6 141374272.940 6       102.858 6        37.256               
G23  23579578.700 7 123911522.545 7      2372.868 7        46.539               
G24  22408250.878 7 117756143.654 7      1500.664 7        46.065               
> 2025 08 06 06 08 19.0000000  0  8                                             
G05  25028107.745 8 131523570.228 8     -2741.102 8        48.695               
G13  24761195.523 6 130120943.005 6     -2816.209 6        41.615               
G14  27098914.687 6 142403687.298 6      -512.164 6        41.689               
G15  22537002.014 7 118432726.043 7     -1152.574 7        44.616               
G18  23407772.279 7 123008678.903 7      -557.094 7        43.938               
G22  26902596.505 6 141374170.091 6       102.975 6        37.199               
G23  23579127.704 7 123909149.773 7      2372.540 7        46.863               
G24  22407963.616 7 117754643.336 7      1499.964 7        46.332               
> 2025 08 06 06 08 20.0000000  0  8                                             
G05  25028629.646 8 131526311.392 8     -2741.284 8        48.851               
G13  24761729.878 6 130123759.302 6     -2816.405 6        41.860               
G14  27099010.804 6 142404199.685 6      -512.550 6        41.481               
G15  22537220.909 7 118433878.642 7     -1152.715 7        44.556               
G18  23407877.438 7 123009236.345 7      -557.776 7        44.132               
G22  26902579.905 6 141374067.799 6       101.518 6        36.891               
G23  23578676.815 7 123906777.263 7      2372.344 7        46.802               
G24  22407677.694 7 117753143.689 7      1499.300 7        46.364               
> 2025 08 06 06 08 21.0000000  0  8                                             
G05  25029150.367 8 131529052.839 8     -2741.606 8        48.922               
G13  24762265.359 6 130126575.660 6     -2816.210 6        41.877               
G14  27099111.282 6 142404712.604 6      -513.074 6        41.402               
G15  22537439.697 7 118435031.543 7     -1153.014 7        44.653               
G18  23407984.384 7 123009794.479 7      -558.383 7        44.260               
G22  26902560.285 6 141373966.023 6       101.459 6        36.923               
G23  23578226.015 7 123904404.978 7      2372.100 7        46.841               
G24  22407392.522 7 117751644.680 7      1498.700 7        46.466               
> 2025 08 06 06 08 22.0000000  0  8                                             
G05  25029671.678 8 131531794.562 8     -2741.883 8        48.955               
G13  24762800.697 6 130129392.072 6     -2816.429 6        41.956               
G14  27099209.901 6 142405226.034 6      -513.745 6        41.276               
G15  22537660.058 7 118436184.725 7     -1153.223 7        44.706               
G18  23408087.864 7 123010353.279 7      -559.211 7        44.218               
G22  26902537.520 6 141373864.749 6       100.955 6        37.118               
G23  23577775.537 7 123902032.904 7      2371.976 7        46.809               
G24  22407109.030 7 117750146.320 7      1498.024 7        46.179               
> 2025 08 06 06 08 23.0000000  0  8                                             
G05  25030193.561 8 131534536.557 8     -2742.198 8        48.710               
G13  24763333.926 7 130132208.539 7     -2816.281 7        42.136               
G14  27099308.770 6 142405739.990 6      -513.935 6        41.354               
G15  22537876.774 7 118437338.190 7     -1153.469 7        44.747               
G18  23408195.364 7 123010912.759 7      -559.763 7        44.112               
G22  26902516.613 6 141373763.980 6       100.603 6        36.840               
G23  23577324.326 7 123899661.050 7      2371.783 7        46.963               
G24  22406825.413 7 117748648.589 7      1497.392 7        46.194               
> 2025 08 06 06 08 24.0000000  0  8                                             
G05  25030713.531 8 131537278.938 8     -2742.405 8        48.269               
G13  24763869.300 7 130135025.147 7     -2816.241 7        42.043               
G14  27099413.769 6 142406254.542 6      -514.727 6        41.690               
G15  22538095.687 7 118438492.028 7     -1153.826 7        44.786               
G18  23408301.881 7 123011472.992 7      -560.709 7        44.197               
G22  26902499.834 6 141373663.798 6        99.790 6        37.032               
G23  23576873.133 7 123897289.501 7      2371.651 7        47.073               
G24  22406539.830 7 117747151.591 7      1496.838 7        46.307               
> 2025 08 06 06 08 25.0000000  0  8                                             
G05  25031234.324 8 131540021.563 8     -2742.768 8        48.033               
G13  24764407.497 6 130137841.777 6     -2816.518 6        41.974               
G14  27099511.620 6 142406769.598 6      -515.262 6        41.762               
G15  22538314.172 7 118439646.130 7     -1154.101 7        44.710               
G18  23408408.398 7 123012033.877 7      -561.099 7        44.073               
G22  26902481.161 6 141373564.086 6        99.522 6        36.941               
G23  23576421.351 7 123894918.140 7      2371.375 7        47.017               
G24  22406254.694 7 117745655.203 7      1496.195 7        46.503               
> 2025 08 06 06 08 26.0000000  0  8                                             
G05  25031755.617 8 131542764.540 8     -2743.054 8        48.193               
G13  24764944.461 6 130140658.528 6     -2816.922 6        41.893               
G14  27099604.145 6 142407285.239 6      -516.009 6        41.566               
G15  22538533.782 7 118440800.578 7     -1154.550 7        44.886               
G18  23408515.076 7 123012595.490 7      -561.948 7        44.192               
G22  26902462.184 6 141373464.944 6        99.074 6        37.002               
G23  23575970.480 7 123892547.068 7      2371.122 7        46.944               
G24  22405968.629 7 117744159.519 7      1495.328 7        46.646               
> 2025 08 06 06 08 27.0000000  0  8                                             
G05  25032277.142 8 131545507.810 8     -2743.412 8        48.387               
G13  24765479.031 7 130143475.346 7     -2816.913 7        42.217               
G14  27099700.602 6 142407801.398 6      -516.241 6        41.668               
G15  22538756.537 7 118441955.324 7     -1154.843 7        44.851               
G18  23408621.594 7 123013157.794 7      -562.773 7        44.356               
G22  26902445.333 6 141373366.339 6        98.336 6        36.792               
G23  23575520.216 7 123890176.220 7      2370.768 7        46.995               
G24  22405682.903 7 117742664.487 7      1494.724 7        46.517               
> 2025 08 06 06 08 28.0000000  0  8                                             
G05  25032800.329 8 131548251.398 8     -2743.698 8        48.553               
G13  24766014.262 7 130146292.264 7     -2816.853 7        42.151               
G14  27099793.414 6 142408318.120 6      -516.930 6        41.408               
G15  22538976.952 7 118443110.409 7     -1155.153 7        44.863               
G18  23408731.024 7 123013720.811 7      -563.166 7        44.404               
G22  26902425.552 6 141373268.265 6        97.798 6        36.619               
G23  23575066.718 7 123887805.630 7      2370.447 7        47.093               
G24  22405396.838 7 117741170.132 7      1494.072 7        46.395               
> 2025 08 06 06 08 29.0000000  0  8                                             
G05  25033322.873 8 131550995.225 8     -2743.953 8        48.335               
G13  24766550.315 7 130149109.221 7     -2816.769 7        42.048               
G14  27099887.566 6 142408835.331 6      -517.726 6        41.129               
G15  22539198.099 7 118444265.751 7     -1155.487 7        45.121               
G18  23408839.614 7 123014284.469 7      -563.843 7        44.369               
G22  26902408.041 6 141373170.691 6        97.495 6        36.494               
G23  23574614.239 7 123885435.232 7      2370.212 7        47.169               
G24  22405112.363 7 117739676.371 7      1493.463 7        46.340               
> 2025 08 06 06 08 30.0000000  0  8                                             
G05  25033846.543 8 131553739.390 8     -2744.179 8        48.248               
G13  24767083.937 6 130151926.275 6     -2817.031 6        41.952               
G14  27099987.668 6 142409353.115 6      -517.967 6        40.977               
G15  22539417.691 7 118445421.436 7     -1155.770 7        45.120               
G18  23408946.685 7 123014848.862 7      -564.483 7        44.426               
G22  26902389.117 6 141373073.657 6        97.219 6        36.447               
G23  23574163.510 7 123883065.109 7      2370.162 7        47.181               
G24  22404830.086 7 117738183.316 7      1492.820 7        46.519               
> 2025 08 06 06 08 31.0000000  0  8                                             
G05  25034370.087 8 131556483.856 8     -2744.534 8        48.191               
G13  24767619.061 6 130154743.419 6     -2817.167 6        41.914               
G14  27100085.966 6 142409871.456 6      -518.571 6        40.562               
G15  22539637.748 7 118446577.431 7     -1156.295 7        45.144               
G18  23409053.613 7 123015413.954 7      -565.377 7        44.649               
G22  26902369.712 6 141372977.159 6        96.154 6        36.180               
G23  23573712.228 7 123880695.234 7      2369.672 7        47.250               
G24  22404547.005 7 117736690.918 7      1491.952 7        46.487               
> 2025 08 06 06 08 32.0000000  0  8                                             
G05  25034892.881 8 131559228.630 8     -2744.864 8        48.059               
G13  24768153.738 6 130157560.648 6     -2816.847 6        41.847               
G14  27100187.962 6 142410390.338 6      -519.014 6        40.354               
G15  22539856.143 7 118447733.729 7     -1156.407 7        45.015               
G18  23409159.809 7 123015979.748 7      -566.037 7        44.829               
G22  26902350.020 6 141372881.203 6        95.808 6        36.016               
G23  23573260.803 7 123878325.609 7      2369.773 7        47.175               
G24  22404263.263 7 117735199.196 7      1491.570 7        46.404               
> 2025 08 06 06 08 33.0000000  0  8                                             
G05  25035415.675 8 131561973.696 8     -2745.196 8        48.381               
G13  24768689.791 6 130160377.942 6     -2817.208 6        41.674               
G14  27100289.369 6 142410909.730 6      -519.795 6        40.201               
G15  22540073.770 7 118448890.326 7     -1156.982 7        44.755               
G18  23409265.772 7 123016546.216 7      -566.768 7        44.703               
G22  26902328.899 5 141372785.755 5        95.216 5        35.968               
G23  23572809.038 7 123875956.205 7      2369.133 7        46.904               
G24  22403979.860 7 117733708.116 7      1490.721 7        46.283               
> 2025 08 06 06 08 34.0000000  0  8                                             
G05  25035937.487 8 131564719.016 8     -2745.468 8        48.585               
G13  24769225.254 6 130163195.266 6     -2817.491 6        41.425               
G14  27100392.294 6 142411429.651 6      -520.337 6        40.090               
G15  22540291.826 7 118450047.192 7     -1157.067 7        44.576               
G18  23409373.915 7 123017113.345 7      -567.455 7        44.750               
G22  26902313.835 5 141372690.784 5        94.452 5        35.982               
G23  23572358.167 7 123873586.999 7      2368.886 7        46.864               
G24  22403694.492 7 117732217.644 7      1490.038 7        46.096               
> 2025 08 06 06 08 35.0000000  0  8                                             
G05  25036460.191 8 131567464.654 8     -2745.766 8        48.743               
G13  24769765.292 6 130166012.693 6     -2817.419 6        41.263               
G14  27100490.324 6 142411950.105 6      -520.629 6        39.933               
G15  22540509.989 7 118451204.390 7     -1157.275 7        44.645               
G18  23409483.220 7 123017681.184 7      -568.186 7        44.746               
G22  26902300.666 6 141372596.379 6        94.209 6        36.417               
G23  23571906.778 7 123871218.052 7      2368.922 7        46.862               
G24  22403410.768 7 117730727.860 7      1489.387 7        46.032               
> 2025 08 06 06 08 36.0000000  0  8                                             
G05  25036982.467 8 131570210.589 8     -2746.062 8        48.749               
G13  24770301.916 6 130168830.183 6     -2817.376 6        41.202               
G14  27100588.014 6 142412471.104 6      -521.087 6        39.579               
G15  22540730.117 7 118452361.884 7     -1157.574 7        44.578               
G18  23409591.524 7 123018249.708 7      -568.742 7        44.845               
G22  26902285.727 6 141372502.482 6        93.563 6        36.512               
G23  23571455.710 7 123868849.334 7      2368.577 7        46.996               
G24  22403128.884 7 117729238.716 7      1488.764 7        45.995               
> 2025 08 06 06 08 37.0000000  0  8                                             
G05  25037505.261 8 131572956.807 8     -2746.281 8        48.793               
G13  24770839.702 6 130171647.740 6     -2817.732 6        41.382               
G14  27100683.202 6 142412992.638 6      -521.697 6        39.594               
G15  22540951.086 7 118453519.666 7     -1157.798 7        44.732               
G18  23409699.507 7 123018818.911 7      -569.592 7        44.796               
G22  26902273.523 6 141372409.106 6        93.056 6        36.453               
G23  23571005.196 7 123866480.850 7      2368.404 7        46.905               
G24  22402845.517 7 117727750.223 7      1488.176 7        46.226               
> 2025 08 06 06 08 38.0000000  0  8                                             
G05  25038027.823 8 131575703.390 8     -2746.742 8        48.991               
G13  24771379.186 6 130174465.421 6     -2817.937 6        41.459               
G14  27100781.875 6 142413514.744 6      -522.338 6        39.704               
G15  22541172.000 7 118454677.810 7     -1158.266 7        44.649               
G18  23409808.472 7 123019388.865 7      -570.483 7        44.677               
G22  26902252.777 6 141372316.304 6        92.790 6        36.541               
G23  23570556.291 7 123864112.654 7      2368.017 7        46.970               
G24  22402565.045 7 117726262.450 7      1487.544 7        46.222               
> 2025 08 06 06 08 39.0000000  0  8                                             
G05  25038548.955 8 131578450.256 8     -2747.090 8        48.786               
G13  24771915.471 6 130177283.158 6     -2817.709 6        41.508               
G14  27100881.977 6 142414037.368 6      -522.788 6        39.395               
G15  22541393.040 7 118455836.235 7     -1158.561 7        44.564               
G18  23409918.706 7 123019959.486 7      -570.931 7        44.608               
G22  26902235.587 6 141372224.004 6        92.118 6        36.641               
G23  23570105.795 7 123861744.671 7      2367.915 7        46.953               
G24  22402282.839 7 117724775.308 7      1486.747 7        46.321               
> 2025 08 06 06 08 40.0000000  0  8                                             
G05  25039073.071 8 131581197.373 8     -2747.185 8        48.525               
G13  24772448.576 6 130180100.922 6     -2817.702 6        41.630               
G14  27100979.596 6 142414560.498 6      -522.966 6        39.170               
G15  22541612.347 7 118456994.922 7     -1158.829 7        44.488               
G18  23410028.565 7 123020530.762 7      -571.444 7        44.761               
G22  26902219.612 6 141372132.190 6        91.495 6        36.628               
G23  23569654.691 7 123859376.892 7      2367.599 7        46.747               
G24  22401999.276 7 117723288.783 7      1486.132 7        46.613               
> 2025 08 06 06 08 41.0000000  0  8                                             
G05  25039594.650 8 131583944.756 8     -2747.523 8        48.527               
G13  24772984.450 6 130182918.743 6     -2817.837 6        41.718               
G14  27101081.002 6 142415084.121 6      -523.849 6        39.010               
G15  22541832.797 7 118458153.871 7     -1159.008 7        44.515               
G18  23410138.066 7 123021102.690 7      -572.270 7        44.909               
G22  26902205.942 6 141372040.875 6        91.152 6        37.062               
G23  23569203.784 7 123857009.311 7      2367.468 7        46.678               
G24  22401714.980 7 117721802.882 7      1485.493 7        46.715               
> 2025 08 06 06 08 42.0000000  0  8                                             
G05  25040116.944 8 131586692.402 8     -2747.733 8        48.425               
G13  24773522.075 6 130185736.586 6     -2817.687 6        41.771               
G14  27101184.571 6 142415608.246 6      -524.571 6        38.969               
G15  22542052.854 7 118459313.095 7     -1159.329 7        44.451               
G18  23410246.245 7 123021675.279 7      -572.821 7        44.797               
G22  26902189.092 6 141371950.039 6        90.825 6        37.142               
G23  23568754.664 7 123854641.936 7      2367.385 7        46.753               
G24  22401431.094 7 117720317.587 7      1485.018 7        46.818               
> 2025 08 06 06 08 43.0000000  0  8                                             
G05  25040639.023 8 131589440.374 8     -2748.124 8        48.490               
G13  24774057.592 7 130188554.533 7     -2817.831 7        42.045               
G14  27101285.888 6 142416132.945 6      -525.006 6        38.822               
G15  22542271.410 7 118460472.656 7     -1159.780 7        44.453               
G18  23410355.264 7 123022248.587 7      -573.737 7        44.842               
G22  26902167.524 6 141371859.753 6        90.017 6        36.961               
G23  23568303.275 7 123852274.829 7      2367.151 7        46.758               
G24  22401146.351 7 117718832.992 7      1484.245 7        46.807               
> 2025 08 06 06 08 44.0000000  0  8                                             
G05  25041161.799 8 131592188.626 8     -2748.317 8        48.537               
G13  24774591.715 7 130191372.551 7     -2817.927 7        42.133               
G14  27101388.224 6 142416658.155 6      -525.679 6        38.817               
G15  22542492.360 7 118461632.499 7     -1159.844 7        44.339               
G18  23410463.801 7 123022822.566 7      -574.053 7        45.273               
G22  26902137.772 6 141371769.976 6        90.112 6        36.745               
G23  23567851.921 7 123849907.940 7      2366.947 7        46.747               
G24  22400864.253 7 117717349.030 7      1483.656 7        46.956               
> 2025 08 06 06 08 45.0000000  0  8                                             
G05  25041684.343 8 131594937.235 8     -2748.706 8        48.423               
G13  24775126.535 7 130194190.699 7     -2818.187 7        42.083               
G14  27101491.543 6 142417183.986 6      -525.837 6        38.654               
G15  22542713.668 7 118462792.707 7     -1160.279 7        44.236               
G18  23410574.785 7 123023397.300 7      -575.087 7        45.256               
G22  26902120.081 6 141371680.773 6        89.270 6        36.476               
G23  23567400.836 7 123847541.352 7      2366.401 7        46.757               
G24  22400581.422 7 117715865.783 7      1482.909 7        46.612               
> 2025 08 06 06 08 46.0000000  0  8                                             
G05  25042208.263 8 131597686.127 8     -2748.909 8        48.292               
G13  24775663.427 7 130197008.885 7     -2818.255 7        42.034               
G14  27101594.040 6 142417710.306 6      -526.615 6        38.809               
G15  22542933.153 7 118463953.196 7     -1160.717 7        44.084               
G18  23410683.840 7 123023972.697 7      -575.772 7        45.402               
G22  26902102.123 6 141371592.046 6        88.499 6        36.215               
G23  23566951.483 7 123845174.972 7      2366.190 7        46.584               
G24  22400300.843 7 117714383.173 7      1482.289 7        46.692               
> 2025 08 06 06 08 47.0000000  0  8                                             
G05  25042730.950 8 131600435.336 8     -2749.500 8        48.252               
G13  24776199.444 7 130199827.170 7     -2818.420 7        42.038               
G14  27101693.731 6 142418237.189 6      -527.122 6        38.669               
G15  22543155.051 7 118465114.007 7     -1161.117 7        44.177               
G18  23410792.037 7 123024548.809 7      -576.696 7        45.612               
G22  26902091.938 5 141371503.912 5        87.767 5        35.945               
G23  23566502.578 7 123842808.858 7      2365.785 7        46.830               
G24  22400018.727 7 117712901.247 7      1481.343 7        46.531               
> 2025 08 06 06 08 48.0000000  0  8                                             
G05  25043254.190 8 131603184.853 8     -2749.718 8        48.454               
G13  24776739.196 7 130202645.530 7     -2818.431 7        42.063               
G14  27101795.567 6 142418764.627 6      -527.463 6        38.536               
G15  22543378.003 7 118466275.119 7     -1161.376 7        44.078               
G18  23410900.823 7 123025125.615 7      -577.062 7        45.700               
G22  26902072.925 5 141371416.277 5        87.243 5        35.775               
G23  23566050.670 7 123840442.980 7      2365.827 7        46.714               
G24  22399736.235 7 117711419.975 7      1480.976 7        46.460               
> 2025 08 06 06 08 49.0000000  0  8                                             
G05  25043776.984 8 131605934.642 8     -2749.931 8        48.573               
G13  24777275.713 7 130205463.934 7     -2818.540 7        42.149               
G14  27101886.645 6 142419292.571 6      -528.361 6        38.036               
G15  22543600.615 7 118467436.536 7     -1161.572 7        44.251               
G18  23411010.986 7 123025703.097 7      -577.737 7        45.541               
G22  26902055.753 5 141371329.158 5        86.613 5        35.781               
G23  23565601.371 7 123838077.331 7      2365.679 7        46.619               
G24  22399455.388 7 117709939.342 7      1480.282 7        46.458               
> 2025 08 06 06 08 50.0000000  0  8                                             
G05  25044302.048 8 131608684.729 8     -2750.364 8        48.770               
G13  24777812.963 7 130208282.413 7     -2818.723 7        42.242               
G14  27101979.153 6 142419821.042 6      -528.776 6        37.834               
G15  22543824.228 7 118468598.232 7     -1161.816 7        44.151               
G18  23411120.505 7 123026281.264 7      -578.929 7        45.422               
G22  26902034.346 5 141371242.563 5        86.302 5        35.494               
G23  23565153.091 7 123835711.909 7      2365.239 7        46.820               
G24  22399174.648 7 117708459.368 7      1479.549 7        46.321               
> 2025 08 06 06 08 51.0000000  0  8                                             
G05  25044826.629 8 131611435.125 8     -2750.553 8        48.901               
G13  24778352.090 7 130211100.991 7     -2818.789 7        42.210               
G14  27102080.309 6 142420350.058 6      -529.028 6        37.460               
G15  22544046.787 7 118469760.267 7     -1162.191 7        44.122               
G18  23411231.382 7 123026860.135 7      -579.376 7        45.447               
G22  26902019.175 5 141371156.517 5        85.714 5        35.595               
G23  23564702.935 7 123833346.739 7      2365.077 7        46.721               
G24  22398892.728 7 117706980.063 7      1478.922 7        46.557               
> 2025 08 06 06 08 52.0000000  0  8                                             
G05  25045350.995 8 131614185.805 8     -2750.835 8        48.960               
G13  24778891.413 7 130213919.620 7     -2818.537 7        42.154               
G14  27102189.096 6 142420879.597 6      -529.604 6        37.559               
G15  22544268.988 7 118470922.584 7     -1162.502 7        44.317               
G18  23411342.581 7 123027439.696 7      -579.937 7        45.767               
G22  26902005.755 5 141371070.960 5        85.017 5        35.487               
G23  23564251.081 7 123830981.807 7      2364.841 7        46.697               
G24  22398614.043 7 117705501.409 7      1478.266 7        46.648               
> 2025 08 06 06 08 53.0000000  0  8                                             
G05  25045874.683 8 131616936.793 8     -2751.008 8        48.736               
G13  24779427.501 7 130216738.332 7     -2818.558 7        42.164               
G14  27102298.597 6 142421409.676 6      -529.886 6        37.448               
G15  22544487.794 7 118472085.214 7     -1162.651 7        44.541               
G18  23411454.263 7 123028019.945 7      -580.504 7        45.714               
G22  26901996.160 5 141370985.947 5        85.000 5        35.371               
G23  23563801.407 7 123828617.114 7      2364.599 7        46.575               
G24  22398334.035 7 117704023.429 7      1477.841 7        46.476               
> 2025 08 06 06 08 54.0000000  0  8                                             
G05  25046398.138 8 131619688.017 8     -2751.178 8        48.849               
G13  24779962.553 7 130219557.043 7     -2818.681 7        42.327               
G14  27102402.417 6 142421940.246 6      -530.840 6        37.330               
G15  22544706.797 7 118473248.080 7     -1163.022 7        44.787               
G18  23411564.961 7 123028600.818 7      -581.096 7        45.830               
G22  26901982.758 5 141370901.388 5        84.746 5        35.173               
G23  23563351.036 7 123826252.585 7      2364.598 7        46.407               
G24  22398053.599 7 117702546.018 7      1477.313 7        46.881               
> 2025 08 06 06 08 55.0000000  0  8                                             
G05  25046922.486 8 131622439.537 8     -2751.806 8        49.158               
G13  24780496.444 7 130222375.829 7     -2818.891 7        42.289               
G14  27102507.486 6 142422471.342 6      -531.251 6        37.224               
G15  22544926.693 7 118474411.247 7     -1163.379 7        44.943               
G18  23411676.821 7 123029182.374 7      -582.058 7        45.962               
G22  26901961.565 5 141370817.355 5        83.723 5        35.144               
G23  23562901.094 7 123823888.298 7      2364.033 7        46.370               
G24  22397771.751 7 117701069.276 7      1476.261 7        47.149               
> 2025 08 06 06 08 56.0000000  0  8                                             
G05  25047446.102 8 131625191.414 8     -2752.083 8        49.056               
G13  24781031.282 7 130225194.743 7     -2819.182 7        42.361               
G14  27102607.928 6 142423003.044 6      -531.962 6        37.308               
G15  22545148.501 7 118475574.752 7     -1163.830 7        44.886               
G18  23411788.681 7 123029764.681 7      -582.717 7        46.070               
G22  26901946.019 5 141370733.897 5        82.848 5        35.174               
G23  23562450.312 7 123821524.304 7      2363.867 7        46.408               
G24  22397489.492 7 117699593.233 7      1475.470 7        46.983               
> 2025 08 06 06 08 57.0000000  0  8                                             
G05  25047968.736 8 131627943.524 8     -2752.270 8        48.957               
G13  24781565.798 7 130228013.658 7     -2818.978 7        42.308               
G14  27102708.084 6 142423535.202 6      -532.402 6        37.076               
G15  22545370.649 7 118476738.508 7     -1163.993 7        44.599               
G18  23411898.308 7 123030347.605 7      -583.278 7        46.270               
G22  26901925.059 5 141370650.917 5        82.949 5        35.161               
G23  23562000.209 7 123819160.478 7      2363.636 7        46.351               
G24  22397206.822 7 117698117.789 7      1475.106 7        46.977               
> 2025 08 06 06 08 58.0000000  0  8                                             
G05  25048491.583 8 131630695.952 8     -2752.604 8        48.964               
G13  24782098.438 7 130230832.676 7     -2818.905 7        42.331               
G14  27102805.738 6 142424067.919 6      -533.100 6        36.739               
G15  22545592.797 7 118477902.594 7     -1164.235 7        44.362               
G18  23412007.577 7 123030931.242 7      -583.983 7        46.239               
G22  26901907.797 5 141370568.487 5        82.467 5        35.083               
G23  23561550.964 7 123816796.914 7      2363.369 7        46.352               
G24  22396925.242 7 117696643.008 7      1474.605 7        46.800               
> 2025 08 06 06 08 59.0000000  0  8                                             
G05  25049015.360 8 131633448.664 8     -2752.875 8        49.046               
G13  24782631.113 7 130233651.740 7     -2819.238 7        42.086               
G14  27102904.000 6 142424601.133 6      -533.934 6        36.646               
G15  22545813.443 7 118479066.954 7     -1164.648 7        44.259               
G18  23412117.150 7 123031515.552 7      -584.545 7        46.065               
G22  26901902.151 5 141370486.558 5        81.816 5        34.931               
G23  23561101.255 7 123814433.570 7      2363.093 7        46.443               
G24  22396644.948 7 117695168.871 7      1473.847 7        46.779               
> 2025 08 06 06 09 00.0000000  0  8                                             
G05  25049539.530 8 131636201.666 8     -2753.361 8        49.073               
G13  24783165.004 7 130236470.896 7     -2819.437 7        42.137               
G14  27103002.601 6 142425134.923 6      -534.040 6        36.217               
G15  22546036.216 7 118480231.629 7     -1164.887 7        44.399               
G18  23412226.919 7 123032100.551 7      -585.526 7        45.986               
G22  26901892.519 5 141370405.148 5        80.863 5        35.081               
G23  23560650.580 7 123812070.462 7      2362.866 7        46.430               
G24  22396365.745 7 117693695.388 7      1472.972 7        46.788               
> 2025 08 06 06 09 01.0000000  0  8                                             
G05  25050061.788 8 131638954.992 8     -2753.469 8        49.090               
G13  24783700.789 6 130239290.134 6     -2819.036 6        41.953               
G14  27103107.117 6 142425669.230 6      -534.571 6        36.022               
G15  22546256.541 7 118481396.641 7     -1165.076 7        44.268               
G18  23412338.386 7 123032686.271 7      -585.832 7        45.634               
G22  26901875.830 5 141370324.287 5        80.867 5        35.214               
G23  23560200.852 7 123809707.616 7      2362.798 7        46.342               
G24  22396086.094 7 117692222.602 7      1472.472 7        46.894               
> 2025 08 06 06 09 02.0000000  0  8                                             
G05  25050586.083 8 131641708.538 8     -2753.735 8        49.310               
G13  24784240.648 6 130242109.373 6     -2819.546 6        41.862               
G14  27103201.752 5 142426204.027 5      -535.004 5        35.764               
G15  22546478.796 7 118482561.853 7     -1165.518 7        44.098               
G18  23412451.104 7 123033272.601 7      -586.651 7        45.496               
G22  26901849.777 5 141370243.863 5        80.222 5        35.246               
G23  23559751.214 7 123807344.932 7      2362.449 7        46.243               
G24  22395806.069 7 117690750.384 7      1471.718 7        46.753               
> 2025 08 06 06 09 03.0000000  0  8                                             
G05  25051110.431 8 131644462.386 8     -2753.996 8        49.392               
G13  24784780.792 6 130244928.670 6     -2819.299 6        41.983               
G14  27103311.646 5 142426739.376 5      -535.251 5        35.097               
G15  22546703.035 7 118483727.378 7     -1165.516 7        44.213               
G18  23412563.125 7 123033859.615 7      -587.243 7        45.346               
G22  26901826.565 5 141370163.952 5        79.869 5        35.233               
G23  23559299.360 7 123804982.480 7      2362.347 7        46.191               
G24  22395524.650 7 117689278.814 7      1471.254 7        46.411               
> 2025 08 06 06 09 04.0000000  0  8                                             
G05  25051634.387 8 131647216.495 8     -2754.273 8        49.231               
G13  24785319.972 6 130247748.025 6     -2819.243 6        41.870               
G14  27103418.949 5 142427275.168 5      -536.316 5        34.592               
G15  22546927.327 7 118484893.175 7     -1165.837 7        44.313               
G18  23412675.700 7 123034447.288 7      -587.999 7        45.217               
G22  26901819.542 5 141370084.537 5        79.203 5        35.204               
G23  23558849.329 7 123802620.238 7      2362.120 7        46.259               
G24  22395243.427 7 117687807.870 7      1470.616 7        46.613               
> 2025 08 06 06 09 05.0000000  0  8                                             
G05  25052157.985 8 131649970.879 8     -2754.665 8        49.342               
G13  24785858.259 6 130250567.416 6     -2819.609 6        41.899               
G14  27103527.414 5 142427811.533 5      -536.251 5        34.640               
G15  22547150.779 7 118486059.249 7     -1166.402 7        44.498               
G18  23412787.131 7 123035035.627 7      -588.743 7        45.378               
G22  26901812.341 5 141370005.626 5        78.790 5        35.091               
G23  23558400.280 7 123800258.211 7      2361.809 7        46.416               
G24  22394962.973 7 117686337.562 7      1469.816 7        46.522               
> 2025 08 06 06 09 06.0000000  0  8                                             
G05  25052681.762 8 131652725.682 8     -2754.860 8        49.364               
G13  24786399.851 7 130253386.998 7     -2819.577 7        42.053               
G14  27103626.659 5 142428348.523 5      -537.498 5        34.277               
G15  22547374.338 7 118487225.747 7     -1166.615 7        44.492               
G18  23412900.331 7 123035624.773 7      -589.498 7        45.529               
G22  26901795.759 5 141369927.343 5        77.892 5        35.225               
G23  23557953.090 7 123797896.548 7      2361.689 7        46.602               
G24  22394684.823 7 117684868.032 7      1469.418 7        46.472               
> 2025 08 06 06 09 07.0000000  0  8                                             
G05  25053205.896 8 131655480.688 8     -2755.225 8        49.471               
G13  24786938.334 7 130256206.549 7     -2819.568 7        42.215               
G14  27103716.219 5 142428885.969 5      -537.992 5        33.869               
G15  22547594.788 7 118488392.455 7     -1166.949 7        44.651               
G18  23413013.013 7 123036214.518 7      -590.027 7        45.357               
G22  26901778.998 5 141369849.519 5        77.275 5        34.969               
G23  23557502.290 7 123795535.028 7      2361.354 7        46.711               
G24  22394408.819 7 117683399.061 7      1468.623 7        46.348               
> 2025 08 06 06 09 08.0000000  0  8                                             
G05  25053730.137 8 131658235.972 8     -2755.575 8        49.444               
G13  24787476.263 7 130259026.152 7     -2819.900 7        42.507               
G14  27103817.036 5 142429423.917 5      -538.400 5        33.453               
G15  22547815.757 7 118489559.437 7     -1167.166 7        44.827               
G18  23413122.979 7 123036804.932 7      -590.800 7        45.501               
G22  26901763.273 5 141369772.185 5        77.167 5        35.206               
G23  23557053.242 7 123793173.724 7      2361.110 7        46.639               
G24  22394131.598 7 117681930.727 7      1467.877 7        46.398               
> 2025 08 06 06 09 09.0000000  0  8                                             
G05  25054255.111 8 131660991.537 8     -2755.698 8        49.242               
G13  24788015.175 7 130261845.827 7     -2819.905 7        42.731               
G14  27103923.052 5 142429962.387 5      -539.901 5        33.341               
G15  22548035.921 7 118490726.718 7     -1167.399 7        44.761               
G18  23413236.090 7 123037396.020 7      -591.393 7        45.542               
G22  26901738.149 5 141369695.354 5        76.414 5        35.230               
G23  23556602.835 7 123790812.649 7      2361.027 7        46.654               
G24  22393853.860 7 117680463.039 7      1467.293 7        46.653               
> 2025 08 06 06 09 10.0000000  0  8                                             
G05  25054779.996 8 131663747.368 8     -2755.980 8        49.101               
G13  24788550.906 7 130264665.551 7     -2819.860 7        43.009               
G14  27104026.943 5 142430501.344 5      -539.547 5        33.016               
G15  22548257.622 7 118491894.268 7     -1167.650 7        44.792               
G18  23413350.130 7 123037987.766 7      -592.231 7        45.506               
G22  26901730.090 5 141369619.036 5        75.794 5        35.076               
G23  23556153.501 7 123788451.776 7      2360.539 7        46.385               
G24  22393574.675 7 117678995.982 7      1466.673 7        46.786               
> 2025 08 06 06 09 11.0000000  0  8                                             
G05  25055305.238 8 131666503.488 8     -2756.289 8        48.821               
G13  24789086.351 7 130267485.339 7     -2819.666 7        43.143               
G14  27104139.375 5 142431040.829 5      -539.693 5        32.713               
G15  22548478.840 7 118493062.116 7     -1167.866 7        44.847               
G18  23413463.652 7 123038580.197 7      -592.739 7        45.851               
G22  26901714.723 5 141369543.219 5        75.408 5        34.965               
G23  23555703.523 7 123786091.151 7      2360.515 7        46.561               
G24  22393293.398 7 117677529.578 7      1466.032 7        46.762               
> 2025 08 06 06 09 12.0000000  0  8                                             
G05  25055830.319 8 131669259.961 8     -2756.442 8        48.769               
G13  24789623.458 7 130270305.242 7     -2819.739 7        43.245               
G14  27104250.020 5 142431580.952 5      -540.400 5        32.363               
G15  22548700.613 7 118494230.323 7     -1168.400 7        44.881               
G18  23413575.280 7 123039173.373 7      -593.318 7        45.825               
G22  26901702.482 5 141369467.981 5        75.126 5        35.048               
G23  23555254.921 7 123783730.808 7      2360.352 7        46.550               
G24  22393011.354 7 117676063.874 7      1465.594 7        46.782               
> 2025 08 06 06 09 13.0000000  0  8                                             
G05  25056354.936 8 131672016.667 8     -2757.026 8        49.004               
G13  24790155.866 7 130273125.164 7     -2819.944 7        43.239               
G14  27104369.528 5 142432121.522 5      -541.153 5        32.350               
G15  22548924.011 7 118495398.766 7     -1168.539 7        44.952               
G18  23413687.462 7 123039767.168 7      -594.208 7        45.513               
G22  26901683.220 5 141369393.217 5        74.504 5        35.106               
G23  23554808.499 7 123781370.641 7      2359.962 7        46.343               
G24  22392731.650 7 117674598.783 7      1464.707 7        46.596               
> 2025 08 06 06 09 14.0000000  0  8                                             
G05  25056879.982 8 131674773.632 8     -2757.093 8        49.268               
G13  24790687.934 7 130275945.134 7     -2820.036 7        43.195               
G14  27104467.790 5 142432662.593 5      -541.239 5        32.676               
G15  22549144.855 7 118496567.482 7     -1168.837 7        44.999               
G18  23413799.161 7 123040361.620 7      -594.755 7        45.388               
G22  26901663.707 5 141369318.930 5        73.965 5        34.776               
G23  23554360.952 7 123779010.681 7      2359.887 7        46.146               
G24  22392454.108 7 117673134.300 7      1464.107 7        46.474               
> 2025 08 06 06 09 15.0000000  0  8                                             
G05  25057405.456 8 131677530.903 8     -2757.373 8        49.311               
G13  24791222.772 7 130278765.180 7     -2820.153 7        43.105               
G14  27104562.013 5 142433204.228 5      -541.723 5        32.715               
G15  22549368.753 7 118497736.526 7     -1169.239 7        45.042               
G18  23413912.790 7 123040956.783 7      -595.709 7        45.277               
G22  26901648.625 5 141369245.154 5        73.441 5        34.430               
G23  23553912.833 7 123776650.972 7      2359.575 7        46.262               
G24  22392177.942 7 117671670.488 7      1463.356 7        46.547               
> 2025 08 06 06 09 16.0000000  0  8                                             
G05  25057930.287 8 131680288.395 8     -2757.637 8        49.326               
G13  24791757.502 7 130281585.218 7     -2819.894 7        43.079               
G14  27104663.223 5 142433746.297 5      -542.611 5        32.782               
G15  22549592.295 7 118498905.779 7     -1169.337 7        45.227               
G18  23414025.722 7 123041552.553 7      -596.012 7        45.324               
G22  26901637.368 5 141369171.860 5        72.880 5        34.167               
G23  23553463.266 7 123774291.417 7      2359.532 7        46.362               
G24  22391900.990 7 117670207.262 7      1463.047 7        46.674               
> 2025 08 06 06 09 17.0000000  0  8                                             
G05  25058455.654 8 131683046.221 8     -2758.114 8        49.329               
G13  24792294.270 7 130284405.360 7     -2820.421 7        43.088               
G14  27104762.450 5 142434288.949 5      -543.001 5        32.645               
G15  22549815.711 7 118500075.367 7     -1170.005 7        45.242               
G18  23414138.065 7 123042149.043 7      -597.194 7        45.157               
G22  26901629.452 5 141369099.111 5        72.543 5        34.240               
G23  23553014.289 7 123771932.146 7      2359.196 7        46.371               
G24  22391622.841 7 117668744.715 7      1462.323 7        46.663               
> 2025 08 06 06 09 18.0000000  0  8                                             
G05  25058979.896 8 131685804.277 8     -2758.191 8        49.387               
G13  24792831.573 7 130287225.491 7     -2820.307 7        42.979               
G14  27104856.906 5 142434832.042 5      -543.022 5        32.188               
G15  22550035.536 7 118501245.181 7     -1170.069 7        44.989               
G18  23414251.891 7 123042746.154 7      -597.286 7        45.191               
G22  26901611.958 5 141369026.820 5        71.944 5        34.077               
G23  23552566.402 7 123769573.040 7      2358.997 7        46.332               
G24  22391341.529 7 117667282.750 7      1461.612 7        46.774               
> 2025 08 06 06 09 19.0000000  0  8                                             
G05  25059503.208 8 131688562.627 8     -2758.449 8        49.583               
G13  24793370.986 7 130290045.703 7     -2820.265 7        43.018               
G14  27104966.943 5 142435375.672 5      -543.264 5        32.332               
G15  22550258.059 7 118502415.308 7     -1170.174 7        44.908               
G18  23414366.520 7 123043343.941 7      -598.084 7        45.084               
G22  26901599.467 5 141368955.062 5        71.487 5        33.885               
G23  23552116.799 7 123767214.162 7      2358.982 7        46.236               
G24  22391060.414 7 117665821.439 7      1461.076 7        46.866               
> 2025 08 06 06 09 20.0000000  0  8                                             
G05  25060028.164 8 131691321.284 8     -2758.753 8        49.521               
G13  24793912.185 7 130292865.995 7     -2820.294 7        43.035               
G14  27105072.817 5 142435919.871 5      -545.152 5        32.324               
G15  22550480.939 7 118503585.744 7     -1170.552 7        44.874               
G18  23414481.132 7 123043942.441 7      -598.750 7        44.939               
G22  26901577.310 5 141368883.867 5        70.938 5        33.630               
G23  23551665.553 7 123764855.548 7      2358.536 7        46.070               
G24  22390781.067 7 117664360.798 7      1460.436 7        46.845               
> 2025 08 06 06 09 21.0000000  0  8                                             
G05  25060553.102 8 131694080.165 8     -2758.973 8        49.451               
G13  24794449.953 7 130295686.286 7     -2820.385 7        43.071               
G14  27105184.230 5 142436464.528 5      -545.259 5        32.341               
G15  22550703.587 7 118504756.412 7     -1170.858 7        44.919               
G18  23414594.011 7 123044541.554 7      -599.441 7        44.872               
G22  26901561.067 5 141368813.101 5        70.274 5        33.653               
G23  23551216.397 7 123762497.097 7      2358.132 7        46.200               
G24  22390504.133 7 117662900.748 7      1459.652 7        46.744               
> 2025 08 06 06 09 22.0000000  0  8                                             
G05  25061077.898 8 131696839.350 8     -2759.376 8        49.333               
G13  24794987.650 7 130298506.664 7     -2820.245 7        43.070               
G14  27105291.319 5 142437009.745 5      -545.534 5        32.251               
G15  22550928.683 7 118505927.402 7     -1171.071 7        45.160               
G18  23414708.301 7 123045141.381 7      -600.109 7        44.865               
G22  26901553.901 5 141368742.855 5        69.685 5        33.545               
G23  23550768.957 7 123760138.913 7      2358.116 7        46.260               
G24  22390227.985 7 117661441.379 7      1458.963 7        46.505               
> 2025 08 06 06 09 23.0000000  0  8                                             
G05  25061602.300 8 131699598.845 8     -2759.704 8        49.080               
G13  24795527.687 7 130301327.124 7     -2820.526 7        43.175               
G14  27105398.694 5 142437555.494 5      -546.432 5        32.331               
G15  22551155.620 7 118507098.699 7     -1171.442 7        45.167               
G18  23414821.859 7 123045741.907 7      -600.908 7        44.807               
G22  26901548.916 5 141368673.186 5        69.311 5        33.547               
G23  23550320.373 7 123757780.980 7      2357.809 7        46.367               
G24  22389951.373 7 117659982.693 7      1458.392 7        46.545               
> 2025 08 06 06 09 24.0000000  0  8                                             
G05  25062126.595 8 131702358.633 8     -2759.953 8        49.102               
G13  24796065.706 7 130304147.654 7     -2820.613 7        43.583               
G14  27105505.015 5 142438101.841 5      -547.231 5        32.278               
G15  22551381.609 7 118508270.301 7     -1171.787 7        45.289               
G18  23414935.273 7 123046343.128 7      -601.675 7        44.721               
G22  26901540.160 5 141368604.026 5        69.127 5        33.774               
G23  23549870.806 7 123755423.282 7      2357.437 7        46.274               
G24  22389673.617 7 117658524.658 7      1457.606 7        46.602               
> 2025 08 06 06 09 25.0000000  0  8                                             
G05  25062651.211 8 131705118.747 8     -2760.203 8        49.024               
G13  24796601.991 7 130306968.276 7     -2820.401 7        43.658               
G14  27105606.297 5 142438648.688 5      -546.724 5        32.184               
G15  22551606.134 7 118509442.216 7     -1172.068 7        45.387               
G18  23415051.565 7 123046945.046 7      -602.196 7        44.824               
G22  26901526.473 5 141368535.413 5        68.509 5        33.839               
G23  23549423.544 7 123753065.848 7      2357.236 7        46.248               
G24  22389395.253 7 117657067.288 7      1457.114 7        46.426               
> 2025 08 06 06 09 26.0000000  0  8                                             
G05  25063177.526 8 131707879.160 8     -2760.588 8        48.969               
G13  24797136.936 7 130309788.978 7     -2820.870 7        43.952               
G14  27105712.599 5 142439196.069 5      -547.761 5        31.798               
G15  22551830.515 7 118510614.436 7     -1172.492 7        45.625               
G18  23415166.874 7 123047547.670 7      -602.906 7        45.111               
G22  26901504.887 5 141368467.304 5        68.074 5        33.643               
G23  23548976.193 7 123750708.655 7      2357.007 7        46.225               
G24  22389116.318 7 117655610.589 7      1456.421 7        46.497               
> 2025 08 06 06 09 27.0000000  0  8                                             
G05  25063704.376 8 131710639.850 8     -2760.985 8        48.999               
G13  24797670.666 7 130312609.733 7     -2820.984 7        44.062               
G14  27105796.244 5 142439743.965 5      -547.635 5        31.615               
G15  22552053.378 7 118511786.956 7     -1172.727 7        45.653               
G18  23415281.593 7 123048150.959 7      -603.704 7        45.146               
G22  26901486.053 5 141368399.747 5        67.189 5        33.434               
G23  23548527.502 7 123748351.693 7      2356.860 7        46.196               
G24  22388836.417 7 117654154.520 7      1455.661 7        46.350               
> 2025 08 06 06 09 28.0000000  0  8                                             
G05  25064230.190 8 131713400.873 8     -2761.145 8        48.795               
G13  24798204.539 7 130315430.597 7     -2820.891 7        44.083               
G14  27105907.050 5 142440292.429 5      -547.687 5        31.251               
G15  22552274.775 7 118512959.805 7     -1172.853 7        45.666               
G18  23415397.384 7 123048754.972 7      -604.269 7        45.115               
G22  26901473.795 5 141368332.689 5        67.088 5        33.186               
G23  23548078.954 7 123745994.996 7      2356.553 7        46.213               
G24  22388558.447 7 117652699.152 7      1455.096 7        46.263               
> 2025 08 06 06 09 29.0000000  0  8                                             
G05  25064756.379 8 131716162.140 8     -2761.581 8        48.947               
G13  24798737.857 7 130318251.474 7     -2821.093 7        43.788               
G14  27106012.692 5 142440841.400 5      -549.427 5        31.262               
G15  22552495.261 7 118514132.898 7     -1173.422 7        45.597               
G18  23415512.228 7 123049359.618 7      -605.224 7        45.009               
G22  26901461.662 5 141368266.114 5        66.410 5        32.902               
G23  23547630.459 7 123743638.489 7      2356.320 7        46.324               
G24  22388284.157 7 117651244.366 7      1454.363 7        46.282               
> 2025 08 06 06 09 30.0000000  0  8                                             
G05  25065283.640 8 131718923.715 8     -2761.568 8        49.009               
G13  24799272.516 7 130321072.444 7     -2820.648 7        43.575               
G14  27106118.173 5 142441390.957 5      -549.128 5        31.181               
G15  22552718.409 7 118515306.318 7     -1173.590 7        45.604               
G18  23415625.554 7 123049964.973 7      -605.571 7        44.927               
G22  26901453.549 5 141368200.106 5        65.532 5        33.095               
G23  23547183.555 7 123741282.244 7      2356.284 7        46.369               
G24  22388011.655 7 117649790.268 7      1453.843 7        46.270               
> 2025 08 06 06 09 31.0000000  0  8                                             
G05  25065809.793 8 131721685.580 8     -2761.926 8        49.198               
G13  24799804.459 7 130323893.482 7     -2821.096 7        43.510               
G14  27106232.534 5 142441941.012 5      -550.552 5        31.594               
G15  22552940.664 7 118516480.047 7     -1173.726 7        45.620               
G18  23415740.559 7 123050571.011 7      -606.400 7        44.691               
G22  26901447.188 5 141368134.631 5        65.497 5        33.338               
G23  23546735.990 7 123738926.232 7      2356.025 7        46.388               
G24  22387735.989 7 117648336.832 7      1453.147 7        46.149               
> 2025 08 06 06 09 32.0000000  0  8                                             
G05  25066335.947 8 131724447.742 8     -2762.190 8        49.259               
G13  24800339.440 7 130326714.597 7     -2821.002 7        43.430               
G14  27106346.539 5 142442491.610 5      -550.819 5        31.770               
G15  22553161.775 7 118517654.075 7     -1174.101 7        45.588               
G18  23415856.082 7 123051177.738 7      -607.047 7        44.942               
G22  26901435.644 5 141368069.644 5        65.216 5        33.430               
G23  23546286.905 7 123736570.458 7      2355.683 7        46.546               
G24  22387461.039 7 117646884.050 7      1452.601 7        46.365               
> 2025 08 06 06 09 33.0000000  0  8                                             
G05  25066860.456 8 131727210.207 8     -2762.702 8        49.196               
G13  24800877.173 7 130329535.786 7     -2821.172 7        43.389               
G14  27106438.028 5 142443042.724 5      -551.871 5        32.016               
G15  22553382.261 7 118518828.404 7     -1174.631 7        45.558               
G18  23415973.178 7 123051785.161 7      -607.882 7        45.061               
G22  26901423.172 5 141368005.210 5        63.982 5        33.804               
G23  23545838.339 7 123734214.928 7      2355.347 7        46.864               
G24  22387183.050 7 117645431.931 7      1451.582 7        46.309               
> 2025 08 06 06 09 34.0000000  0  8                                             
G05  25067386.020 8 131729972.939 8     -2762.976 8        49.317               
G13  24801414.083 7 130332357.008 7     -2821.598 7        43.215               
G14  27106532.627 5 142443594.360 5      -552.365 5        31.834               
G15  22553604.981 7 118520003.015 7     -1174.902 7        45.715               
G18  23416089.058 7 123052393.233 7      -608.578 7        44.970               
G22  26901409.627 5 141367941.239 5        64.073 5        33.785               
G23  23545389.469 7 123731859.611 7      2354.887 7        46.790               
G24  22386903.847 7 117643980.430 7      1451.216 7        46.284               
> 2025 08 06 06 09 35.0000000  0  8                                             
G05  25067912.102 8 131732736.007 8     -2763.435 8        49.645               
G13  24801953.460 7 130335178.348 7     -2821.548 7        43.139               
G14  27106620.113 5 142444146.555 5      -551.846 5        31.420               
G15  22553828.540 7 118521177.966 7     -1175.033 7        45.548               
G18  23416206.243 7 123053002.047 7      -609.355 7        45.040               
G22  26901400.782 5 141367877.874 5        63.108 5        34.065               
G23  23544941.422 7 123729504.575 7      2354.876 7        46.919               
G24  22386627.985 7 117642529.638 7      1450.323 7        46.427               
> 2025 08 06 06 09 36.0000000  0  8                                             
G05  25068437.541 8 131735499.359 8     -2763.632 8        49.810               
G13  24802495.892 7 130337999.730 7     -2821.367 7        42.994               
G14  27106710.745 5 142444699.289 5      -553.262 5        31.346               
G15  22554052.939 7 118522353.209 7     -1175.478 7        45.561               
G18  23416322.642 7 123053611.535 7      -609.847 7        45.058               
G22  26901391.561 5 141367815.004 5        62.635 5        34.222               
G23  23544493.195 7 123727149.762 7      2354.586 7        46.902               
G24  22386352.319 7 117641079.483 7      1449.989 7        46.295               
> 2025 08 06 06 09 37.0000000  0  8                                             
G05  25068963.640 8 131738263.018 8     -2763.949 8        49.997               
G13  24803036.912 7 130340821.200 7     -2821.605 7        43.364               
G14  27106824.088 5 142445252.545 5      -553.523 5        31.007               
G15  22554276.177 7 118523528.767 7     -1175.876 7        45.453               
G18  23416439.666 7 123054221.723 7      -610.710 7        45.285               
G22  26901383.896 5 141367752.656 5        62.237 5        34.479               
G23  23544044.986 7 123724795.214 7      2354.269 7        46.765               
G24  22386077.083 7 117639630.014 7      1449.087 7        46.258               
> 2025 08 06 06 09 38.0000000  0  8                                             
G05  25069489.293 8 131741026.998 8     -2764.097 8        50.115               
G13  24803575.520 7 130343642.753 7     -2821.678 7        43.438               
G14  27106944.329 5 142445806.388 5      -553.791 5        30.925               
G15  22554502.131 7 118524704.643 7     -1176.039 7        45.349               
G18  23416555.672 7 123054832.621 7      -611.300 7        45.232               
G22  26901368.671 5 141367690.867 5        61.354 5        34.501               
G23  23543597.993 7 123722440.930 7      2354.182 7        46.594               
G24  22385802.793 7 117638181.212 7      1448.401 7        45.997               
> 2025 08 06 06 09 39.0000000  0  8                                             
G05  25070014.571 8 131743791.280 8     -2764.548 8        49.974               
G13  24804113.521 7 130346464.392 7     -2821.824 7        43.549               
G14  27107050.757 5 142446360.787 5      -555.211 5        31.114               
G15  22554729.800 7 118525880.831 7     -1176.319 7        45.366               
G18  23416673.072 7 123055444.216 7      -612.127 7        44.984               
G22  26901356.234 5 141367629.630 5        61.070 5        34.521               
G23  23543149.873 7 123720086.894 7      2353.888 7        46.871               
G24  22385528.486 7 117636733.089 7      1447.732 7        45.898               
> 2025 08 06 06 09 40.0000000  0  8                                             
G05  25070540.242 8 131746555.853 8     -2764.564 8        49.971               
G13  24804649.770 7 130349286.100 7     -2821.731 7        43.726               
G14  27107157.703 5 142446915.698 5      -555.241 5        31.358               
G15  22554954.789 7 118527057.294 7     -1176.507 7        45.306               
G18  23416787.773 7 123056056.482 7      -612.514 7        44.995               
G22  26901346.085 5 141367568.882 5        60.742 5        34.780               
G23  23542702.415 7 123717733.080 7      2353.842 7        46.894               
G24  22385252.052 7 117635285.596 7      1447.292 7        45.893               
> 2025 08 06 06 09 41.0000000  0  8                                             
G05  25071066.699 8 131749320.717 8     -2765.159 8        49.991               
G13  24805186.841 7 130352107.885 7     -2822.064 7        43.668               
G14  27107262.237 5 142447471.145 5      -556.115 5        32.017               
G15  22555179.152 7 118528234.057 7     -1176.889 7        45.383               
G18  23416903.975 7 123056669.434 7      -613.340 7        44.989               
G22  26901341.403 5 141367508.655 5        60.243 5        34.889               
G23  23542255.725 7 123715379.508 7      2353.253 7        46.944               
G24  22384976.565 7 117633838.761 7      1446.578 7        45.774               
> 2025 08 06 06 09 42.0000000  0  8                                             
G05  25071592.799 8 131752085.861 8     -2765.370 8        50.150               
G13  24805723.198 7 130354929.705 7     -2822.012 7        43.656               
G14  27107362.982 5 142448027.105 5      -556.102 5        32.497               
G15  22555402.747 7 118529411.104 7     -1177.293 7        45.310               
G18  23417021.661 7 123057283.049 7      -613.932 7        45.144               
G22  26901331.111 5 141367448.979 5        59.415 5        35.052               
G23  23541806.855 7 123713026.152 7      2353.162 7        47.041               
G24  22384698.684 7 117632392.561 7      1445.779 7        45.891               
> 2025 08 06 06 09 43.0000000  0  8                                             
G05  25072119.935 8 131754851.317 8     -2765.560 8        50.175               
G13  24806257.392 7 130357751.603 7     -2821.753 7        43.780               
G14  27107469.196 5 142448583.610 5      -556.776 5        32.892               
G15  22555625.699 7 118530588.455 7     -1177.598 7        45.386               
G18  23417137.094 7 123057897.365 7      -614.946 7        45.157               
G22  26901313.581 5 141367389.822 5        58.843 5        35.043               
G23  23541359.415 7 123710673.048 7      2352.898 7        46.881               
G24  22384423.233 7 117630947.035 7      1445.162 7        45.728               
> 2025 08 06 06 09 44.0000000  0  8                                             
G05  25072646.678 8 131757616.983 8     -2765.728 8        50.253               
G13  24806789.460 7 130360573.497 7     -2821.889 7        43.973               
G14  27107574.141 5 142449140.591 5      -557.107 5        33.124               
G15  22555849.330 7 118531766.031 7     -1177.610 7        45.310               
G18  23417251.903 7 123058512.291 7      -615.297 7        44.862               
G22  26901297.981 5 141367331.119 5        58.853 5        35.163               
G23  23540911.653 7 123708320.109 7      2352.869 7        46.720               
G24  22384149.283 7 117629502.087 7      1444.624 7        45.701               
> 2025 08 06 06 09 45.0000000  0  8                                             
G05  25073172.724 8 131760382.938 8     -2766.135 8        50.056               
G13  24807323.637 7 130363395.458 7     -2821.961 7        43.987               
G14  27107676.137 5 142449698.078 5      -557.843 5        33.171               
G15  22556072.228 7 118532943.907 7     -1178.228 7        45.303               
G18  23417367.623 7 123059127.902 7      -616.063 7        44.843               
G22  26901285.080 5 141367272.922 5        57.856 5        35.140               
G23  23540464.642 7 123705967.405 7      2352.473 7        46.740               
G24  22383874.744 7 117628057.782 7      1443.889 7        45.709               
> 2025 08 06 06 09 46.0000000  0  8                                             
G05  25073698.896 8 131763149.206 8     -2766.373 8        50.184               
G13  24807857.278 7 130366217.516 7     -2822.070 7        43.756               
G14  27107779.742 5 142450256.110 5      -558.485 5        33.418               
G15  22556296.931 7 118534122.100 7     -1178.491 7        45.187               
G18  23417486.416 7 123059744.222 7      -616.573 7        44.765               
G22  26901273.376 5 141367215.273 5        57.344 5        35.329               
G23  23540016.772 7 123703614.960 7      2352.150 7        46.732               
G24  22383599.596 7 117626614.162 7      1443.282 7        45.614               
> 2025 08 06 06 09 47.0000000  0  8                                             
G05  25074225.353 8 131765915.684 8     -2766.543 8        50.302               
G13  24808393.688 7 130369039.555 7     -2821.912 7        43.779               
G14  27107883.239 5 142450814.615 5      -558.590 5        33.520               
G15  22556521.151 7 118535300.511 7     -1178.552 7        45.330               
G18  23417606.317 7 123060361.142 7      -617.231 7        44.602               
G22  26901264.584 5 141367158.058 5        56.638 5        35.505               
G23  23539568.474 7 123701262.671 7      2352.147 7        46.600               
G24  22383325.450 7 117625171.116 7      1442.804 7        45.664               
> 2025 08 06 06 09 48.0000000  0  8                                             
G05  25074751.899 8 131768682.495 8     -2766.933 8        50.277               
G13  24808931.259 7 130371861.709 7     -2822.130 7        43.688               
G14  27107986.772 5 142451373.687 5      -558.846 5        33.607               
G15  22556744.836 7 118536479.273 7     -1178.747 7        45.301               
G18  23417723.538 7 123060978.797 7      -618.025 7        44.361               
G22  26901258.169 5 141367101.422 5        55.937 5        35.788               
G23  23539120.980 7 123698910.665 7      2352.019 7        46.593               
G24  22383049.981 7 117623728.764 7      1442.122 7        45.483               
> 2025 08 06 06 09 49.0000000  0  8                                             
G05  25075278.249 8 131771449.592 8     -2767.418 8        50.122               
G13  24809472.959 7 130374683.911 7     -2822.313 7        43.637               
G14  27108093.933 5 142451933.267 5      -559.932 5        33.652               
G15  22556966.626 7 118537658.312 7     -1179.208 7        45.055               
G18  23417841.563 7 123061597.129 7      -618.591 7        44.431               
G22  26901247.358 5 141367045.314 5        55.804 5        35.933               
G23  23538674.005 7 123696558.890 7      2351.447 7        46.284               
G24  22382775.030 7 117622287.056 7      1441.291 7        45.303               
> 2025 08 06 06 09 50.0000000  0  8                                             
G05  25075804.546 8 131774217.069 8     -2767.537 8        50.119               
G13  24810015.087 7 130377506.265 7     -2822.269 7        43.817               
G14  27108198.663 5 142452493.486 5      -560.752 5        33.620               
G15  22557190.203 7 118538837.736 7     -1179.563 7        45.029               
G18  23417959.355 7 123062216.229 7      -619.427 7        44.273               
G22  26901236.905 5 141366989.808 5        55.749 5        35.989               
G23  23538227.351 7 123694207.450 7      2351.470 7        46.285               
G24  22382502.403 7 117620846.091 7      1440.789 7        45.417               
> 2025 08 06 06 09 51.0000000  0  8                                             
G05  25076330.681 8 131776984.793 8     -2767.890 8        50.017               
G13  24810556.894 7 130380328.650 7     -2822.578 7        44.022               
G14  27108303.232 5 142453054.213 5      -561.122 5        33.730               
G15  22557414.853 7 118540017.422 7     -1179.936 7        45.077               
G18  23418077.863 7 123062835.981 7      -620.339 7        44.380               
G22  26901218.536 6 141366934.753 6        54.901 6        36.269               
G23  23537779.785 7 123691856.200 7      2351.044 7        46.560               
G24  22382228.042 7 117619405.746 7      1440.002 7        45.469               
> 2025 08 06 06 09 52.0000000  0  8                                             
G05  25076857.496 8 131779752.797 8     -2768.251 8        50.232               
G13  24811097.932 7 130383151.081 7     -2822.514 7        44.096               
G14  27108411.001 5 142453615.437 5      -561.736 5        33.924               
G15  22557641.378 7 118541197.400 7     -1180.196 7        44.868               
G18  23418194.887 7 123063456.402 7      -620.837 7        44.404               
G22  26901203.633 6 141366880.229 6        54.162 6        36.054               
G23  23537332.416 7 123689505.179 7      2350.873 7        46.531               
G24  22381955.628 7 117617966.041 7      1439.253 7        45.551               
> 2025 08 06 06 09 53.0000000  0  8                                             
G05  25077384.757 8 131782521.103 8     -2768.401 8        49.902               
G13  24811636.201 7 130385973.574 7     -2822.593 7        44.285               
G14  27108514.998 5 142454177.206 5      -562.460 5        34.167               
G15  22557867.547 7 118542377.684 7     -1180.471 7        45.138               
G18  23418314.198 7 123064077.511 7      -621.487 7        44.401               
G22  26901196.610 5 141366826.207 5        53.875 5        35.799               
G23  23536886.155 7 123687154.408 7      2350.819 7        46.386               
G24  22381682.715 7 117616527.001 7      1438.742 7        45.363               
> 2025 08 06 06 09 54.0000000  0  8                                             
G05  25077911.965 8 131785289.704 8     -2768.774 8        50.252               
G13  24812173.397 7 130388796.140 7     -2822.573 7        44.630               
G14  27108627.341 5 142454739.524 5      -562.604 5        34.044               
G15  22558091.428 7 118543558.273 7     -1180.799 7        45.358               
G18  23418431.544 7 123064699.314 7      -622.051 7        44.516               
G22  26901188.534 5 141366772.736 5        53.001 5        35.689               
G23  23536437.232 7 123684803.874 7      2350.406 7        46.677               
G24  22381409.069 7 117615088.630 7      1438.241 7        45.449               
> 2025 08 06 06 09 55.0000000  0  8                                             
G05  25078438.565 8 131788058.585 8     -2768.906 8        50.181               
G13  24812711.451 7 130391618.759 7     -2822.540 7        44.697               
G14  27108739.219 5 142455302.355 5      -562.978 5        34.422               
G15  22558313.414 7 118544739.146 7     -1180.807 7        45.362               
G18  23418550.624 7 123065321.787 7      -622.791 7        44.495               
G22  26901187.622 5 141366719.769 5        52.915 5        35.988               
G23  23535989.774 7 123682453.566 7      2350.263 7        46.652               
G24  22381135.065 7 117613650.888 7      1437.429 7        45.343               
> 2025 08 06 06 09 56.0000000  0  8                                             
G05  25078965.862 8 131790827.701 8     -2769.165 8        50.203               
G13  24813245.896 7 130394441.392 7     -2822.740 7        44.717               
G14  27108846.719 5 142455865.662 5      -563.348 5        34.775               
G15  22558536.938 7 118545920.264 7     -1181.175 7        44.966               
G18  23418669.453 7 123065944.892 7      -623.452 7        44.059               
G22  26901180.886 6 141366667.286 6        52.256 6        36.249               
G23  23535542.387 7 123680103.450 7      2350.124 7        46.470               
G24  22380860.043 7 117612213.753 7      1436.889 7        45.479               
> 2025 08 06 06 09 57.0000000  0  8                                             
G05  25079492.033 8 131793597.099 8     -2769.568 8        50.165               
G13  24813779.858 7 130397264.096 7     -2822.598 7        44.665               
G14  27108948.769 5 142456429.482 5      -564.243 5        35.088               
G15  22558759.497 7 118547101.674 7     -1181.513 7        44.825               
G18  23418788.746 7 123066568.676 7      -623.991 7        44.068               
G22  26901170.003 6 141366615.298 6        51.824 6        36.527               
G23  23535095.232 7 123677753.559 7      2349.698 7        46.673               
G24  22380586.557 7 117610777.261 7      1436.309 7        45.569               
> 2025 08 06 06 09 58.0000000  0  8                                             
G05  25080018.722 8 131796366.838 8     -2769.918 8        50.106               
G13  24814315.357 7 130400086.926 7     -2822.947 7        44.623               
G14  27109058.270 5 142456993.908 5      -564.865 5        35.539               
G15  22558983.092 7 118548283.424 7     -1181.858 7        44.745               
G18  23418908.075 7 123067193.181 7      -624.659 7        43.920               
G22  26901158.013 6 141366563.878 6        51.156 6        36.699               
G23  23534647.167 7 123675403.952 7      2349.402 7        46.606               
G24  22380311.446 7 117609341.467 7      1435.485 7        45.324               
> 2025 08 06 06 09 59.0000000  0  8                                             
G05  25080546.180 8 131799136.858 8     -2770.261 8        50.017               
G13  24814849.730 7 130402909.824 7     -2822.757 7        44.373               
G14  27109167.075 5 142457558.862 5      -564.989 5        35.969               
G15  22559204.721 7 118549465.463 7     -1182.208 7        44.518               
G18  23419026.333 7 123067818.367 7      -625.473 7        44.132               
G22  26901147.506 6 141366512.981 6        50.678 6        36.662               
G23  23534200.977 7 123673054.578 7      2349.111 7        46.521               
G24  22380039.783 7 117607906.323 7      1434.921 7        45.051               
> 2025 08 06 06 10 00.0000000  0  8                                             
G05  25081072.512 8 131801907.218 8     -2770.460 8        49.896               
G13  24815383.370 7 130405732.820 7     -2823.035 7        44.444               
G14  27109273.360 6 142458124.379 6      -565.880 6        36.334               
G15  22559427.637 7 118550647.847 7     -1182.580 7        44.323               
G18  23419145.322 7 123068444.282 7      -626.186 7        44.406               
G22  26901141.627 6 141366462.643 6        49.887 6        37.153               
G23  23533755.145 7 123670705.492 7      2349.019 7        46.625               
G24  22379769.032 7 117606471.881 7      1434.073 7        44.808               
> 2025 08 06 06 10 01.0000000  0  8                                             
G05  25081599.291 8 131804677.871 8     -2770.861 8        49.762               
G13  24815917.529 7 130408555.888 7     -2823.049 7        44.408               
G14  27109381.503 6 142458690.428 6      -566.382 6        36.723               
G15  22559654.109 7 118551830.539 7     -1182.894 7        44.046               
G18  23419263.901 7 123069070.882 7      -627.038 7        44.282               
G22  26901128.512 6 141366412.817 6        49.490 6        37.426               
G23  23533307.901 7 123668356.642 7      2348.816 7        46.717               
G24  22379497.673 7 117605038.100 7      1433.451 7        44.899               
> 2025 08 06 06 10 02.0000000  0  8                                             
G05  25082127.249 8 131807448.792 8     -2770.971 8        49.596               
G13  24816451.438 7 130411378.997 7     -2823.001 7        44.093               
G14  27109488.878 6 142459256.993 6      -566.770 6        37.288               
G15  22559880.778 7 118553013.488 7     -1183.070 7        43.890               
G18  23419382.534 7 123069698.145 7      -627.583 7        43.952               
G22  26901115.414 6 141366363.487 6        49.128 6        37.532               
G23  23532859.514 7 123666008.011 7      2348.253 7        46.255               
G24  22379224.634 7 117603604.949 7      1432.873 7        44.955               
> 2025 08 06 06 10 03.0000000  0  8                                             
G05  25082654.135 8 131810220.025 8     -2771.317 8        49.551               
G13  24816987.794 7 130414202.187 7     -2823.230 7        43.988               
G14  27109590.874 6 142459824.078 6      -567.459 6        37.098               
G15  22560107.089 7 118554196.758 7     -1183.258 7        43.822               
G18  23419501.720 7 123070326.104 7      -628.450 7        43.852               
G22  26901102.673 6 141366314.709 6        48.523 6        37.553               
G23  23532411.806 7 123663659.634 7      2348.510 7        45.947               
G24  22378949.916 7 117602172.474 7      1432.081 7        44.950               
> 2025 08 06 06 10 04.0000000  0  8                                             
G05  25083181.057 8 131812991.547 8     -2771.853 8        49.608               
G13  24817526.599 7 130417025.433 7     -2823.450 7        43.979               
G14  27109697.123 6 142460391.748 6      -567.826 6        37.606               
G15  22560333.293 7 118555380.324 7     -1183.914 7        43.809               
G18  23419620.924 7 123070954.753 7      -628.970 7        43.727               
G22  26901096.044 6 141366266.446 6        47.844 6        37.555               
G23  23531966.456 7 123661311.493 7      2348.053 7        45.685               
G24  22378675.519 7 117600740.644 7      1431.444 7        44.703               
> 2025 08 06 06 10 05.0000000  0  8                                             
G05  25083708.443 8 131815763.327 8     -2771.919 8        49.398               
G13  24818065.404 7 130419848.718 7     -2823.205 7        43.787               
G14  27109807.947 6 142460959.877 6      -568.221 6        37.580               
G15  22560559.640 7 118556564.149 7     -1183.911 7        43.980               
G18  23419742.416 7 123071584.052 7      -629.702 7        44.019               
G22  26901090.165 6 141366218.666 6        47.559 6        37.773               
G23  23531519.123 7 123658963.563 7      2347.750 7        45.917               
G24  22378399.997 7 117599309.441 7      1430.849 7        44.711               
> 2025 08 06 06 10 06.0000000  0  8                                             
G05  25084236.473 8 131818535.436 8     -2772.331 8        49.313               
G13  24818606.674 7 130422672.097 7     -2823.499 7        43.762               
G14  27109921.791 6 142461528.586 6      -569.028 6        37.806               
G15  22560788.185 7 118557748.315 7     -1184.467 7        44.322               
G18  23419863.800 7 123072214.063 7      -630.491 7        44.129               
G22  26901084.875 6 141366171.428 6        46.913 6        37.891               
G23  23531071.325 7 123656615.910 7      2347.338 7        45.952               
G24  22378127.154 7 117597878.915 7      1430.029 7        44.848               
> 2025 08 06 06 10 07.0000000  0  8                                             
G05  25084764.217 8 131821307.778 8     -2772.445 8        49.108               
G13  24819148.302 7 130425495.470 7     -2823.377 7        43.891               
G14  27110030.613 6 142462097.748 6      -569.495 6        37.898               
G15  22561015.532 7 118558932.719 7     -1184.496 7        44.596               
G18  23419984.148 7 123072844.710 7      -630.872 7        44.295               
G22  26901076.030 6 141366124.689 6        46.826 6        38.021               
G23  23530624.403 7 123654268.441 7      2347.295 7        45.708               
G24  22377854.491 7 117596449.008 7      1429.557 7        44.927               
> 2025 08 06 06 10 08.0000000  0  8                                             
G05  25085291.925 8 131824080.417 8     -2772.724 8        49.163               
G13  24819689.108 7 130428318.915 7     -2823.350 7        43.938               
G14  27110140.436 6 142462667.472 6      -569.936 6        38.120               
G15  22561242.701 7 118560117.415 7     -1184.885 7        44.860               
G18  23420105.872 7 123073476.048 7      -631.520 7        44.257               
G22  26901068.865 6 141366078.462 6        45.997 6        38.130               
G23  23530179.035 7 123651921.222 7      2347.039 7        45.818               
G24  22377585.116 7 117595019.750 7      1429.038 7        44.726               
> 2025 08 06 06 10 09.0000000  0  8                                             
G05  25085819.025 8 131826853.353 8     -2773.031 8        49.388               
G13  24820227.502 7 130431142.434 7     -2823.344 7        44.007               
G14  27110248.222 6 142463237.734 6      -570.549 6        38.359               
G15  22561468.762 7 118561302.425 7     -1185.188 7        45.012               
G18  23420224.290 7 123074108.079 7      -632.338 7        43.990               
G22  26901060.502 6 141366032.777 6        45.365 6        38.163               
G23  23529732.667 7 123649574.252 7      2346.872 7        45.904               
G24  22377315.615 7 117593591.165 7      1428.307 7        44.725               
> 2025 08 06 06 10 10.0000000  0  8                                             
G05  25086347.287 8 131829626.574 8     -2773.389 8        49.595               
G13  24820765.520 7 130433966.006 7     -2823.663 7        44.347               
G14  27110354.972 6 142463808.530 6      -570.987 6        38.156               
G15  22561694.216 7 118562487.711 7     -1185.429 7        45.159               
G18  23420343.977 7 123074740.780 7      -633.220 7        44.007               
G22  26901052.318 6 141365987.599 6        44.933 6        38.188               
G23  23529283.994 7 123647227.504 7      2346.537 7        46.122               
G24  22377043.899 7 117592163.216 7      1427.493 7        44.670               
> 2025 08 06 06 10 11.0000000  0  8                                             
G05  25086877.211 8 131832400.082 8     -2773.697 8        49.444               
G13  24821304.218 7 130436789.652 7     -2823.758 7        44.322               
G14  27110460.613 6 142464379.859 6      -571.738 6        38.290               
G15  22561918.919 7 118563673.311 7     -1185.719 7        45.423               
G18  23420462.412 7 123075374.185 7      -633.643 7        44.072               
G22  26901041.489 6 141365942.948 6        44.394 6        38.468               
G23  23528837.912 7 123644881.005 7      2346.478 7        46.380               
G24  22376769.752 7 117590735.943 7      1426.920 7        44.730               
> 2025 08 06 06 10 12.0000000  0  8                                             
G05  25087405.491 8 131835173.881 8     -2773.930 8        49.594               
G13  24821840.914 7 130439613.353 7     -2823.848 7        44.279               
G14  27110565.612 6 142464951.706 6      -571.844 6        38.443               
G15  22562144.730 7 118564859.195 7     -1186.011 7        45.775               
G18  23420580.634 7 123076008.265 7      -634.349 7        43.920               
G22  26901031.697 6 141365898.829 6        44.060 6        38.561               
G23  23528391.829 7 123642534.746 7      2346.189 7        46.283               
G24  22376497.017 7 117589309.311 7      1426.202 7        44.580               
> 2025 08 06 06 10 13.0000000  0  8                                             
G05  25087933.341 8 131837947.925 8     -2774.189 8        49.621               
G13  24822375.448 7 130442437.069 7     -2823.800 7        44.372               
G14  27110674.148 6 142465524.050 6      -572.639 6        38.645               
G15  22562369.307 7 118566045.336 7     -1186.188 7        45.879               
G18  23420701.411 7 123076642.981 7      -635.073 7        43.788               
G22  26901023.495 6 141365855.170 6        43.498 6        38.519               
G23  23527943.478 7 123640188.677 7      2345.885 7        45.938               
G24  22376225.962 7 117587883.284 7      1425.691 7        44.817               
> 2025 08 06 06 10 14.0000000  0  8                                             
G05  25088461.657 8 131840722.213 8     -2774.430 8        49.555               
G13  24822908.856 7 130445260.808 7     -2823.568 7        44.313               
G14  27110784.060 6 142466096.849 6      -572.875 6        38.620               
G15  22562594.243 7 118567231.719 7     -1186.366 7        45.702               
G18  23420823.903 7 123077278.324 7      -635.645 7        43.800               
G22  26901014.150 6 141365812.007 6        43.345 6        38.544               
G23  23527496.520 7 123637842.798 7      2345.899 7        45.755               
G24  22375956.908 7 117586457.864 7      1425.084 7        44.920               
> 2025 08 06 06 10 15.0000000  0  8                                             
G05  25088990.312 8 131843496.750 8     -2774.643 8        49.558               
G13  24823442.925 7 130448084.560 7     -2823.907 7        44.237               
G14  27110894.866 6 142466670.154 6      -573.451 6        38.574               
G15  22562820.161 7 118568418.354 7     -1186.822 7        45.713               
G18  23420946.985 7 123077914.310 7      -636.294 7        43.693               
G22  26901009.200 6 141365769.294 6        42.732 6        38.347               
G23  23527051.027 7 123635497.110 7      2345.569 7        45.823               
G24  22375686.621 7 117585033.062 7      1424.426 7        44.882               
> 2025 08 06 06 10 16.0000000  0  8                                             
G05  25089518.699 8 131846271.622 8     -2774.944 8        49.766               
G13  24823975.208 7 130450908.439 7     -2823.795 7        44.269               
G14  27111005.833 6 142467244.035 6      -574.026 6        38.662               
G15  22563046.954 7 118569605.331 7     -1187.155 7        45.656               
G18  23421069.834 7 123078551.020 7      -637.218 7        43.917               
G22  26900998.568 6 141365727.170 6        41.886 6        38.600               
G23  23526603.855 7 123633151.707 7      2345.189 7        45.947               
G24  22375417.067 7 117583608.951 7      1423.737 7        44.888               
> 2025 08 06 06 10 17.0000000  0  8                                             
G05  25090045.889 8 131849046.776 8     -2775.227 8        49.910               
G13  24824513.226 7 130453732.369 7     -2824.160 7        44.179               
G14  27111114.745 6 142467818.445 6      -574.652 6        38.860               
G15  22563273.605 7 118570792.600 7     -1187.408 7        45.610               
G18  23421189.860 7 123079188.410 7      -637.655 7        44.136               
G22  26900989.919 6 141365685.553 6        41.562 6        38.793               
G23  23526157.808 7 123630806.547 7      2345.118 7        45.931               
G24  22375147.298 7 117582185.499 7      1423.112 7        44.768               
> 2025 08 06 06 10 18.0000000  0  8                                             
G05  25090573.722 8 131851822.241 8     -2775.584 8        49.998               
G13  24825053.764 7 130456556.378 7     -2824.044 7        44.354               
G14  27111221.762 6 142468393.404 6      -575.200 6        38.809               
G15  22563500.685 7 118571980.186 7     -1187.641 7        45.607               
G18  23421311.602 7 123079826.501 7      -638.184 7        44.234               
G22  26900980.896 6 141365644.469 6        40.964 6        38.845               
G23  23525712.637 7 123628461.645 7      2344.959 7        45.906               
G24  22374877.691 7 117580762.698 7      1422.310 7        44.922               
> 2025 08 06 06 10 19.0000000  0  8                                             
G05  25091100.251 8 131854597.949 8     -2775.828 8        49.677               
G13  24825595.017 7 130459380.416 7     -2824.015 7        44.546               
G14  27111330.710 6 142468968.872 6      -575.386 6        38.933               
G15  22563726.906 7 118573168.029 7     -1188.057 7        45.453               
G18  23421431.485 7 123080465.238 7      -639.121 7        44.047               
G22  26900973.319 6 141365603.865 6        40.301 6        38.923               
G23  23525268.128 7 123626116.941 7      2344.681 7        46.109               
G24  22374605.474 7 117579340.541 7      1421.986 7        45.138               
> 2025 08 06 06 10 20.0000000  0  8                                             
G05  25091627.976 8 131857373.967 8     -2776.136 8        49.556               
G13  24826135.769 7 130462204.524 7     -2824.039 7        44.395               
G14  27111436.566 6 142469544.872 6      -576.206 6        38.968               
G15  22563952.449 7 118574356.175 7     -1188.265 7        45.558               
G18  23421553.012 7 123081104.673 7      -639.738 7        43.800               
G22  26900965.403 6 141365563.800 6        39.776 6        38.960               
G23  23524822.385 7 123623772.489 7      2344.338 7        45.793               
G24  22374334.490 7 117577919.041 7      1421.272 7        44.832               
> 2025 08 06 06 10 21.0000000  0  8                                             
G05  25092154.970 8 131860150.210 8     -2776.461 8        49.569               
G13  24826676.325 7 130465028.634 7     -2824.191 7        44.594               
G14  27111547.890 6 142470121.327 6      -576.937 6        38.864               
G15  22564176.044 7 118575544.558 7     -1188.660 7        45.630               
G18  23421674.540 7 123081744.728 7      -640.473 7        43.848               
G22  26900959.399 6 141365524.193 6        39.265 6        39.013               
G23  23524375.802 7 123621428.220 7      2344.118 7        46.005               
G24  22374064.739 7 117576498.135 7      1420.488 7        44.873               
> 2025 08 06 06 10 22.0000000  0  8                                             
G05  25092682.892 8 131862926.744 8     -2776.636 8        49.500               
G13  24827216.470 7 130467852.803 7     -2824.247 7        44.868               
G14  27111657.731 6 142470698.322 6      -577.132 6        39.090               
G15  22564399.693 7 118576733.244 7     -1188.797 7        45.623               
G18  23421798.783 7 123082385.464 7      -641.124 7        43.654               
G22  26900954.003 6 141365485.113 6        38.922 6        39.306               
G23  23523929.041 7 123619084.185 7      2343.961 7        45.729               
G24  22373794.041 7 117575077.884 7      1419.917 7        44.835               
> 2025 08 06 06 10 23.0000000  0  8                                             
G05  25093210.993 8 131865703.542 8     -2777.141 8        49.089               
G13  24827756.186 7 130470677.008 7     -2824.364 7        44.921               
G14  27111768.929 6 142471275.820 6      -577.608 6        38.996               
G15  22564626.022 7 118577922.188 7     -1189.012 7        45.435               
G18  23421920.471 7 123083026.845 7      -641.729 7        43.237               
G22  26900944.746 6 141365446.513 6        38.359 6        39.440               
G23  23523482.994 7 123616740.362 7      2343.655 7        45.701               
G24  22373523.915 7 117573658.259 7      1419.180 7        44.573               
> 2025 08 06 06 10 24.0000000  0  8                                             
G05  25093740.488 8 131868480.650 8     -2777.272 8        49.014               
G13  24828295.455 7 130473501.287 7     -2824.189 7        45.011               
G14  27111884.363 6 142471853.867 6      -578.478 6        39.351               
G15  22564851.761 7 118579111.457 7     -1189.444 7        45.310               
G18  23422043.660 7 123083668.938 7      -642.405 7        43.463               
G22  26900932.613 6 141365408.460 6        37.871 6        39.602               
G23  23523036.680 7 123614396.802 7      2343.560 7        45.872               
G24  22373253.932 7 117572239.308 7      1418.715 7        44.539               
> 2025 08 06 06 10 25.0000000  0  8                                             
G05  25094268.875 8 131871258.023 8     -2777.556 8        48.916               
G13  24828831.669 7 130476325.604 7     -2824.453 7        45.076               
G14  27111994.919 6 142472432.421 6      -578.915 6        39.434               
G15  22565077.590 7 118580300.999 7     -1189.650 7        45.222               
G18  23422168.118 7 123084311.686 7      -643.199 7        43.370               
G22  26900924.090 6 141365370.893 6        37.459 6        39.648               
G23  23522590.240 7 123612053.450 7      2343.342 7        45.787               
G24  22372983.306 7 117570820.994 7      1417.768 7        44.708               
> 2025 08 06 06 10 26.0000000  0  8                                             
G05  25094797.798 8 131874035.695 8     -2777.761 8        48.720               
G13  24829368.097 7 130479150.004 7     -2824.401 7        45.335               
G14  27112103.098 6 142473011.531 6      -579.403 6        39.681               
G15  22565302.793 7 118581490.836 7     -1190.087 7        45.345               
G18  23422288.448 7 123084955.140 7      -643.703 7        43.401               
G22  26900915.834 6 141365333.878 6        36.688 6        39.528               
G23  23522144.944 7 123609710.365 7      2342.957 7        45.845               
G24  22372713.716 7 117569403.353 7      1417.324 7        44.571               
> 2025 08 06 06 10 27.0000000  0  8                                             
G05  25095327.650 8 131876813.648 8     -2777.887 8        48.779               
G13  24829902.416 7 130481974.458 7     -2824.322 7        45.293               
G14  27112214.333 6 142473591.135 6      -579.816 6        39.774               
G15  22565526.942 7 118582680.967 7     -1190.117 7        45.329               
G18  23422410.761 7 123085599.256 7      -644.337 7        43.360               
G22  26900910.581 6 141365297.375 6        36.464 6        39.363               
G23  23521700.059 7 123607367.498 7      2342.876 7        45.709               
G24  22372444.662 7 117567986.343 7      1416.976 7        44.583               
> 2025 08 06 06 10 28.0000000  0  8                                             
G05  25095857.217 8 131879591.868 8     -2778.262 8        48.985               
G13  24830435.753 7 130484798.955 7     -2824.456 7        45.249               
G14  27112322.565 6 142474171.272 6      -580.282 6        39.730               
G15  22565753.021 7 118583871.368 7     -1190.478 7        45.317               
G18  23422532.324 7 123086244.034 7      -644.912 7        43.420               
G22  26900904.148 6 141365261.381 6        35.869 6        39.152               
G23  23521252.529 7 123605024.852 7      2342.661 7        45.743               
G24  22372175.448 7 117566569.963 7      1415.931 7        44.586               
> 2025 08 06 06 10 29.0000000  0  8                                             
G05  25096386.801 8 131882370.363 8     -2778.803 8        49.051               
G13  24830968.804 7 130487623.514 7     -2824.720 7        45.194               
G14  27112429.869 6 142474751.907 6      -581.001 6        39.638               
G15  22565980.619 7 118585062.058 7     -1190.924 7        45.100               
G18  23422655.764 7 123086889.489 7      -645.715 7        43.526               
G22  26900898.216 6 141365225.888 6        35.147 6        39.156               
G23  23520806.143 7 123602682.434 7      2342.068 7        45.748               
G24  22371906.233 7 117565154.226 7      1415.223 7        44.595               
> 2025 08 06 06 10 30.0000000  0  8                                             
G05  25096915.385 8 131885149.153 8     -2779.084 8        49.217               
G13  24831503.105 7 130490448.150 7     -2824.586 7        45.129               
G14  27112542.926 6 142475333.091 6      -581.432 6        39.542               
G15  22566208.860 7 118586253.061 7     -1191.074 7        44.780               
G18  23422778.935 7 123087535.625 7      -646.737 7        43.439               
G22  26900895.053 6 141365190.925 6        34.751 6        39.012               
G23  23520362.866 7 123600340.271 7      2341.971 7        45.473               
G24  22371637.250 7 117563739.157 7      1414.767 7        44.631               
> 2025 08 06 06 10 31.0000000  0  8                                             
G05  25097444.665 8 131887928.284 8     -2779.152 8        49.376               
G13  24832040.999 7 130493272.882 7     -2824.898 7        45.071               
G14  27112652.624 6 142475914.854 6      -581.986 6        39.857               
G15  22566437.762 7 118587444.401 7     -1191.435 7        44.918               
G18  23422902.535 7 123088182.494 7      -646.995 7        43.418               
G22  26900892.801 6 141365156.539 6        34.201 6        39.207               
G23  23519917.249 7 123597998.392 7      2341.610 7        45.906               
G24  22371368.125 7 117562324.796 7      1414.236 7        44.931               
> 2025 08 06 06 10 32.0000000  0  8                                             
G05  25097972.963 8 131890707.728 8     -2779.559 8        49.336               
G13  24832579.500 7 130496097.713 7     -2824.751 7        45.122               
G14  27112763.287 6 142476497.178 6      -582.395 6        39.841               
G15  22566666.396 7 118588636.053 7     -1191.951 7        45.094               
G18  23423026.992 7 123088830.073 7      -648.073 7        43.381               
G22  26900884.742 6 141365122.693 6        33.573 6        39.666               
G23  23519470.041 7 123595656.777 7      2341.411 7        45.980               
G24  22371101.019 7 117560911.111 7      1413.141 7        44.979               
> 2025 08 06 06 10 33.0000000  0  8                                             
G05  25098501.314 8 131893487.511 8     -2779.911 8        49.382               
G13  24833115.838 7 130498922.642 7     -2824.912 7        45.019               
G14  27112874.039 6 142477080.065 6      -583.376 6        39.795               
G15  22566895.084 7 118589828.048 7     -1191.989 7        45.193               
G18  23423148.520 7 123089478.383 7      -648.428 7        43.407               
G22  26900880.436 6 141365089.424 6        32.991 6        39.886               
G23  23519024.459 7 123593315.456 7      2341.101 7        45.862               
G24  22370830.518 7 117559498.129 7      1412.637 7        45.081               
> 2025 08 06 06 10 34.0000000  0  8                                             
G05  25099029.755 8 131896267.542 8     -2780.245 8        49.618               
G13  24833655.894 7 130501747.596 7     -2825.216 7        44.908               
G14  27112986.989 6 142477663.449 6      -583.808 6        39.567               
G15  22567121.949 7 118591020.292 7     -1192.425 7        45.135               
G18  23423271.298 7 123090127.324 7      -649.335 7        43.578               
G22  26900873.056 6 141365056.637 6        32.396 6        39.891               
G23  23518581.146 7 123590974.328 7      2340.965 7        46.052               
G24  22370560.946 7 117558085.751 7      1411.898 7        45.016               
> 2025 08 06 06 10 35.0000000  0  8                                             
G05  25099558.302 8 131899047.904 8     -2780.507 8        49.355               
G13  24834197.129 7 130504572.638 7     -2825.101 7        44.938               
G14  27113095.508 6 142478247.392 6      -584.067 6        39.672               
G15  22567347.581 7 118592212.870 7     -1192.583 7        45.183               
G18  23423394.505 7 123090776.988 7      -650.091 7        43.474               
G22  26900865.551 6 141365024.393 6        31.973 6        40.259               
G23  23518136.475 7 123588633.478 7      2340.741 7        45.869               
G24  22370290.391 7 117556674.068 7      1411.485 7        44.926               
> 2025 08 06 06 10 36.0000000  0  8                                             
G05  25100087.172 8 131901828.548 8     -2780.700 8        49.496               
G13  24834737.184 7 130507397.748 7     -2825.050 7        44.876               
G14  27113206.332 6 142478831.860 6      -584.801 6        39.889               
G15  22567574.554 7 118593405.739 7     -1193.147 7        45.300               
G18  23423518.694 7 123091427.326 7      -650.701 7        43.373               
G22  26900855.902 6 141364992.665 6        31.375 6        40.124               
G23  23517689.535 7 123586292.861 7      2340.380 7        45.722               
G24  22370022.230 7 117555263.040 7      1410.602 7        45.175               
> 2025 08 06 06 10 37.0000000  0  8                                             
G05  25100614.237 8 131904609.434 8     -2780.965 8        49.457               
G13  24835275.131 7 130510222.853 7     -2825.130 7        45.005               
G14  27113318.978 6 142479416.807 6      -585.238 6        39.731               
G15  22567802.152 7 118594598.852 7     -1193.217 7        45.358               
G18  23423643.849 7 123092078.287 7      -651.139 7        43.130               
G22  26900844.537 6 141364961.380 6        31.291 6        40.275               
G23  23517243.900 7 123583952.432 7      2340.263 7        45.806               
G24  22369753.033 7 117553852.615 7      1410.049 7        45.169               
> 2025 08 06 06 10 38.0000000  0  8                                             
G05  25101142.552 8 131907390.608 8     -2781.322 8        49.363               
G13  24835815.222 7 130513048.033 7     -2825.193 7        45.070               
G14  27113430.892 6 142480002.290 6      -585.756 6        39.696               
G15  22568029.928 7 118595792.254 7     -1193.676 7        45.370               
G18  23423767.896 7 123092729.943 7      -652.201 7        43.319               
G22  26900841.213 6 141364930.652 6        30.197 6        40.257               
G23  23516798.657 7 123581612.247 7      2340.045 7        45.752               
G24  22369485.498 7 117552442.851 7      1409.360 7        45.188               
> 2025 08 06 06 10 39.0000000  0  8                                             
G05  25101672.297 8 131910172.072 8     -2781.561 8        49.469               
G13  24836354.081 7 130515873.277 7     -2825.344 7        45.266               
G14  27113540.786 6 142480588.304 6      -586.096 6        39.746               
G15  22568256.489 7 118596985.962 7     -1193.854 7        45.517               
G18  23423892.121 7 123093382.272 7      -652.785 7        43.601               
G22  26900837.783 6 141364900.432 6        30.076 6        40.164               
G23  23516353.969 7 123579272.296 7      2339.761 7        45.721               
G24  22369217.249 7 117551033.721 7      1408.790 7        45.105               
> 2025 08 06 06 10 40.0000000  0  8                                             
G05  25102202.453 8 131912953.766 8     -2781.927 8        49.343               
G13  24836892.653 7 130518698.520 7     -2825.416 7        45.319               
G14  27113650.341 6 142481174.788 6      -586.800 6        40.026               
G15  22568483.444 7 118598179.899 7     -1194.158 7        45.664               
G18  23424017.061 7 123094035.231 7      -653.332 7        43.484               
G22  26900834.119 6 141364870.676 6        29.331 6        40.166               
G23  23515907.476 7 123576932.534 7      2339.564 7        45.603               
G24  22368947.373 7 117549625.199 7      1407.965 7        45.281               
> 2025 08 06 06 10 41.0000000  0  8                                             
G05  25102732.431 8 131915735.784 8     -2782.133 8        49.162               
G13  24837430.671 7 130521523.861 7     -2825.422 7        45.318               
G14  27113762.219 6 142481761.848 6      -587.349 6        40.183               
G15  22568712.167 7 118599374.172 7     -1194.407 7        45.806               
G18  23424143.610 7 123094688.900 7      -654.139 7        43.401               
G22  26900827.258 6 141364841.480 6        28.821 6        40.174               
G23  23515462.859 7 123574593.045 7      2339.356 7        45.804               
G24  22368680.964 7 117548217.365 7      1407.248 7        45.279               
> 2025 08 06 06 10 42.0000000  0  8                                             
G05  25103262.193 8 131918518.098 8     -2782.412 8        49.103               
G13  24837964.776 7 130524349.273 7     -2825.453 7        45.391               
G14  27113876.063 6 142482349.435 6      -587.763 6        40.014               
G15  22568938.353 7 118600568.744 7     -1194.796 7        45.859               
G18  23424268.121 7 123095343.261 7      -654.641 7        43.369               
G22  26900821.736 6 141364812.821 6        28.328 6        40.159               
G23  23515020.064 7 123572253.808 7      2338.906 7        45.595               
G24  22368414.304 7 117546810.187 7      1406.863 7        45.138               
> 2025 08 06 06 10 43.0000000  0  8                                             
G05  25103791.170 8 131921300.705 8     -2782.657 8        49.156               
G13  24838498.077 7 130527174.742 7     -2825.317 7        45.218               
G14  27113990.889 6 142482937.562 6      -588.465 6        39.968               
G15  22569165.254 7 118601763.607 7     -1194.972 7        45.685               
G18  23424391.685 7 123095998.301 7      -655.395 7        43.341               
G22  26900811.658 6 141364784.676 6        27.896 6        40.292               
G23  23514573.839 7 123569914.817 7      2338.987 7        45.355               
G24  22368146.787 7 117545403.667 7      1405.992 7        45.123               
> 2025 08 06 06 10 44.0000000  0  8                                             
G05  25104322.255 8 131924083.583 8     -2782.958 8        49.068               
G13  24839032.451 7 130530000.279 7     -2825.438 7        45.307               
G14  27114106.859 6 142483526.217 6      -588.918 6        40.072               
G15  22569391.744 7 118602958.767 7     -1195.415 7        45.734               
G18  23424514.553 7 123096654.022 7      -656.013 7        43.141               
G22  26900808.585 6 141364757.055 6        27.396 6        40.150               
G23  23514127.364 7 123567576.054 7      2338.896 7        45.535               
G24  22367880.056 7 117543997.808 7      1405.644 7        45.131               
> 2025 08 06 06 10 45.0000000  0  8                                             
G05  25104853.037 8 131926866.821 8     -2783.220 8        49.233               
G13  24839565.912 7 130532825.940 7     -2825.591 7        45.024               
G14  27114220.166 6 142484115.463 6      -589.436 6        40.209               
G15  22569619.789 7 118604154.300 7     -1195.680 7        45.688               
G18  23424639.582 7 123097310.478 7      -656.715 7        42.878               
G22  26900806.673 6 141364730.035 6        27.068 6        40.064               
G23  23513681.817 7 123565237.596 7      2338.476 7        45.416               
G24  22367613.379 7 117542592.662 7      1404.906 7        44.973               
> 2025 08 06 06 10 46.0000000  0  8                                             
G05  25105382.460 8 131929650.296 8     -2783.587 8        49.432               
G13  24840102.072 7 130535651.610 7     -2825.742 7        44.911               
G14  27114332.151 6 142484705.197 6      -589.947 6        40.219               
G15  22569847.083 7 118605350.070 7     -1195.979 7        45.643               
G18  23424762.861 7 123097967.580 7      -657.483 7        42.779               
G22  26900801.062 6 141364703.464 6        26.428 6        40.146               
G23  23513237.861 7 123562899.330 7      2338.309 7        45.443               
G24  22367346.827 7 117541188.111 7      1404.232 7        44.883               
> 2025 08 06 06 10 47.0000000  0  8                                             
G05  25105912.741 8 131932434.063 8     -2783.881 8        49.283               
G13  24840638.375 7 130538477.351 7     -2825.965 7        44.609               
G14  27114440.456 6 142485295.450 6      -590.461 6        40.142               
G15  22570073.590 7 118606546.137 7     -1196.280 7        45.580               
G18  23424887.855 7 123098625.364 7      -658.151 7        42.874               
G22  26900796.362 6 141364677.440 6        25.638 6        40.148               
G23  23512793.530 7 123560561.304 7      2337.904 7        45.313               
G24  22367080.453 7 117539784.237 7      1403.577 7        44.849               
> 2025 08 06 06 10 48.0000000  0  8                                             
G05  25106442.022 8 131935218.144 8     -2784.302 8        49.708               
G13  24841176.519 7 130541303.188 7     -2825.689 7        44.303               
G14  27114549.617 6 142485886.277 6      -591.021 6        40.187               
G15  22570300.277 7 118607742.534 7     -1196.760 7        45.734               
G18  23425014.314 7 123099283.847 7      -658.915 7        42.682               
G22  26900788.804 6 141364651.965 6        25.099 6        40.347               
G23  23512348.627 7 123558223.545 7      2337.450 7        45.441               
G24  22366812.471 7 117538381.038 7      1402.971 7        44.951               
> 2025 08 06 06 10 49.0000000  0  8                                             
G05  25106970.856 8 131938002.548 8     -2784.661 8        49.519               
G13  24841716.503 7 130544129.105 7     -2825.962 7        44.276               
G14  27114659.441 6 142486477.651 6      -591.861 6        40.169               
G15  22570530.019 7 118608939.248 7     -1196.867 7        45.655               
G18  23425142.542 7 123099943.043 7      -659.597 7        42.755               
G22  26900781.906 6 141364627.016 6        24.665 6        40.444               
G23  23511904.368 7 123555886.068 7      2337.298 7        45.421               
G24  22366545.705 7 117536978.522 7      1402.174 7        45.231               
> 2025 08 06 06 10 50.0000000  0  8                                             
G05  25107499.171 8 131940787.260 8     -2784.626 8        49.449               
G13  24842257.613 7 130546955.097 7     -2826.023 7        44.194               
G14  27114770.336 6 142487069.577 6      -592.145 6        40.314               
G15  22570756.294 7 118610136.265 7     -1197.013 7        45.593               
G18  23425268.965 7 123100602.934 7      -660.277 7        42.851               
G22  26900779.154 6 141364602.620 6        24.074 6        40.692               
G23  23511460.376 7 123553548.838 7      2337.101 7        45.326               
G24  22366277.258 7 117535576.674 7      1401.698 7        45.316               
> 2025 08 06 06 10 51.0000000  0  8                                             
G05  25108028.773 8 131943572.228 8     -2785.107 8        49.521               
G13  24842798.955 7 130549781.143 7     -2825.937 7        44.558               
G14  27114882.071 6 142487662.009 6      -592.586 6        40.190               
G15  22570984.714 7 118611333.563 7     -1197.327 7        45.424               
G18  23425393.566 7 123101263.492 7      -660.732 7        42.930               
G22  26900777.224 6 141364578.724 6        23.642 6        40.935               
G23  23511015.545 7 123551211.834 7      2336.903 7        45.273               
G24  22366009.634 7 117534175.470 7      1400.872 7        45.081               
> 2025 08 06 06 10 52.0000000  0  8                                             
G05  25108559.340 8 131946357.497 8     -2785.423 8        49.347               
G13  24843339.403 7 130552607.237 7     -2826.106 7        44.704               
G14  27114997.951 6 142488254.980 6      -593.184 6        40.181               
G15  22571212.115 7 118612531.145 7     -1197.763 7        45.368               
G18  23425518.131 7 123101924.723 7      -661.899 7        43.127               
G22  26900770.863 6 141364555.341 6        23.011 6        40.885               
G23  23510569.087 7 123548875.069 7      2336.477 7        45.061               
G24  22365742.939 7 117532774.912 7      1400.160 7        44.849               
> 2025 08 06 06 10 53.0000000  0  8                                             
G05  25109089.157 8 131949143.082 8     -2785.851 8        49.215               
G13  24843881.085 7 130555433.427 7     -2826.316 7        44.776               
G14  27115115.905 6 142488848.506 6      -593.929 6        40.351               
G15  22571438.944 7 118613729.049 7     -1198.086 7        45.540               
G18  23425641.677 7 123102586.672 7      -662.295 7        43.124               
G22  26900765.484 6 141364532.515 6        22.476 6        40.818               
G23  23510125.578 7 123546538.577 7      2336.405 7        45.185               
G24  22365477.512 7 117531375.043 7      1399.540 7        44.992               
> 2025 08 06 06 10 54.0000000  0  8                                             
G05  25109619.742 8 131951928.941 8     -2785.983 8        49.316               
G13  24844420.443 7 130558259.660 7     -2826.242 7        44.958               
G14  27115229.230 6 142489442.542 6      -594.378 6        40.460               
G15  22571667.221 7 118614927.238 7     -1198.290 7        45.438               
G18  23425769.173 7 123103249.279 7      -663.049 7        43.226               
G22  26900760.320 6 141364510.187 6        21.700 6        40.860               
G23  23509678.352 7 123544202.318 7      2336.207 7        45.088               
G24  22365211.496 7 117529975.808 7      1398.902 7        45.096               
> 2025 08 06 06 10 55.0000000  0  8                                             
G05  25110149.308 8 131954715.129 8     -2786.119 8        49.072               
G13  24844958.569 7 130561085.988 7     -2826.122 7        45.231               
G14  27115344.074 6 142490037.167 6      -594.813 6        40.635               
G15  22571895.659 7 118616125.759 7     -1198.706 7        45.411               
G18  23425892.862 7 123103912.606 7      -663.757 7        43.207               
G22  26900757.247 6 141364488.426 6        21.762 6        41.040               
G23  23509232.842 7 123541866.331 7      2335.974 7        45.145               
G24  22364944.872 7 117528577.274 7      1398.379 7        45.361               
> 2025 08 06 06 10 56.0000000  0  8                                             
G05  25110678.749 8 131957501.538 8     -2786.692 8        48.737               
G13  24845497.034 7 130563912.321 7     -2826.425 7        45.107               
G14  27115456.435 6 142490632.245 6      -595.429 6        40.860               
G15  22572124.347 7 118617324.505 7     -1199.028 7        45.314               
G18  23426019.518 7 123104576.577 7      -664.383 7        43.131               
G22  26900755.478 6 141364467.132 6        20.879 6        41.111               
G23  23508790.262 7 123539530.530 7      2335.763 7        45.666               
G24  22364678.499 7 117527179.336 7      1397.500 7        45.371               
> 2025 08 06 06 10 57.0000000  0  8                                             
G05  25111209.906 8 131960288.289 8     -2786.964 8        48.712               
G13  24846030.889 7 130566738.760 7     -2826.545 7        45.202               
G14  27115570.332 6 142491227.907 6      -595.932 6        41.062               
G15  22572352.355 7 118618523.598 7     -1199.307 7        45.700               
G18  23426145.745 7 123105241.250 7      -665.097 7        43.089               
G22  26900753.798 6 141364446.407 6        20.458 6        41.287               
G23  23508349.272 7 123537195.018 7      2335.438 7        45.717               
G24  22364412.483 7 117525782.090 7      1396.758 7        45.159               
> 2025 08 06 06 10 58.0000000  0  8                                             
G05  25111740.884 8 131963075.272 8     -2787.148 8        48.548               
G13  24846565.101 7 130569565.223 7     -2826.548 7        45.210               
G14  27115683.586 6 142491824.043 6      -596.389 6        41.063               
G15  22572580.025 7 118619722.937 7     -1199.492 7        45.838               
G18  23426275.152 7 123105906.558 7      -665.714 7        42.953               
G22  26900751.011 6 141364426.159 6        20.022 6        41.429               
G23  23507903.994 7 123534859.698 7      2335.140 7        45.800               
G24  22364145.663 7 117524385.463 7      1396.167 7        45.003               
> 2025 08 06 06 10 59.0000000  0  8                                             
G05  25112270.808 8 131965862.492 8     -2787.289 8        48.570               
G13  24847100.958 7 130572391.688 7     -2826.448 7        45.023               
G14  27115794.802 6 142492420.651 6      -596.973 6        41.375               
G15  22572808.480 7 118620922.516 7     -1199.797 7        45.763               
G18  23426402.344 7 123106572.493 7      -666.470 7        43.001               
G22  26900744.721 6 141364406.374 6        19.455 6        41.431               
G23  23507458.805 7 123532524.561 7      2334.978 7        45.731               
G24  22363880.683 7 117522989.422 7      1395.764 7        45.131               
> 2025 08 06 06 11 00.0000000  0  8                                             
G05  25112800.874 8 131968650.094 8     -2787.717 8        48.660               
G13  24847635.492 7 130575218.307 7     -2826.586 7        45.116               
G14  27115906.198 6 142493017.884 6      -597.380 6        41.572               
G15  22573038.812 7 118622122.490 7     -1199.951 7        45.733               
G18  23426528.392 7 123107239.211 7      -666.907 7        42.994               
G22  26900739.038 6 141364387.217 6        18.877 6        41.462               
G23  23507013.491 7 123530189.759 7      2334.748 7        45.713               
G24  22363615.757 7 117521594.139 7      1395.025 7        45.376               
> 2025 08 06 06 11 01.0000000  0  8                                             
G05  25113332.639 8 131971437.979 8     -2788.036 8        48.474               
G13  24848171.920 7 130578044.971 7     -2826.818 7        44.992               
G14  27116019.380 7 142493615.645 7      -598.158 7        42.001               
G15  22573269.000 7 118623322.752 7     -1200.433 7        45.464               
G18  23426652.260 7 123107906.590 7      -667.777 7        43.084               
G22  26900735.125 6 141364368.565 6        18.210 6        41.553               
G23  23506570.518 7 123527855.203 7      2334.505 7        45.612               
G24  22363352.206 7 117520199.498 7      1394.328 7        45.630               
> 2025 08 06 06 11 02.0000000  0  8                                             
G05  25113862.866 8 131974226.129 8     -2788.273 8        48.599               
G13  24848710.313 7 130580871.688 7     -2826.845 7        44.833               
G14  27116134.368 7 142494213.916 7      -598.610 7        42.010               
G15  22573498.046 7 118624523.271 7     -1200.763 7        45.567               
G18  23426778.773 7 123108574.638 7      -668.512 7        43.241               
G22  26900731.998 6 141364350.401 6        17.619 6        41.652               
G23  23506124.168 7 123525520.852 7      2334.206 7        45.746               
G24  22363087.799 7 117518805.491 7      1393.659 7        45.441               
> 2025 08 06 06 11 03.0000000  0  8                                             
G05  25114393.701 8 131977014.591 8     -2788.663 8        48.562               
G13  24849248.332 7 130583698.489 7     -2826.896 7        44.748               
G14  27116251.624 6 142494812.750 6      -599.106 6        41.833               
G15  22573727.234 7 118625724.121 7     -1201.056 7        45.548               
G18  23426906.768 7 123109243.389 7      -669.281 7        43.201               
G22  26900727.102 6 141364332.799 6        17.429 6        41.563               
G23  23505680.248 7 123523186.778 7      2333.829 7        45.546               
G24  22362821.157 7 117517412.163 7      1392.991 7        45.649               
> 2025 08 06 06 11 04.0000000  0  8                                             
G05  25114925.215 8 131979803.414 8     -2788.959 8        48.857               
G13  24849789.620 7 130586525.388 7     -2826.890 7        44.778               
G14  27116367.540 6 142495412.152 6      -599.698 6        41.752               
G15  22573955.921 7 118626925.306 7     -1201.281 7        45.592               
G18  23427035.497 7 123109912.871 7      -669.877 7        43.185               
G22  26900723.439 6 141364315.752 6        16.736 6        41.251               
G23  23505237.721 7 123520852.989 7      2333.658 7        45.570               
G24  22362556.195 7 117516019.538 7      1392.322 7        45.651               
> 2025 08 06 06 11 05.0000000  0  8                                             
G05  25115456.372 8 131982592.521 8     -2789.227 8        48.691               
G13  24850331.409 7 130589352.352 7     -2826.915 7        44.660               
G14  27116481.116 7 142496012.089 7      -600.126 7        42.302               
G15  22574180.803 7 118628126.788 7     -1201.659 7        45.667               
G18  23427165.476 7 123110583.028 7      -670.452 7        42.994               
G22  26900723.081 6 141364299.244 6        16.502 6        41.132               
G23  23504792.890 7 123518519.456 7      2333.256 7        45.428               
G24  22362291.662 7 117514627.580 7      1391.660 7        45.782               
> 2025 08 06 06 11 06.0000000  0  8                                             
G05  25115987.850 8 131985381.942 8     -2789.540 8        48.574               
G13  24850874.449 7 130592179.412 7     -2827.207 7        44.601               
G14  27116594.638 7 142496612.594 7      -600.766 7        42.256               
G15  22574407.239 7 118629328.595 7     -1201.866 7        45.540               
G18  23427292.382 7 123111253.909 7      -671.206 7        43.072               
G22  26900725.654 6 141364283.287 6        15.623 6        41.220               
G23  23504348.791 7 123516186.187 7      2333.213 7        45.541               
G24  22362027.415 7 117513236.309 7      1391.023 7        45.857               
> 2025 08 06 06 11 07.0000000  0  8                                             
G05  25116518.668 8 131988171.641 8     -2789.759 8        48.466               
G13  24851415.612 7 130595006.513 7     -2827.062 7        44.758               
G14  27116708.749 7 142497213.611 7      -601.224 7        42.280               
G15  22574634.641 7 118630530.688 7     -1202.286 7        45.480               
G18  23427417.965 7 123111925.456 7      -671.551 7        42.965               
G22  26900724.886 6 141364267.845 6        15.235 6        41.137               
G23  23503905.335 7 123513853.156 7      2332.924 7        45.392               
G24  22361761.685 7 117511845.682 7      1390.402 7        45.720               
> 2025 08 06 06 11 08.0000000  0  8                                             
G05  25117048.806 8 131990961.612 8     -2790.204 8        48.485               
G13  24851953.255 7 130597833.673 7     -2827.213 7        44.906               
G14  27116821.217 7 142497815.148 7      -601.728 7        42.287               
G15  22574862.310 7 118631733.050 7     -1202.400 7        45.464               
G18  23427546.998 7 123112597.663 7      -672.746 7        43.162               
G22  26900717.524 6 141364252.912 6        14.690 6        41.077               
G23  23503461.505 7 123511520.349 7      2332.377 7        45.426               
G24  22361496.383 7 117510455.694 7      1389.584 7        45.840               
> 2025 08 06 06 11 09.0000000  0  8                                             
G05  25117580.248 8 131993751.867 8     -2790.447 8        48.492               
G13  24852492.221 7 130600660.876 7     -2827.359 7        44.737               
G14  27116936.008 7 142498417.212 7      -602.389 7        42.468               
G15  22575091.355 7 118632935.716 7     -1203.008 7        45.458               
G18  23427676.137 7 123113270.547 7      -673.194 7        43.249               
G22  26900711.198 6 141364238.508 6        14.150 6        40.943               
G23  23503017.620 7 123509187.783 7      2332.418 7        45.455               
G24  22361230.242 7 117509066.361 7      1389.004 7        45.914               
> 2025 08 06 06 11 10.0000000  0  8                                             
G05  25118110.530 8 131996542.430 8     -2790.779 8        48.819               
G13  24853028.810 7 130603488.168 7     -2827.396 7        44.766               
G14  27117050.101 7 142499019.815 7      -602.926 7        42.447               
G15  22575322.383 7 118634138.700 7     -1203.144 7        45.464               
G18  23427802.274 7 123113944.133 7      -673.998 7        43.415               
G22  26900710.073 6 141364224.629 6        13.558 6        40.735               
G23  23502572.914 7 123506855.475 7      2332.026 7        45.307               
G24  22360965.870 7 117507677.695 7      1388.312 7        45.840               
> 2025 08 06 06 11 11.0000000  0  8                                             
G05  25118641.615 8 131999333.263 8     -2791.067 8        48.769               
G13  24853564.916 7 130606315.492 7     -2827.402 7        45.007               
G14  27117164.159 7 142499622.921 7      -603.408 7        42.511               
G15  22575552.626 7 118635341.947 7     -1203.296 7        45.415               
G18  23427929.949 7 123114618.374 7      -674.319 7        43.517               
G22  26900709.626 6 141364211.247 6        13.171 6        40.991               
G23  23502129.440 7 123504523.382 7      2331.833 7        45.179               
G24  22360703.588 7 117506289.658 7      1387.787 7        45.734               
> 2025 08 06 06 11 12.0000000  0  8                                             
G05  25119172.182 8 132002124.382 8     -2791.166 8        48.881               
G13  24854099.736 7 130609142.885 7     -2827.251 7        44.925               
G14  27117281.469 7 142500226.566 7      -603.698 7        42.673               
G15  22575783.404 7 118636545.487 7     -1203.504 7        45.434               
G18  23428058.480 7 123115293.290 7      -675.248 7        43.241               
G22  26900703.318 6 141364198.394 6        12.631 6        41.193               
G23  23501687.003 7 123502191.542 7      2331.673 7        45.147               
G24  22360440.253 7 117504902.282 7      1387.215 7        45.800               
> 2025 08 06 06 11 13.0000000  0  8                                             
G05  25119701.784 8 132004915.790 8     -2791.633 8        48.787               
G13  24854634.234 7 130611970.325 7     -2827.648 7        44.791               
G14  27117396.814 7 142500830.738 7      -604.523 7        42.737               
G15  22576012.878 7 118637749.331 7     -1203.962 7        45.679               
G18  23428186.762 7 123115968.900 7      -675.896 7        43.253               
G22  26900699.566 6 141364186.071 6        12.050 6        41.191               
G23  23501243.744 7 123499859.942 7      2331.514 7        45.286               
G24  22360176.953 7 117503515.561 7      1386.446 7        45.781               
> 2025 08 06 06 11 14.0000000  0  8                                             
G05  25120232.565 8 132007707.471 8     -2791.741 8        48.788               
G13  24855169.751 7 130614797.823 7     -2827.459 7        44.495               
G14  27117513.820 7 142501435.449 7      -604.933 7        42.469               
G15  22576242.924 7 118638953.442 7     -1204.180 7        45.812               
G18  23428315.401 7 123116645.171 7      -676.461 7        43.248               
G22  26900695.849 6 141364174.258 6        11.527 6        41.182               
G23  23500802.147 7 123497528.575 7      2331.244 7        45.245               
G24  22359914.010 7 117502129.481 7      1385.933 7        45.840               
> 2025 08 06 06 11 15.0000000  0  8                                             
G05  25120763.561 8 132010499.426 8     -2792.093 8        48.603               
G13  24855704.839 7 130617625.378 7     -2827.657 7        44.338               
G14  27117630.183 7 142502040.666 7      -605.544 7        42.024               
G15  22576474.042 7 118640157.842 7     -1204.689 7        45.909               
G18  23428445.631 7 123117322.115 7      -677.385 7        43.085               
G22  26900693.651 6 141364162.961 6        11.000 6        41.268               
G23  23500359.174 7 123495197.433 7      2330.890 7        45.111               
G24  22359650.549 7 117500744.050 7      1385.119 7        45.552               
> 2025 08 06 06 11 16.0000000  0  8                                             
G05  25121295.415 8 132013291.662 8     -2792.358 8        48.651               
G13  24856239.122 7 130620452.992 7     -2827.591 7        44.496               
G14  27117746.993 6 142502646.414 6      -606.018 6        42.000               
G15  22576704.177 7 118641362.537 7     -1204.868 7        45.925               
G18  23428575.967 7 123117999.729 7      -677.857 7        43.000               
G22  26900691.578 6 141364152.167 6        10.747 6        41.254               
G23  23499914.093 7 123492866.534 7      2330.660 7        45.084               
G24  22359389.036 7 117499359.282 7      1384.462 7        45.684               
> 2025 08 06 06 11 17.0000000  0  8                                             
G05  25121827.197 8 132016084.209 8     -2792.644 8        48.612               
G13  24856776.587 7 130623280.681 7     -2827.568 7        44.139               
G14  27117861.873 7 142503252.718 7      -606.504 7        42.015               
G15  22576933.347 7 118642567.541 7     -1205.159 7        45.884               
G18  23428706.733 7 123118678.043 7      -678.606 7        42.976               
G22  26900689.523 6 141364141.917 6         9.895 6        41.269               
G23  23499466.992 7 123490535.899 7      2330.415 7        45.004               
G24  22359125.789 7 117497975.179 7      1383.902 7        45.651               
> 2025 08 06 06 11 18.0000000  0  8                                             
G05  25122359.265 8 132018877.089 8     -2793.163 8        48.651               
G13  24857315.928 7 130626108.483 7     -2827.860 7        43.847               
G14  27117976.146 7 142503859.589 7      -607.104 7        42.058               
G15  22577159.694 7 118643772.889 7     -1205.573 7        45.689               
G18  23428834.443 7 123119357.084 7      -679.539 7        43.014               
G22  26900690.935 6 141364132.237 6         9.184 6        41.353               
G23  23499025.126 7 123488205.561 7      2330.004 7        44.921               
G24  22358859.738 7 117496591.779 7      1382.848 7        45.672               
> 2025 08 06 06 11 19.0000000  0  8                                             
G05  25122890.690 8 132021670.223 8     -2793.321 8        48.840               
G13  24857857.663 7 130628936.307 7     -2827.733 7        43.906               
G14  27118089.668 7 142504466.972 7      -607.561 7        42.052               
G15  22577387.935 7 118644978.501 7     -1205.714 7        45.709               
G18  23428962.474 7 123120036.767 7      -680.196 7        43.086               
G22  26900687.754 6 141364123.038 6         9.102 6        41.265               
G23  23498582.082 7 123485875.445 7      2329.993 7        45.183               
G24  22358594.114 7 117495209.011 7      1382.230 7        45.838               
> 2025 08 06 06 11 20.0000000  0  8                                             
G05  25123422.543 8 132024463.736 8     -2793.593 8        48.966               
G13  24858402.328 7 130631764.293 7     -2828.061 7        44.026               
G14  27118203.958 7 142505074.961 7      -608.327 7        42.428               
G15  22577615.479 7 118646184.499 7     -1206.171 7        46.016               
G18  23429090.917 7 123120717.239 7      -680.867 7        42.883               
G22  26900685.467 6 141364114.467 6         8.229 6        41.038               
G23  23498137.143 7 123483545.654 7      2329.712 7        45.222               
G24  22358329.778 7 117493826.988 7      1381.730 7        46.037               
> 2025 08 06 06 11 21.0000000  0  8                                             
G05  25123954.451 8 132027257.443 8     -2793.782 8        48.910               
G13  24858946.333 7 130634592.229 7     -2827.795 7        44.017               
G14  27118318.302 7 142505683.383 7      -608.765 7        42.735               
G15  22577844.167 7 118647390.693 7     -1206.414 7        46.243               
G18  23429219.181 7 123121398.286 7      -681.414 7        42.815               
G22  26900683.912 6 141364106.313 6         7.924 6        41.140               
G23  23497693.795 7 123481216.009 7      2329.589 7        45.078               
G24  22358065.299 7 117492445.521 7      1381.230 7        46.149               
> 2025 08 06 06 11 22.0000000  0  8                                             
G05  25124485.446 8 132030051.451 8     -2794.207 8        48.687               
G13  24859487.532 7 130637420.231 7     -2827.965 7        44.342               
G14  27118437.131 7 142506292.352 7      -609.236 7        42.776               
G15  22578072.462 7 118648597.187 7     -1206.796 7        46.161               
G18  23429347.462 7 123122080.032 7      -682.122 7        42.746               
G22  26900682.572 6 141364098.696 6         7.284 6        41.058               
G23  23497253.163 7 123478886.619 7      2329.067 7        45.014               
G24  22357802.928 7 117491064.719 7      1380.387 7        45.892               
> 2025 08 06 06 11 23.0000000  0  8                                             
G05  25125016.710 8 132032845.745 8     -2794.437 8        48.593               
G13  24860029.339 7 130640248.296 7     -2828.207 7        44.418               
G14  27118554.316 7 142506901.851 7      -609.855 7        42.524               
G15  22578301.864 7 118649803.975 7     -1207.122 7        45.931               
G18  23429476.584 7 123122762.449 7      -682.857 7        42.809               
G22  26900686.682 6 141364091.607 6         6.696 6        41.343               
G23  23496809.475 7 123476557.472 7      2328.978 7        44.882               
G24  22357542.254 7 117489684.573 7      1379.686 7        45.610               
> 2025 08 06 06 11 24.0000000  0  8                                             
G05  25125548.564 8 132035640.359 8     -2794.636 8        48.437               
G13  24860568.876 7 130643076.454 7     -2828.029 7        44.516               
G14  27118673.431 7 142507511.924 7      -610.099 7        42.663               
G15  22578533.751 7 118651011.091 7     -1207.191 7        45.728               
G18  23429608.690 7 123123445.579 7      -683.489 7        42.641               
G22  26900686.968 6 141364085.074 6         6.260 6        41.639               
G23  23496364.018 7 123474228.598 7      2328.939 7        44.544               
G24  22357280.420 7 117488305.120 7      1379.401 7        45.703               
