     3.02           OBSERVATION DATA    G                   RINEX VERSION / TYPE
G = GPS  R = GLONASS  E = GALILEO  S = GEO  M = MIXED       COMMENT             
GNSS-SDR            suhjw               20250805 073400 UTC PGM / RUN BY / DATE 
GPS OBSERVATION DATA FILE GENERATED BY GNSS-SDR             COMMENT             
GNSS-SDR VERSION 0.0.20                                     COMMENT             
See https://gnss-sdr.org                                    COMMENT             
DEFAULT MARKER NAME                                         MARKER NAME         
suhjw               CTTC                                    OBSERVER / AGENCY   
GNSS-SDR            Software Receiver   0.0.20              REC # / TYPE / VERS 
Antenna number      Antenna type                            ANT # / TYPE        
        0.0000        0.0000        0.0000                  APPROX POSITION XYZ 
        0.0000        0.0000        0.0000                  ANTENNA: DELTA H/E/N
G    4 C1C L1C D1C S1C                                      SYS / # / OBS TYPES 
DBHZ                                                        SIGNAL STRENGTH UNIT
  2025    08    05    07    34   18.1200000     GPS         TIME OF FIRST OBS   
                                                            END OF HEADER       
> 2025 08 05 07 34 19.0000000  0  6                                             
G10  25695808.233 7 135032386.116 7      2833.202 7        43.831               
G12  26258933.901 7 137991629.327 7      2899.326 7        47.379               
G15  25317574.267 7 133044746.247 7     -2358.272 7        45.223               
G23  23300240.877 7 122443584.698 7       273.707 7        46.300               
G24  23612982.408 7 124087042.960 7     -1578.250 7        43.977               
G25  27134254.995 7 142591465.548 7      3696.954 7        44.156               
> 2025 08 05 07 34 20.0000000  0  6                                             
G10  25695273.110 7 135029553.159 7      2831.471 7        43.784               
G12  26258382.338 7 137988729.739 7      2901.663 7        47.137               
G15  25318021.895 7 133047103.683 7     -2356.142 7        45.799               
G23  23300191.487 7 122443310.774 7       271.975 7        46.698               
G24  23613281.732 7 124088628.638 7     -1585.539 7        44.746               
G25  27133550.098 7 142587768.377 7      3699.119 7        45.129               
> 2025 08 05 07 34 21.0000000  0  6                                             
G10  25694732.098 7 135026720.485 7      2830.541 7        43.943               
G12  26257829.023 7 137985830.463 7      2898.726 7        47.626               
G15  25318475.482 7 133049461.328 7     -2359.655 7        46.413               
G23  23300137.290 7 122443037.458 7       269.358 7        46.833               
G24  23613584.094 7 124090214.812 7     -1584.526 7        44.651               
G25  27132847.792 7 142584071.232 7      3695.866 7        44.456               
> 2025 08 05 07 34 22.0000000  0  6                                             
G10  25694193.240 7 135023888.107 7      2837.621 7        43.847               
G12  26257277.594 7 137982931.532 7      2899.187 7        47.246               
G15  25318927.166 7 133051819.239 7     -2358.046 7        46.316               
G23  23300085.425 7 122442764.811 7       273.721 7        46.825               
G24  23613884.838 7 124091801.558 7     -1586.912 7        44.717               
G25  27132144.119 7 142580374.143 7      3698.791 7        44.430               
> 2025 08 05 07 34 23.0000000  0  6                                             
G10  25693652.041 7 135021055.933 7      2831.206 7        44.051               
G12  26256727.184 7 137980032.821 7      2897.688 7        47.792               
G15  25319377.341 7 133054177.271 7     -2356.423 7        46.724               
G23  23300032.908 7 122442492.693 7       271.736 7        46.321               
G24  23614186.718 7 124093388.729 7     -1588.485 7        45.336               
G25  27131441.535 7 142576677.015 7      3694.777 7        44.102               
> 2025 08 05 07 34 24.0000000  0  6                                             
G10  25693114.433 7 135018223.990 7      2828.385 7        43.875               
G12  26256175.513 7 137977134.387 7      2896.562 7        47.909               
G15  25319829.078 7 133056535.495 7     -2361.428 7        46.902               
G23  23299981.803 7 122442221.148 7       275.135 7        46.753               
G24  23614486.033 7 124094976.370 7     -1585.845 7        44.731               
G25  27130736.004 7 142572979.860 7      3701.578 7        44.438               
> 2025 08 05 07 34 25.0000000  0  6                                             
G10  25692576.335 7 135015392.297 7      2832.541 7        43.403               
G12  26255625.344 8 137974236.238 8      2898.316 8        48.114               
G15  25320276.412 7 133058893.903 7     -2357.001 7        46.816               
G23  23299929.018 7 122441950.196 7       271.197 7        46.900               
G24  23614789.431 7 124096564.508 7     -1587.131 7        44.499               
G25  27130035.002 7 142569282.724 7      3696.274 7        44.420               
> 2025 08 05 07 34 26.0000000  0  6                                             
G10  25692037.164 7 135012560.867 7      2827.191 7        42.900               
G12  26255074.701 8 137971338.380 8      2898.285 8        48.059               
G15  25320724.013 7 133061252.524 7     -2359.285 7        46.850               
G23  23299875.982 7 122441679.850 7       266.432 7        46.145               
G24  23615087.593 7 124098153.162 7     -1592.161 7        44.706               
G25  27129330.712 7 142565585.602 7      3692.501 7        44.459               
> 2025 08 05 07 34 27.0000000  0  6                                             
G10  25691500.039 7 135009729.710 7      2830.559 7        43.232               
G12  26254522.700 8 137968440.828 8      2897.686 8        48.117               
G15  25321172.695 7 133063611.378 7     -2358.298 7        47.431               
G23  23299827.030 7 122441410.090 7       274.042 7        46.463               
G24  23615388.633 7 124099742.326 7     -1589.876 7        44.462               
G25  27128628.746 7 142561888.502 7      3698.514 7        45.319               
> 2025 08 05 07 34 28.0000000  0  6                                             
G10  25690965.674 7 135006898.801 7      2832.950 7        43.380               
G12  26253971.727 7 137965543.563 7      2897.797 7        47.619               
G15  25321622.288 7 133065970.426 7     -2360.922 7        46.588               
G23  23299772.154 7 122441140.956 7       268.507 7        46.482               
G24  23615695.489 7 124101332.005 7     -1591.467 7        44.137               
G25  27127923.849 7 142558191.431 7      3694.850 7        45.456               
> 2025 08 05 07 34 29.0000000  0  6                                             
G10  25690424.198 7 135004068.224 7      2831.879 7        43.874               
G12  26253420.235 7 137962646.671 7      2895.638 7        47.705               
G15  25322073.964 7 133068329.756 7     -2358.240 7        46.893               
G23  23299721.969 7 122440872.490 7       266.737 7        46.503               
G24  23615996.537 7 124102922.238 7     -1590.159 7        44.187               
G25  27127219.336 7 142554494.421 7      3698.309 7        44.597               
> 2025 08 05 07 34 30.0000000  0  6                                             
G10  25689885.537 7 135001237.891 7      2828.003 7        43.103               
G12  26252870.137 7 137959750.031 7      2896.931 7        47.454               
G15  25322520.743 7 133070689.257 7     -2359.917 7        46.477               
G23  23299670.346 7 122440604.588 7       266.886 7        46.437               
G24  23616302.258 7 124104512.950 7     -1585.252 7        44.210               
G25  27126515.716 7 142550797.393 7      3697.566 7        44.609               
> 2025 08 05 07 34 31.0000000  0  6                                             
G10  25689346.062 7 134998407.826 7      2828.720 7        43.388               
G12  26252318.645 7 137956853.708 7      2895.462 7        47.018               
G15  25322971.328 7 133073048.976 7     -2357.144 7        47.550               
G23  23299616.658 7 122440337.306 7       268.806 7        46.129               
G24  23616607.300 7 124106104.199 7     -1594.064 7        44.229               
G25  27125813.115 7 142547100.414 7      3695.778 7        44.737               
> 2025 08 05 07 34 32.0000000  0  6                                             
G10  25688808.061 7 134995577.986 7      2826.527 7        43.698               
G12  26251764.563 7 137953957.631 7      2894.033 7        47.362               
G15  25323418.670 7 133075408.848 7     -2361.718 7        47.378               
G23  23299567.375 7 122440070.592 7       266.710 7        46.226               
G24  23616912.825 7 124107695.891 7     -1590.337 7        44.459               
G25  27125110.290 7 142543403.409 7      3697.684 7        45.300               
> 2025 08 05 07 34 33.0000000  0  6                                             
G10  25688268.274 7 134992748.431 7      2826.512 7        43.712               
G12  26251215.198 7 137951061.878 7      2894.153 7        47.687               
G15  25323867.183 7 133077768.977 7     -2361.581 7        47.653               
G23  23299516.127 7 122439804.497 7       263.842 7        46.226               
G24  23617218.903 7 124109288.115 7     -1592.499 7        45.105               
G25  27124402.990 7 142539706.431 7      3695.737 7        45.635               
> 2025 08 05 07 34 34.0000000  0  6                                             
G10  25687731.140 7 134989919.147 7      2831.108 7        43.918               
G12  26250664.796 7 137948166.433 7      2895.520 7        47.724               
G15  25324314.972 7 133080129.322 7     -2358.827 7        47.172               
G23  23299467.738 7 122439539.021 7       267.004 7        46.106               
G24  23617519.407 7 124110880.866 7     -1594.188 7        45.076               
G25  27123701.890 7 142536009.508 7      3699.196 7        45.142               
> 2025 08 05 07 34 35.0000000  0  6                                             
G10  25687195.498 7 134987090.126 7      2827.214 7        44.317               
G12  26250113.644 7 137945271.273 7      2892.085 7        47.461               
G15  25324762.832 7 133082489.851 7     -2362.594 7        47.109               
G23  23299418.366 7 122439274.133 7       263.896 7        45.728               
G24  23617822.010 7 124112474.100 7     -1588.215 7        44.474               
G25  27123001.085 7 142532312.562 7      3699.366 7        44.568               
> 2025 08 05 07 34 36.0000000  0  6                                             
G10  25686660.384 7 134984261.335 7      2822.673 7        43.919               
G12  26249561.205 7 137942376.387 7      2893.295 7        47.394               
G15  25325210.656 7 133084850.571 7     -2359.116 7        47.393               
G23  23299365.518 7 122439009.822 7       263.141 7        46.438               
G24  23618124.764 7 124114067.824 7     -1594.014 7        44.588               
G25  27122296.893 7 142528615.623 7      3696.555 7        44.679               
> 2025 08 05 07 34 37.0000000  0  6                                             
G10  25686120.837 7 134981432.840 7      2826.838 7        44.424               
G12  26249011.018 7 137939481.853 7      2893.930 7        47.472               
G15  25325662.850 7 133087211.538 7     -2360.121 7        46.932               
G23  23299313.948 7 122438746.154 7       265.572 7        46.738               
G24  23618425.884 7 124115662.082 7     -1595.004 7        44.971               
G25  27121593.381 7 142524918.732 7      3699.147 7        44.884               
> 2025 08 05 07 34 38.0000000  0  6                                             
G10  25685585.392 7 134978604.620 7      2831.868 7        43.960               
G12  26248462.939 7 137936587.614 7      2894.597 7        47.381               
G15  25326111.934 7 133089572.713 7     -2361.313 7        47.423               
G23  23299264.853 7 122438483.098 7       267.903 7        46.852               
G24  23618727.844 7 124117256.865 7     -1593.793 7        44.971               
G25  27120889.734 7 142521221.871 7      3697.550 7        45.024               
> 2025 08 05 07 34 39.0000000  0  6                                             
G10  25685046.525 7 134975776.669 7      2826.174 7        44.682               
G12  26247913.225 7 137933693.662 7      2893.735 7        47.896               
G15  25326564.780 7 133091934.094 7     -2361.491 7        47.227               
G23  23299218.652 7 122438220.644 7       258.381 7        46.946               
G24  23619032.886 7 124118852.134 7     -1598.217 7        44.328               
G25  27120183.980 7 142517525.020 7      3696.317 7        44.392               
> 2025 08 05 07 34 40.0000000  0  6                                             
G10  25684505.040 7 134972948.984 7      2828.216 7        44.854               
G12  26247361.689 8 137930800.023 8      2891.606 8        48.021               
G15  25327013.319 8 133094295.689 8     -2359.970 8        48.023               
G23  23299167.788 7 122437958.793 7       261.911 7        46.956               
G24  23619335.721 7 124120447.931 7     -1594.285 7        44.457               
G25  27119482.888 7 142513828.209 7      3698.258 7        44.199               
> 2025 08 05 07 34 41.0000000  0  6                                             
G10  25683966.834 7 134970121.540 7      2825.025 7        44.686               
G12  26246810.707 8 137927906.653 8      2896.567 8        48.147               
G15  25327461.849 8 133096657.477 8     -2361.701 8        48.157               
G23  23299121.811 7 122437697.537 7       261.892 7        46.978               
G24  23619637.592 7 124122044.196 7     -1595.404 7        45.256               
G25  27118774.426 7 142510131.379 7      3695.859 7        44.613               
> 2025 08 05 07 34 42.0000000  0  6                                             
G10  25683430.710 7 134967294.356 7      2826.847 7        44.816               
G12  26246262.941 8 137925013.587 8      2893.930 8        48.249               
G15  25327913.033 7 133099019.490 7     -2362.762 7        47.721               
G23  23299072.412 7 122437436.876 7       262.291 7        47.176               
G24  23619941.070 7 124123640.966 7     -1598.136 7        44.943               
G25  27118074.023 7 142506434.572 7      3699.985 7        44.731               
> 2025 08 05 07 34 43.0000000  0  6                                             
G10  25682893.272 7 134964467.462 7      2829.273 7        44.487               
G12  26245709.001 8 137922120.838 8      2892.635 8        48.247               
G15  25328360.626 7 133101381.727 7     -2362.337 7        47.795               
G23  23299020.342 7 122437176.837 7       257.729 7        47.212               
G24  23620241.609 7 124125238.270 7     -1600.215 7        44.722               
G25  27117369.573 7 142502737.813 7      3698.932 7        43.765               
