     3.02           OBSERVATION DATA    G                   RINEX VERSION / TYPE
G = GPS  R = GLONASS  E = GALILEO  S = GEO  M = MIXED       COMMENT             
GNSS-SDR            suhjw               20250806 070424 UTC PGM / RUN BY / DATE 
GPS OBSERVATION DATA FILE GENERATED BY GNSS-SDR             COMMENT             
GNSS-SDR VERSION 0.0.20                                     COMMENT             
See https://gnss-sdr.org                                    COMMENT             
DEFAULT MARKER NAME                                         MARKER NAME         
suhjw               CTTC                                    OBSERVER / AGENCY   
GNSS-SDR            Software Receiver   0.0.20              REC # / TYPE / VERS 
Antenna number      Antenna type                            ANT # / TYPE        
        0.0000        0.0000        0.0000                  APPROX POSITION XYZ 
        0.0000        0.0000        0.0000                  ANTENNA: DELTA H/E/N
G    4 C1C L1C D1C S1C                                      SYS / # / OBS TYPES 
DBHZ                                                        SIGNAL STRENGTH UNIT
  2025    08    06    07    04   42.1200000     GPS         TIME OF FIRST OBS   
    18    18   137     7                                    LEAP SECONDS        
                                                            END OF HEADER       
> 2025 08 06 07 04 43.0000000  0  6                                             
G05  28292682.928 7 148679061.985 7     -3502.075 7        44.200               
G10  26689215.086 7 140252758.399 7      3122.572 7        42.591               
G12  27275734.244 8 143334964.141 8      3202.827 8        48.721               
G15  24801127.678 7 130330813.766 7     -2028.110 7        45.091               
G24  23393445.254 7 122933369.713 7      -731.137 7        46.049               
G25  28320381.468 7 148824588.365 7      3591.330 7        42.039               
> 2025 08 06 07 04 44.0000000  0  6                                             
G05  28293349.782 7 148682564.189 7     -3504.850 7        44.182               
G10  26688616.492 7 140249637.392 7      3118.158 7        43.218               
G12  27275123.034 8 143331760.361 8      3206.695 8        48.784               
G15  24801516.079 7 130332843.356 7     -2027.853 7        45.044               
G24  23393584.114 7 122934099.040 7      -730.022 7        45.644               
G25  28319695.101 7 148820995.525 7      3592.777 7        42.123               
> 2025 08 06 07 04 45.0000000  0  6                                             
G05  28294013.259 7 148686066.561 7     -3502.627 7        44.928               
G10  26688021.418 7 140246516.523 7      3121.967 7        43.067               
G12  27274513.862 8 143328556.729 8      3205.715 8        48.513               
G15  24801903.158 7 130334873.170 7     -2024.499 7        45.033               
G24  23393726.691 7 122934829.015 7      -727.731 7        46.305               
G25  28319012.987 7 148817402.545 7      3595.494 7        42.684               
> 2025 08 06 07 04 46.0000000  0  6                                             
G05  28294681.381 7 148689569.094 7     -3504.014 7        44.164               
G10  26687432.366 7 140243395.780 7      3116.505 7        42.756               
G12  27273905.010 7 143325353.209 7      3204.419 7        47.970               
G15  24802287.021 7 130336903.254 7     -2026.896 7        44.747               
G24  23393863.961 7 122935559.614 7      -728.524 7        46.794               
G25  28318329.622 7 148813809.475 7      3587.336 7        43.146               
> 2025 08 06 07 04 47.0000000  0  6                                             
G05  28295347.717 7 148693071.749 7     -3502.809 7        44.547               
G10  26686834.486 7 140240275.154 7      3118.547 7        42.629               
G12  27273297.321 8 143322149.781 8      3204.230 8        48.295               
G15  24802671.955 7 130338933.538 7     -2031.151 7        44.780               
G24  23394004.858 7 122936290.801 7      -732.484 7        45.892               
G25  28317643.433 7 148810216.214 7      3594.685 7        42.802               
> 2025 08 06 07 04 48.0000000  0  6                                             
G05  28296015.536 7 148696574.524 7     -3505.276 7        44.342               
G10  26686243.146 7 140237154.621 7      3120.796 7        42.762               
G12  27272686.075 7 143318946.434 7      3200.899 7        47.717               
G15  24803058.945 7 130340964.028 7     -2029.069 7        44.913               
G24  23394142.986 7 122937022.578 7      -732.786 7        46.245               
G25  28316957.477 7 148806622.799 7      3592.556 7        42.687               
> 2025 08 06 07 04 49.0000000  0  6                                             
G05  28296680.282 7 148700077.447 7     -3501.185 7        44.595               
G10  26685643.891 7 140234034.250 7      3122.797 7        42.688               
G12  27272075.455 8 143315743.218 8      3203.442 8        48.176               
G15  24803442.592 7 130342994.771 7     -2032.762 7        44.848               
G24  23394282.114 7 122937754.988 7      -731.762 7        46.271               
G25  28316276.417 7 148803029.268 7      3591.595 7        42.988               
> 2025 08 06 07 04 50.0000000  0  6                                             
G05  28297348.976 7 148703580.586 7     -3503.833 7        44.639               
G10  26685053.230 7 140230914.061 7      3123.041 7        42.381               
G12  27271467.086 8 143312540.161 8      3204.282 8        48.086               
G15  24803833.048 7 130345025.797 7     -2028.197 7        45.610               
G24  23394421.707 7 122938488.089 7      -737.993 7        46.556               
G25  28315586.244 7 148799435.640 7      3591.236 7        42.985               
> 2025 08 06 07 04 51.0000000  0  6                                             
G05  28298013.829 7 148707083.891 7     -3502.897 7        44.797               
G10  26684456.226 7 140227794.020 7      3124.947 7        42.490               
G12  27270857.574 7 143309337.266 7      3201.713 7        47.775               
G15  24804222.003 7 130347057.076 7     -2032.249 7        44.953               
G24  23394558.994 7 122939221.802 7      -730.782 7        46.441               
G25  28314905.059 7 148795841.914 7      3595.897 7        42.227               
> 2025 08 06 07 04 52.0000000  0  6                                             
G05  28298683.256 7 148710587.341 7     -3508.493 7        44.907               
G10  26683862.099 7 140224674.096 7      3116.413 7        42.051               
G12  27270246.203 7 143306134.464 7      3201.154 7        47.419               
G15  24804611.369 7 130349088.585 7     -2033.454 7        45.640               
G24  23394699.623 7 122939956.154 7      -734.245 7        46.218               
G25  28314223.374 7 148792248.039 7      3592.840 7        42.481               
> 2025 08 06 07 04 53.0000000  0  6                                             
G05  28299348.270 7 148714090.900 7     -3503.973 7        44.725               
G10  26683270.491 7 140221554.278 7      3122.286 7        42.299               
G12  27269637.441 7 143302931.761 7      3202.800 7        47.495               
G15  24804995.482 7 130351120.291 7     -2034.481 7        45.789               
G24  23394839.145 7 122940691.087 7      -733.854 7        46.686               
G25  28313539.348 7 148788654.007 7      3594.261 7        42.562               
> 2025 08 06 07 04 54.0000000  0  6                                             
G05  28300014.820 7 148717594.626 7     -3507.139 7        44.077               
G10  26682672.362 7 140218434.612 7      3118.561 7        42.716               
G12  27269029.019 7 143299729.184 7      3200.660 7        46.992               
G15  24805382.168 7 130353152.254 7     -2029.381 7        45.644               
G24  23394978.470 7 122941426.646 7      -735.559 7        46.722               
G25  28312853.892 7 148785059.851 7      3591.522 7        42.564               
> 2025 08 06 07 04 55.0000000  0  6                                             
G05  28300685.016 7 148721098.430 7     -3503.123 7        44.322               
G10  26682082.934 7 140215314.997 7      3119.684 7        42.408               
G12  27268421.615 7 143296526.669 7      3204.395 7        47.158               
G15  24805767.924 7 130355184.380 7     -2030.821 7        45.628               
G24  23395119.456 7 122942162.766 7      -739.148 7        46.384               
G25  28312170.598 7 148781465.491 7      3593.199 7        43.057               
> 2025 08 06 07 04 56.0000000  0  6                                             
G05  28301347.796 7 148724602.391 7     -3504.879 7        44.491               
G10  26681487.717 7 140212195.549 7      3117.432 7        42.209               
G12  27267809.636 7 143293324.289 7      3203.766 7        47.239               
G15  24806154.306 7 130357216.748 7     -2034.509 7        45.177               
G24  23395260.943 7 122942899.525 7      -737.394 7        46.167               
G25  28311489.592 7 148777871.013 7      3597.620 7        43.143               
> 2025 08 06 07 04 57.0000000  0  6                                             
G05  28302015.186 7 148728106.479 7     -3501.511 7        44.882               
G10  26680895.037 7 140209076.189 7      3112.461 7        42.339               
G12  27267202.536 7 143290122.003 7      3203.256 7        47.334               
G15  24806539.294 7 130359249.350 7     -2033.184 7        45.019               
G24  23395398.570 7 122943636.878 7      -741.196 7        46.475               
G25  28310802.046 7 148774276.380 7      3596.288 7        42.772               
> 2025 08 06 07 04 58.0000000  0  6                                             
G05  28302682.773 7 148731610.735 7     -3508.273 7        45.149               
G10  26680298.247 7 140205956.992 7      3122.661 7        42.523               
G12  27266589.629 7 143286919.854 7      3200.150 7        47.173               
G15  24806928.517 7 130361282.194 7     -2034.718 7        45.310               
G24  23395541.183 7 122944374.870 7      -740.138 7        46.008               
G25  28310119.002 7 148770681.642 7      3595.002 7        42.488               
> 2025 08 06 07 04 59.0000000  0  6                                             
G05  28303349.930 7 148735115.088 7     -3503.970 7        44.834               
G10  26679710.875 7 140202837.887 7      3121.201 7        43.022               
G12  27265982.297 7 143283717.778 7      3199.983 7        47.345               
G15  24807316.525 7 130363315.230 7     -2039.393 7        45.339               
G24  23395684.189 7 122945113.424 7      -741.628 7        46.673               
G25  28309433.332 7 148767086.703 7      3589.885 7        42.822               
> 2025 08 06 07 05 00.0000000  0  6                                             
G05  28304018.107 7 148738619.636 7     -3504.067 7        44.103               
G10  26679119.500 7 140199718.953 7      3113.293 7        42.842               
G12  27265374.911 7 143280515.875 7      3201.133 7        46.788               
G15  24807701.513 7 130365348.571 7     -2030.705 7        45.205               
G24  23395823.835 7 122945852.670 7      -742.586 7        46.551               
G25  28308748.484 7 148763491.699 7      3594.777 7        42.805               
> 2025 08 06 07 05 01.0000000  0  6                                             
G05  28304687.588 7 148742124.327 7     -3502.598 7        43.663               
G10  26678527.552 7 140196600.132 7      3116.060 7        42.608               
G12  27264765.255 7 143277314.059 7      3203.475 7        47.444               
G15  24808088.002 7 130367382.093 7     -2035.772 7        45.236               
G24  23395959.336 7 122946592.494 7      -744.457 7        46.468               
G25  28308067.442 7 148759896.522 7      3598.717 7        43.654               
> 2025 08 06 07 05 02.0000000  0  6                                             
G05  28305353.244 7 148745629.174 7     -3506.503 7        44.113               
G10  26677937.392 7 140193481.476 7      3117.431 7        42.938               
G12  27264155.939 7 143274112.398 7      3199.818 7        47.144               
G15  24808473.777 7 130369415.908 7     -2034.415 7        44.692               
G24  23396098.696 7 122947332.978 7      -741.658 7        45.614               
G25  28307381.968 7 148756301.255 7      3593.250 7        43.937               
> 2025 08 06 07 05 03.0000000  0  6                                             
G05  28306017.096 7 148749134.124 7     -3505.025 7        43.950               
G10  26677341.532 7 140190362.907 7      3118.148 7        42.966               
G12  27263545.587 7 143270910.802 7      3202.997 7        46.827               
G15  24808861.123 7 130371449.887 7     -2032.754 7        44.792               
G24  23396241.649 7 122948074.008 7      -742.119 7        45.694               
G25  28306697.745 7 148752705.810 7      3594.298 7        44.193               
> 2025 08 06 07 05 04.0000000  0  6                                             
G05  28306687.471 7 148752639.210 7     -3501.959 7        43.899               
G10  26676750.156 7 140187244.441 7      3121.491 7        43.062               
G12  27262936.611 7 143267709.307 7      3202.228 7        47.592               
G15  24809248.560 7 130373484.090 7     -2037.354 7        45.176               
G24  23396384.083 7 122948815.654 7      -738.663 7        45.869               
G25  28306013.612 7 148749110.206 7      3599.777 7        43.670               
> 2025 08 06 07 05 05.0000000  0  6                                             
G05  28307351.359 7 148756144.508 7     -3502.275 7        43.780               
G10  26676152.974 7 140184126.187 7      3120.667 7        43.536               
G12  27262327.009 7 143264508.004 7      3201.076 7        46.971               
G15  24809636.264 7 130375518.599 7     -2032.885 7        45.159               
G24  23396525.355 7 122949557.996 7      -741.443 7        46.258               
G25  28305328.246 7 148745514.537 7      3591.498 7        44.150               
> 2025 08 06 07 05 06.0000000  0  7                                             
G32  28113313.032 6 147736505.002 6      2358.084 6        39.241               
G05  28308020.839 7 148759649.950 7     -3504.937 7        43.815               
G10  26675564.100 7 140181008.057 7      3115.491 7        43.380               
G12  27261719.999 7 143261306.805 7      3202.777 7        47.133               
G15  24810027.899 7 130377553.339 7     -2034.038 7        45.271               
G24  23396666.628 7 122950300.946 7      -742.694 7        45.870               
G25  28304646.006 7 148741918.725 7      3596.267 7        44.205               
> 2025 08 06 07 05 07.0000000  0  7                                             
G32  28112863.090 6 147734145.652 6      2353.273 6        39.321               
G05  28308685.138 7 148763155.502 7     -3506.971 7        43.442               
G10  26674973.690 7 140177890.006 7      3120.457 7        42.885               
G12  27261106.430 7 143258105.697 7      3203.869 7        47.174               
G15  24810410.135 7 130379588.282 7     -2033.389 7        45.184               
G24  23396809.276 7 122951044.482 7      -742.383 7        45.384               
G25  28303961.301 7 148738322.749 7      3597.550 7        44.453               
> 2025 08 06 07 05 08.0000000  0  7                                             
G32  28112414.077 6 147731786.304 6      2355.749 6        39.572               
G05  28309350.581 7 148766661.166 7     -3507.895 7        43.399               
G10  26674379.598 7 140174772.067 7      3120.256 7        43.491               
G12  27260498.704 7 143254904.661 7      3201.673 7        47.152               
G15  24810803.576 7 130381623.390 7     -2034.037 7        45.826               
G24  23396946.492 7 122951788.586 7      -738.252 7        45.962               
G25  28303278.276 7 148734726.583 7      3599.963 7        44.265               
> 2025 08 06 07 05 09.0000000  0  7                                             
G32  28111973.177 6 147729426.976 6      2362.699 6        40.024               
G05  28310018.703 7 148770166.970 7     -3504.576 7        43.538               
G10  26673785.453 7 140171654.236 7      3116.753 7        43.401               
G12  27259889.639 7 143251703.752 7      3203.864 7        46.571               
G15  24811189.100 7 130383658.735 7     -2037.282 7        45.523               
G24  23397089.641 7 122952533.306 7      -749.089 7        45.287               
G25  28302593.463 7 148731130.281 7      3593.850 7        43.848               
> 2025 08 06 07 05 10.0000000  0  7                                             
G32  28111522.717 6 147727067.702 6      2357.151 6        39.293               
G05  28310687.184 7 148773672.912 7     -3503.495 7        44.024               
G10  26673194.739 7 140168536.568 7      3119.967 7        43.616               
G12  27259280.359 7 143248502.950 7      3200.566 7        46.193               
G15  24811573.266 7 130385694.313 7     -2033.223 7        45.140               
G24  23397231.021 7 122953278.651 7      -744.684 7        45.609               
G25  28301907.811 7 148727533.847 7      3595.202 7        43.513               
> 2025 08 06 07 05 11.0000000  0  7                                             
G32  28111073.900 6 147724708.486 6      2365.286 6        38.863               
G05  28311354.788 7 148777179.004 7     -3505.219 7        44.014               
G10  26672598.164 7 140165419.012 7      3120.163 7        44.273               
G12  27258671.918 7 143245302.270 7      3201.905 7        46.625               
G15  24811955.413 7 130387730.149 7     -2033.292 7        45.142               
G24  23397372.132 7 122954024.617 7      -745.975 7        46.382               
G25  28301223.016 7 148723937.283 7      3597.249 7        43.328               
> 2025 08 06 07 05 12.0000000  0  7                                             
G32  28110625.138 6 147722349.365 6      2359.918 6        38.898               
G05  28312022.607 7 148780685.311 7     -3506.170 7        44.261               
G10  26672007.110 7 140162301.664 7      3118.160 7        43.826               
G12  27258063.282 7 143242101.775 7      3198.401 7        47.175               
G15  24812342.938 7 130389766.279 7     -2034.143 7        44.376               
G24  23397511.350 7 122954771.270 7      -745.999 7        45.705               
G25  28300537.221 7 148720340.660 7      3600.133 7        43.710               
> 2025 08 06 07 05 13.0000000  0  7                                             
G32  28110176.875 6 147719990.321 6      2353.117 6        39.309               
G05  28312691.355 7 148784191.747 7     -3503.998 7        42.945               
G10  26671415.127 7 140159184.441 7      3115.483 7        44.095               
G12  27257456.843 7 143238901.390 7      3200.879 7        46.725               
G15  24812730.035 7 130391802.628 7     -2035.915 7        45.160               
G24  23397654.660 7 122955518.517 7      -750.077 7        46.047               
G25  28299852.712 7 148716743.907 7      3597.289 7        43.674               
> 2025 08 06 07 05 14.0000000  0  7                                             
G32  28109726.397 6 147717631.281 6      2357.924 6        39.108               
G05  28313354.421 7 148787698.323 7     -3506.602 7        43.562               
G10  26670819.535 7 140156067.335 7      3117.052 7        44.620               
G12  27256846.919 7 143235701.119 7      3201.353 7        46.845               
G15  24813119.723 7 130393839.209 7     -2031.972 7        44.856               
G24  23397797.808 7 122956266.392 7      -748.601 7        45.470               
G25  28299170.134 7 148713146.993 7      3596.249 7        43.331               
> 2025 08 06 07 05 15.0000000  0  7                                             
G32  28109280.583 6 147715272.329 6      2360.248 6        39.259               
G05  28314025.135 7 148791205.072 7     -3508.062 7        43.692               
G10  26670229.571 7 140152950.387 7      3115.756 7        43.624               
G12  27256237.568 7 143232500.979 7      3203.583 7        46.757               
G15  24813508.499 7 130395876.042 7     -2036.875 7        44.796               
G24  23397939.045 7 122957014.891 7      -745.408 7        45.689               
G25  28298482.516 7 148709549.973 7      3597.772 7        42.945               
> 2025 08 06 07 05 16.0000000  0  7                                             
G32  28108826.674 6 147712913.398 6      2363.738 6        39.231               
G05  28314689.344 7 148794711.932 7     -3508.642 7        43.876               
G10  26669633.157 7 140149833.547 7      3116.418 7        43.533               
G12  27255625.393 7 143229300.935 7      3199.836 7        46.705               
G15  24813897.025 7 130397913.086 7     -2037.325 7        44.881               
G24  23398084.749 7 122957763.979 7      -751.658 7        45.762               
G25  28297794.612 7 148705952.794 7      3597.787 7        43.615               
> 2025 08 06 07 05 17.0000000  0  7                                             
G32  28108383.737 6 147710554.497 6      2360.635 6        40.181               
G05  28315354.251 7 148798218.950 7     -3507.996 7        43.649               
G10  26669033.383 7 140146716.811 7      3118.473 7        43.842               
G12  27255015.505 7 143226100.987 7      3203.246 7        46.634               
G15  24814287.267 7 130399950.335 7     -2040.921 7        45.542               
G24  23398225.110 7 122958513.679 7      -749.240 7        45.850               
G25  28297114.428 7 148702355.461 7      3598.525 7        43.323               
> 2025 08 06 07 05 18.0000000  0  8                                             
G32  28107943.498 6 147708195.590 6      2359.361 6        39.854               
G05  28316025.161 7 148801726.057 7     -3512.298 7        43.361               
G10  26668441.275 7 140143600.153 7      3114.771 7        43.856               
G12  27254409.692 7 143222901.119 7      3201.459 7        46.729               
G15  24814676.722 7 130401987.776 7     -2038.274 7        45.583               
G23  23621365.910 6 124131116.491 6      1100.886 6        41.039               
G24  23398372.315 7 122959263.940 7      -750.206 7        46.367               
G25  28296429.383 7 148698757.929 7      3604.217 7        43.364               
> 2025 08 06 07 05 19.0000000  0  8                                             
G32  28107495.718 6 147705836.713 6      2364.725 6        40.559               
G05  28316689.942 7 148805233.278 7     -3502.959 7        43.505               
G10  26667846.004 7 140140483.628 7      3115.698 7        43.727               
G12  27253800.001 7 143219701.304 7      3198.378 7        46.740               
G15  24815061.960 7 130404025.410 7     -2039.562 7        45.688               
G23  23621151.947 6 124130009.969 6      1110.018 6        41.429               
G24  23398514.481 7 122960014.777 7      -748.694 7        46.104               
G25  28295740.693 7 148695160.247 7      3600.478 7        43.104               
> 2025 08 06 07 05 20.0000000  0  8                                             
G32  28107047.063 6 147703477.898 6      2362.633 6        40.851               
G05  28317358.476 7 148808740.706 7     -3505.824 7        42.766               
G10  26667257.971 7 140137367.241 7      3117.097 7        44.338               
G12  27253190.953 7 143216501.661 7      3198.538 7        46.537               
G15  24815451.058 7 130406063.316 7     -2038.602 7        45.278               
G23  23620939.645 6 124128904.003 6      1104.796 6        41.017               
G24  23398658.881 7 122960766.264 7      -751.738 7        46.282               
G25  28295061.152 7 148691562.478 7      3596.163 7        43.033               
> 2025 08 06 07 05 21.0000000  0  8                                             
G32  28106599.104 6 147701119.133 6      2357.647 6        40.756               
G05  28318028.958 7 148812248.257 7     -3508.698 7        43.129               
G10  26666663.558 7 140134250.991 7      3115.767 7        43.846               
G12  27252583.174 7 143213302.135 7      3197.902 7        46.828               
G15  24815835.207 7 130408101.440 7     -2037.869 7        44.794               
G23  23620730.685 6 124127798.565 6      1107.445 6        41.044               
G24  23398802.065 7 122961518.374 7      -750.895 7        45.805               
G25  28294373.802 7 148687964.566 7      3593.195 7        42.802               
> 2025 08 06 07 05 22.0000000  0  8                                             
G32  28106156.971 6 147698760.427 6      2359.849 6        40.221               
G05  28318693.775 7 148815755.938 7     -3508.200 7        43.468               
G10  26666071.432 7 140131134.838 7      3116.717 7        44.130               
G12  27251976.664 7 143210102.699 7      3200.893 7        47.110               
G15  24816225.395 7 130410139.774 7     -2039.902 7        45.269               
G23  23620519.598 6 124126693.603 6      1101.811 6        41.089               
G24  23398944.356 7 122962271.061 7      -758.528 7        46.151               
G25  28293688.632 7 148684366.471 7      3598.817 7        42.831               
> 2025 08 06 07 05 23.0000000  0  8                                             
G32  28105699.720 6 147696401.684 6      2358.928 6        40.651               
G05  28319365.310 7 148819263.725 7     -3506.164 7        43.400               
G10  26665478.538 7 140128018.780 7      3115.035 7        44.713               
G12  27251365.990 7 143206903.321 7      3196.391 7        47.521               
G15  24816610.615 7 130412178.294 7     -2037.977 7        45.153               
G23  23620311.334 6 124125589.099 6      1108.778 6        41.610               
G24  23399088.631 7 122963024.324 7      -752.939 7        46.268               
G25  28293007.697 7 148680768.207 7      3601.168 7        43.086               
> 2025 08 06 07 05 24.0000000  0  8                                             
G32  28105254.281 6 147694042.978 6      2359.793 6        40.519               
G05  28320027.536 7 148822771.664 7     -3510.021 7        43.060               
G10  26664885.447 7 140124902.840 7      3118.385 7        44.301               
G12  27250759.319 7 143203704.072 7      3197.439 7        47.776               
G15  24817002.286 7 130414217.043 7     -2040.647 7        45.172               
G23  23620109.182 7 124124485.112 7      1101.024 7        42.007               
G24  23399232.244 7 122963778.185 7      -751.860 7        46.332               
G25  28292319.454 7 148677169.795 7      3602.440 7        43.397               
> 2025 08 06 07 05 25.0000000  0  8                                             
G32  28104802.642 6 147691684.351 6      2356.264 6        40.393               
G05  28320698.643 7 148826279.740 7     -3506.852 7        43.164               
G10  26664291.159 7 140121787.026 7      3112.093 7        44.142               
G12  27250150.146 7 143200504.936 7      3197.716 7        47.822               
G15  24817388.025 7 130416256.028 7     -2043.270 7        45.778               
G23  23619892.967 6 124123381.641 6      1111.178 6        41.507               
G24  23399372.641 7 122964532.678 7      -754.378 7        45.870               
G25  28291636.303 7 148673571.263 7      3597.600 7        43.300               
> 2025 08 06 07 05 26.0000000  0  8                                             
G32  28104350.609 6 147689325.732 6      2356.691 6        39.058               
G05  28321365.283 7 148829787.962 7     -3508.863 7        44.011               
G10  26663698.336 7 140118671.357 7      3116.874 7        44.476               
G12  27249538.900 7 143197305.914 7      3197.961 7        47.914               
G15  24817777.784 7 130418295.239 7     -2040.447 7        44.978               
G23  23619682.273 6 124122278.662 6      1105.889 6        41.239               
G24  23399518.113 7 122965287.780 7      -757.618 7        45.735               
G25  28290949.758 7 148669972.589 7      3599.636 7        43.404               
> 2025 08 06 07 05 27.0000000  0  8                                             
G32  28103895.342 6 147686967.179 6      2352.276 6        39.862               
G05  28322033.227 7 148833296.320 7     -3511.175 7        44.289               
G10  26663105.871 7 140115555.799 7      3115.531 7        44.052               
G12  27248932.944 7 143194107.009 7      3199.146 7        47.755               
G15  24818167.668 7 130420334.680 7     -2039.704 7        45.355               
G23  23619467.523 6 124121176.232 6      1102.494 6        41.387               
G24  23399661.655 7 122966043.484 7      -754.537 7        45.487               
G25  28290268.394 7 148666373.767 7      3599.218 7        42.810               
> 2025 08 06 07 05 28.0000000  0  8                                             
G32  28103451.225 6 147684608.668 6      2359.436 6        39.756               
G05  28322699.456 7 148836804.819 7     -3507.164 7        44.193               
G10  26662513.227 7 140112440.395 7      3116.603 7        43.957               
G12  27248324.682 7 143190908.234 7      3199.710 7        47.654               
G15  24818558.446 7 130422374.373 7     -2043.697 7        45.706               
G23  23619255.293 6 124120074.331 6      1095.774 6        41.096               
G24  23399807.412 7 122966799.838 7      -758.813 7        45.802               
G25  28289582.027 7 148662774.835 7      3595.272 7        43.003               
> 2025 08 06 07 05 29.0000000  0  8                                             
G32  28103003.392 6 147682250.210 6      2357.055 6        39.519               
G05  28323366.667 7 148840313.446 7     -3508.919 7        44.426               
G10  26661921.709 7 140109325.116 7      3116.404 7        44.080               
G12  27247715.867 8 143187709.583 8      3199.879 8        48.155               
G15  24818944.613 7 130424414.273 7     -2039.956 7        46.110               
G23  23619043.920 6 124118972.925 6      1101.951 6        40.893               
G24  23399950.239 7 122967556.775 7      -754.802 7        46.194               
G25  28288897.840 7 148659175.752 7      3595.997 7        42.878               
> 2025 08 06 07 05 30.0000000  0  8                                             
G32  28102554.129 6 147679891.812 6      2362.726 6        39.193               
G05  28324034.736 7 148843822.211 7     -3511.894 7        43.798               
G10  26661332.209 7 140106209.984 7      3117.175 7        44.164               
G12  27247106.533 7 143184511.048 7      3196.204 7        47.359               
G15  24819333.086 7 130426454.420 7     -2042.992 7        45.909               
G23  23618844.055 6 124117872.042 6      1096.697 6        40.603               
G24  23400094.692 7 122968314.349 7      -754.114 7        46.306               
G25  28288214.993 7 148655576.552 7      3599.513 7        42.852               
> 2025 08 06 07 05 31.0000000  0  8                                             
G32  28102113.640 6 147677533.390 6      2355.770 6        39.451               
G05  28324705.789 7 148847331.076 7     -3505.179 7        43.811               
G10  26660738.279 7 140103094.922 7      3115.396 7        44.399               
G12  27246498.325 8 143181312.599 8      3199.544 8        48.579               
G15  24819719.896 7 130428494.766 7     -2041.753 7        45.616               
G23  23618637.150 6 124116771.628 6      1100.759 6        41.553               
G24  23400240.254 7 122969072.485 7      -761.182 7        46.420               
G25  28287530.288 7 148651977.164 7      3600.817 7        43.460               
> 2025 08 06 07 05 32.0000000  0  8                                             
G32  28101664.198 6 147675175.002 6      2360.598 6        39.519               
G05  28325369.945 7 148850840.061 7     -3507.482 7        43.257               
G10  26660147.761 7 140099979.976 7      3111.426 7        44.424               
G12  27245888.884 8 143178114.226 8      3198.913 8        48.373               
G15  24820107.011 7 130430535.312 7     -2045.815 7        45.999               
G23  23618434.408 7 124115671.689 7      1110.293 7        42.538               
G24  23400383.456 7 122969831.205 7      -757.217 7        46.304               
G25  28286846.726 7 148648377.627 7      3602.234 7        43.282               
> 2025 08 06 07 05 33.0000000  0  8                                             
G32  28101212.219 6 147672816.653 6      2362.493 6        39.556               
G05  28326039.337 7 148854349.183 7     -3509.597 7        43.382               
G10  26659553.491 7 140096865.146 7      3112.535 7        44.383               
G12  27245280.265 8 143174915.968 8      3198.966 8        48.337               
G15  24820496.413 7 130432576.064 7     -2041.028 7        45.988               
G23  23618219.765 7 124114572.278 7      1099.989 7        42.150               
G24  23400526.301 7 122970590.540 7      -760.977 7        46.557               
G25  28286160.448 7 148644777.951 7      3598.285 7        43.266               
> 2025 08 06 07 05 34.0000000  0  8                                             
G32  28100761.258 6 147670458.404 6      2360.051 6        40.054               
G05  28326706.834 7 148857858.483 7     -3509.480 7        42.365               
G10  26658959.686 7 140093750.490 7      3117.015 7        44.452               
G12  27244671.128 8 143171717.859 8      3197.701 8        48.230               
G15  24820881.633 7 130434617.085 7     -2040.280 7        45.864               
G23  23618006.034 7 124113473.417 7      1100.115 7        42.132               
G24  23400669.861 7 122971350.527 7      -764.954 7        45.968               
G25  28285473.045 7 148641178.163 7      3599.107 7        43.397               
> 2025 08 06 07 05 35.0000000  0  8                                             
G32  28100323.485 6 147668100.151 6      2350.376 6        39.761               
G05  28327374.421 7 148861367.889 7     -3506.084 7        42.339               
G10  26658370.419 7 140090635.931 7      3110.939 7        44.308               
G12  27244060.186 7 143168519.857 7      3196.388 7        47.946               
G15  24821271.660 7 130436658.327 7     -2043.067 7        45.759               
G23  23617795.715 6 124112375.024 6      1098.556 6        41.785               
G24  23400816.958 7 122972111.094 7      -762.017 7        46.380               
G25  28284787.518 7 148637578.222 7      3600.611 7        43.735               
> 2025 08 06 07 05 36.0000000  0  8                                             
G32  28099863.680 6 147665741.967 6      2359.725 6        39.720               
G05  28328041.043 7 148864877.463 7     -3507.435 7        42.166               
G10  26657773.933 7 140087521.518 7      3114.381 7        44.665               
G12  27243455.320 7 143165321.976 7      3199.191 7        47.487               
G15  24821663.528 7 130438699.811 7     -2041.560 7        46.049               
G23  23617586.952 6 124111277.161 6      1096.986 6        41.679               
G24  23400961.269 7 122972872.280 7      -763.616 7        45.912               
G25  28284102.938 7 148633978.151 7      3599.783 7        43.529               
> 2025 08 06 07 05 37.0000000  0  8                                             
G32  28099410.843 6 147663383.817 6      2358.117 6        39.299               
G05  28328711.631 7 148868387.166 7     -3503.518 7        42.248               
G10  26657183.505 7 140084407.238 7      3113.668 7        44.624               
G12  27242843.699 7 143162124.225 7      3198.787 7        47.270               
G15  24822048.695 7 130440741.538 7     -2039.482 7        45.655               
G23  23617377.795 7 124110179.815 7      1096.585 7        42.433               
G24  23401105.543 7 122973634.087 7      -758.609 7        45.963               
G25  28283416.821 7 148630377.966 7      3597.914 7        43.128               
> 2025 08 06 07 05 38.0000000  0  8                                             
G32  28098952.449 6 147661025.731 6      2363.454 6        39.266               
G05  28329378.503 7 148871897.032 7     -3515.882 7        42.788               
G10  26656591.593 7 140081293.084 7      3113.520 7        44.154               
G12  27242237.170 7 143158926.569 7      3197.600 7        47.735               
G15  24822438.204 7 130442783.447 7     -2037.230 7        46.117               
G23  23617174.570 7 124109082.984 7      1094.303 7        42.041               
G24  23401253.534 7 122974396.501 7      -765.671 7        46.599               
G25  28282732.259 7 148626777.620 7      3603.999 7        43.651               
> 2025 08 06 07 05 39.0000000  0  8                                             
G32  28098505.276 6 147658667.669 6      2364.798 6        38.190               
G05  28330045.411 7 148875407.002 7     -3512.072 7        42.829               
G10  26656000.736 7 140078179.036 7      3112.487 7        44.788               
G12  27241626.407 7 143155729.019 7      3197.338 7        47.664               
G15  24822827.534 7 130444825.592 7     -2039.388 7        46.483               
G23  23616970.953 6 124107986.616 6      1090.946 6        41.923               
G24  23401396.630 7 122975159.514 7      -764.042 7        46.203               
G25  28282042.997 7 148623177.129 7      3599.103 7        42.477               
> 2025 08 06 07 05 40.0000000  0  8                                             
G32  28098057.425 6 147656309.624 6      2358.897 6        38.456               
G05  28330717.429 7 148878917.121 7     -3510.521 7        42.787               
G10  26655405.608 7 140075065.102 7      3119.518 7        44.472               
G12  27241017.985 7 143152531.573 7      3199.200 7        47.410               
G15  24823216.507 7 130446867.952 7     -2042.379 7        46.454               
G23  23616767.818 6 124106890.761 6      1098.392 6        41.799               
G24  23401543.441 7 122975923.131 7      -765.289 7        46.375               
G25  28281364.921 7 148619576.497 7      3598.795 7        43.174               
> 2025 08 06 07 05 41.0000000  0  8                                             
G32  28097618.258 6 147653951.600 6      2347.398 6        38.806               
G05  28331382.121 7 148882427.304 7     -3510.586 7        43.031               
G10  26654813.501 7 140071951.275 7      3111.648 7        44.228               
G12  27240410.688 7 143149334.201 7      3196.796 7        47.316               
G15  24823602.639 7 130448910.495 7     -2041.102 7        46.071               
G23  23616550.262 6 124105795.397 6      1096.273 6        41.436               
G24  23401688.038 7 122976687.311 7      -761.892 7        46.035               
G25  28280678.357 7 148615975.692 7      3599.104 7        43.174               
> 2025 08 06 07 05 42.0000000  0  8                                             
G32  28097154.414 6 147651593.605 6      2352.107 6        39.013               
G05  28332050.726 7 148885937.642 7     -3509.753 7        43.358               
G10  26654220.303 7 140068837.561 7      3113.178 7        44.153               
G12  27239799.300 7 143146136.944 7      3197.433 7        47.497               
G15  24823995.167 7 130450953.271 7     -2046.768 7        46.242               
G23  23616337.371 6 124104700.540 6      1086.637 6        41.846               
G24  23401835.511 7 122977452.102 7      -764.079 7        46.209               
G25  28279992.151 7 148612374.737 7      3596.617 7        43.083               
> 2025 08 06 07 05 43.0000000  0  8                                             
G32  28096705.598 6 147649235.628 6      2354.794 6        38.457               
G05  28332718.456 7 148889448.105 7     -3506.131 7        42.829               
G10  26653622.923 7 140065723.969 7      3111.834 7        44.444               
G12  27239192.057 7 143142939.779 7      3197.916 7        46.857               
G15  24824384.444 7 130452996.243 7     -2050.733 7        46.038               
G23  23616124.497 6 124103606.180 6      1091.899 6        41.827               
G24  23401979.213 7 122978217.476 7      -766.503 7        45.850               
G25  28279309.215 7 148608773.617 7      3603.835 7        42.878               
> 2025 08 06 07 05 44.0000000  0  8                                             
G32  28096254.101 6 147646877.694 6      2358.615 6        38.758               
G05  28333382.433 7 148892958.702 7     -3508.592 7        42.991               
G10  26653030.404 7 140062610.503 7      3116.201 7        44.400               
G12  27238582.902 7 143139742.749 7      3199.203 7        46.831               
G15  24824773.435 7 130455039.448 7     -2044.017 7        46.039               
G23  23615914.536 6 124102512.333 6      1087.329 6        41.847               
G24  23402125.632 7 122978983.464 7      -763.816 7        46.009               
G25  28278621.883 7 148605172.375 7      3599.912 7        43.525               
> 2025 08 06 07 05 45.0000000  0  8                                             
G32  28095810.395 6 147644519.818 6      2353.306 6        38.160               
G05  28334048.215 7 148896469.448 7     -3509.744 7        43.307               
G10  26652437.153 7 140059497.160 7      3111.198 7        44.730               
G12  27237973.228 7 143136545.819 7      3194.711 7        46.664               
G15  24825161.121 7 130457082.878 7     -2046.370 7        45.917               
G23  23615705.343 7 124101418.973 7      1092.679 7        42.019               
G24  23402269.496 7 122979750.079 7      -765.761 7        45.749               
G25  28277937.446 7 148601570.987 7      3603.116 7        43.138               
> 2025 08 06 07 05 46.0000000  0  8                                             
G32  28095365.600 6 147642161.980 6      2359.005 6        37.904               
G05  28334720.269 7 148899980.374 7     -3516.448 7        43.118               
G10  26651843.562 7 140056383.961 7      3112.124 7        44.277               
G12  27237367.129 7 143133349.016 7      3196.014 7        46.694               
G15  24825549.433 7 130459126.537 7     -2040.440 7        46.291               
G23  23615502.870 6 124100326.173 6      1088.113 6        41.703               
G24  23402418.863 7 122980517.285 7      -765.018 7        46.116               
G25  28277249.238 7 148597969.489 7      3604.786 7        43.019               
> 2025 08 06 07 05 47.0000000  0  8                                             
G32  28094917.463 6 147639804.151 6      2362.000 6        37.834               
G05  28335386.051 7 148903491.368 7     -3511.104 7        43.369               
G10  26651255.117 7 140053270.848 7      3109.279 7        44.644               
G12  27236758.206 7 143130152.288 7      3195.295 7        46.287               
G15  24825937.530 7 130461170.395 7     -2043.691 7        46.017               
G23  23615300.360 6 124099233.810 6      1095.517 6        41.710               
G24  23402563.763 7 122981285.080 7      -768.047 7        46.331               
G25  28276566.105 7 148594367.798 7      3599.283 7        43.683               
> 2025 08 06 07 05 48.0000000  0  8                                             
G32  28094464.054 6 147637446.394 6      2351.459 6        37.691               
G05  28336059.659 7 148907002.521 7     -3511.095 7        43.077               
G10  26650660.400 7 140050157.881 7      3115.110 7        43.926               
G12  27236152.393 7 143126955.698 7      3197.271 7        46.425               
G15  24826326.646 7 130463214.496 7     -2044.988 7        46.038               
G23  23615100.459 7 124098142.006 7      1091.123 7        42.368               
G24  23402709.145 7 122982053.488 7      -767.433 7        46.464               
G25  28275880.632 7 148590766.002 7      3603.125 7        43.944               
> 2025 08 06 07 05 49.0000000  0  8                                             
G32  28094012.665 6 147635088.685 6      2351.715 6        37.537               
G05  28336724.208 7 148910513.843 7     -3511.699 7        43.115               
G10  26650068.417 7 140047045.043 7      3112.250 7        44.292               
G12  27235540.986 7 143123759.237 7      3195.208 7        46.730               
G15  24826715.815 7 130465258.831 7     -2042.140 7        45.643               
G23  23614892.482 7 124097050.689 7      1095.177 7        42.520               
G24  23402856.707 7 122982822.505 7      -769.824 7        46.338               
G25  28275196.230 7 148587164.065 7      3598.564 7        43.870               
> 2025 08 06 07 05 50.0000000  0  8                                             
G32  28093564.492 6 147632730.983 6      2360.588 6        37.207               
G05  28337392.331 6 148914025.298 6     -3511.708 6        41.798               
G10  26649475.720 7 140043932.343 7      3111.779 7        43.837               
G12  27234933.440 7 143120562.878 7      3194.128 7        46.010               
G15  24827104.913 7 130467303.409 7     -2045.318 7        45.645               
G23  23614682.628 7 124095959.876 7      1094.879 7        42.494               
G24  23402999.803 7 122983592.177 7      -765.956 7        46.018               
G25  28274512.311 7 148583561.993 7      3602.459 7        44.218               
> 2025 08 06 07 05 51.0000000  0  8                                             
G32  28093102.899 6 147630373.379 6      2351.663 6        37.409               
G05  28338059.846 7 148917536.850 7     -3510.232 7        42.424               
G10  26648880.377 7 140040819.755 7      3114.426 7        43.809               
G12  27234323.892 7 143117366.642 7      3196.784 7        45.654               
G15  24827494.315 7 130469348.184 7     -2046.186 7        45.769               
G23  23614468.074 7 124094869.587 7      1090.753 7        42.051               
G24  23403144.845 7 122984362.414 7      -775.631 7        46.183               
G25  28273827.445 7 148579959.779 7      3600.540 7        43.620               
> 2025 08 06 07 05 52.0000000  0  8                                             
G32  28092658.604 6 147628015.741 6      2358.468 6        37.046               
G05  28338731.114 7 148921048.564 7     -3510.975 7        42.131               
G10  26648290.843 7 140037707.317 7      3109.987 7        44.788               
G12  27233715.523 7 143114170.524 7      3194.614 7        45.532               
G15  24827885.289 7 130471393.207 7     -2046.729 7        46.506               
G23  23614252.842 6 124093779.817 6      1094.067 6        41.521               
G24  23403292.318 7 122985133.276 7      -769.674 7        46.398               
G25  28273141.865 7 148576357.429 7      3602.085 7        42.843               
> 2025 08 06 07 05 53.0000000  0  8                                             
G32  28092206.875 6 147625658.226 6      2358.539 6        36.844               
G05  28339398.790 7 148924560.435 7     -3512.257 7        42.296               
G10  26647699.717 7 140034595.014 7      3112.211 7        44.581               
G12  27233106.725 7 143110974.553 7      3197.798 7        45.693               
G15  24828275.281 7 130473438.458 7     -2041.098 7        46.490               
G23  23614043.864 6 124092690.592 6      1091.573 6        41.155               
G24  23403441.954 7 122985904.749 7      -774.402 7        45.978               
G25  28272454.854 7 148572754.956 7      3603.795 7        43.524               
> 2025 08 06 07 05 54.0000000  0  8                                             
G32  28091753.502 6 147623300.669 6      2360.128 6        37.059               
G05  28340066.055 7 148928072.402 7     -3512.462 7        42.502               
G10  26647107.306 7 140031482.802 7      3110.747 7        44.241               
G12  27232498.732 7 143107778.633 7      3198.770 7        45.438               
G15  24828666.898 7 130475483.902 7     -2049.748 7        46.527               
G23  23613836.762 6 124091601.809 6      1084.114 6        41.104               
G24  23403589.123 7 122986676.807 7      -775.078 7        46.398               
G25  28271768.309 7 148569152.320 7      3606.156 7        43.217               
> 2025 08 06 07 05 55.0000000  0  8                                             
G32  28091311.351 6 147620943.193 6      2354.328 6        37.151               
G05  28340733.302 7 148931584.520 7     -3510.677 7        43.026               
G10  26646518.897 7 140028370.737 7      3109.719 7        44.579               
G12  27231895.795 7 143104582.876 7      3194.179 7        46.205               
G15  24829055.335 7 130477529.588 7     -2044.477 7        46.818               
G23  23613630.839 6 124090513.596 6      1087.798 6        41.506               
G24  23403735.595 7 122987449.487 7      -772.153 7        46.617               
G25  28271084.193 7 148565549.557 7      3603.835 7        43.041               
> 2025 08 06 07 05 56.0000000  0  8                                             
G32  28090871.558 6 147618585.750 6      2366.158 6        36.736               
G05  28341404.534 7 148935096.777 7     -3514.282 7        42.269               
G10  26645926.896 7 140025258.793 7      3111.797 7        44.456               
G12  27231282.798 7 143101387.210 7      3195.133 7        45.652               
G15  24829443.236 7 130479575.476 7     -2047.313 7        47.440               
G23  23613429.062 6 124089425.885 6      1087.048 6        41.939               
G24  23403883.783 7 122988222.747 7      -772.083 7        46.329               
G25  28270397.415 7 148561946.629 7      3603.783 7        43.480               
> 2025 08 06 07 05 57.0000000  0  8                                             
G32  28090412.735 6 147616228.340 6      2357.749 6        36.340               
G05  28342071.728 7 148938609.122 7     -3511.259 7        42.860               
G10  26645331.947 7 140022146.953 7      3110.833 7        44.417               
G12  27230677.539 7 143098191.654 7      3197.982 7        45.709               
G15  24829834.067 7 130481621.583 7     -2047.395 7        47.073               
G23  23613228.965 6 124088338.606 6      1087.363 6        41.632               
G24  23404027.700 7 122988996.607 7      -776.819 7        46.757               
G25  28269711.012 7 148558343.571 7      3601.247 7        43.485               
> 2025 08 06 07 05 58.0000000  0  8                                             
G32  28089964.652 6 147613870.945 6      2357.077 6        37.217               
G05  28342743.317 7 148942121.584 7     -3508.493 7        42.957               
G10  26644741.018 7 140019035.225 7      3112.569 7        43.925               
G12  27230068.330 7 143094996.187 7      3195.017 7        46.371               
G15  24830225.560 7 130483667.882 7     -2047.981 7        46.080               
G23  23613022.578 6 124087251.850 6      1083.819 6        41.644               
G24  23404178.229 7 122989771.045 7      -771.913 7        46.478               
G25  28269026.718 7 148554740.332 7      3605.012 7        43.209               
> 2025 08 06 07 05 59.0000000  0  8                                             
G32  28089518.855 6 147611513.600 6      2361.088 6        37.464               
G05  28343407.956 7 148945634.198 7     -3515.523 7        43.063               
G10  26644148.928 7 140015923.638 7      3110.439 7        45.140               
G12  27229460.337 7 143091800.830 7      3197.514 7        45.913               
G15  24830611.852 7 130485714.406 7     -2044.036 7        46.673               
G23  23612813.725 6 124086165.616 6      1085.877 6        41.426               
G24  23404323.701 7 122990546.106 7      -772.552 7        46.371               
G25  28268340.708 7 148551136.975 7      3596.931 7        42.983               
> 2025 08 06 07 06 00.0000000  0  8                                             
G32  28089061.265 6 147609156.276 6      2361.624 6        37.224               
G05  28344077.669 7 148949146.934 7     -3514.638 7        43.539               
G10  26643556.552 7 140012812.178 7      3110.387 7        44.666               
G12  27228854.237 7 143088605.602 7      3194.548 7        46.160               
G15  24831002.630 7 130487761.172 7     -2044.300 7        46.500               
G23  23612610.357 6 124085079.891 6      1084.324 6        41.621               
G24  23404472.299 7 122991321.785 7      -772.018 7        46.520               
G25  28267654.002 7 148547533.493 7      3600.567 7        42.537               
> 2025 08 06 07 06 01.0000000  0  8                                             
G32  28088620.061 6 147606799.014 6      2346.655 6        37.351               
G05  28344748.097 7 148952659.788 7     -3514.537 7        43.198               
G10  26642961.621 7 140009700.813 7      3110.149 7        44.238               
G12  27228244.778 7 143085410.474 7      3197.743 7        46.078               
G15  24831390.155 7 130489808.123 7     -2045.116 7        46.609               
G23  23612398.806 6 124083994.665 6      1090.758 6        41.534               
G24  23404618.021 7 122992098.036 7      -776.701 7        46.698               
G25  28266969.868 7 148543929.836 7      3607.899 7        43.286               
> 2025 08 06 07 06 02.0000000  0  8                                             
G32  28088163.186 6 147604441.719 6      2363.185 6        36.807               
G05  28345415.987 7 148956172.765 7     -3518.203 7        42.928               
G10  26642370.764 7 140006589.576 7      3111.751 7        44.437               
G12  27227638.482 7 143082215.440 7      3195.902 7        45.814               
G15  24831778.110 7 130491855.297 7     -2047.872 7        46.246               
G23  23612186.879 6 124082909.927 6      1078.061 6        41.393               
G24  23404767.692 7 122992874.887 7      -778.380 7        46.992               
G25  28266281.911 7 148540326.026 7      3607.210 7        43.323               
> 2025 08 06 07 06 03.0000000  0  8                                             
G32  28087723.948 6 147602084.459 6      2361.548 6        37.267               
G05  28346083.806 7 148959685.833 7     -3511.849 7        42.860               
G10  26641775.868 7 140003478.430 7      3109.867 7        44.833               
G12  27227029.238 7 143079020.503 7      3195.422 7        46.495               
G15  24832166.636 7 130493902.644 7     -2045.525 7        45.974               
G23  23611976.865 6 124081825.685 6      1080.874 6        41.864               
G24  23404916.416 7 122993652.306 7      -774.976 7        47.008               
G25  28265593.757 7 148536722.059 7      3603.036 7        43.763               
> 2025 08 06 07 06 04.0000000  0  8                                             
G32  28087274.881 6 147599727.257 6      2357.538 6        36.564               
G05  28346754.055 7 148963199.047 7     -3511.524 7        42.763               
G10  26641184.457 7 140000367.414 7      3106.204 7        44.648               
G12  27226421.584 7 143075825.663 7      3194.638 7        46.266               
G15  24832558.432 7 130495950.231 7     -2046.082 7        45.914               
G23  23611775.659 7 124080741.928 7      1081.006 7        42.165               
G24  23405065.122 7 122994430.336 7      -781.244 7        45.894               
G25  28264909.391 7 148533117.955 7      3605.021 7        43.578               
> 2025 08 06 07 06 05.0000000  0  8                                             
G32  28086834.732 6 147597370.120 6      2358.145 6        37.060               
G05  28347421.177 7 148966712.420 7     -3514.481 7        42.930               
G10  26640593.815 7 139997256.542 7      3111.909 7        44.362               
G12  27225811.714 7 143072630.972 7      3194.623 7        45.863               
G15  24832950.907 7 130497998.080 7     -2049.696 7        45.701               
G23  23611571.845 6 124079658.691 6      1085.135 6        41.774               
G24  23405207.842 7 122995208.985 7      -776.288 7        45.602               
G25  28264224.079 7 148529513.730 7      3607.430 7        43.419               
> 2025 08 06 07 06 06.0000000  0  8                                             
G32  28086378.929 6 147595013.003 6      2348.826 6        36.793               
G05  28348089.675 7 148970225.921 7     -3512.401 7        42.926               
G10  26640002.600 7 139994145.790 7      3110.072 7        44.374               
G12  27225202.452 7 143069436.396 7      3195.109 7        46.095               
G15  24833339.058 7 130500046.120 7     -2046.697 7        46.186               
G23  23611367.048 6 124078575.989 6      1083.085 6        41.890               
G24  23405355.083 7 122995988.251 7      -777.490 7        46.188               
G25  28263538.033 7 148525909.359 7      3602.121 7        43.627               
> 2025 08 06 07 06 07.0000000  0  8                                             
G32  28085933.758 6 147592655.921 6      2353.268 6        36.815               
G05  28348757.995 7 148973739.558 7     -3514.667 7        43.063               
G10  26639409.009 7 139991035.171 7      3112.542 7        44.691               
G12  27224589.134 7 143066241.924 7      3191.894 7        45.804               
G15  24833726.298 7 130502094.412 7     -2049.454 7        46.085               
G23  23611160.554 6 124077493.774 6      1079.661 6        41.876               
G24  23405503.771 7 122996768.110 7      -777.664 7        45.771               
G25  28262850.701 7 148522304.852 7      3603.578 7        43.425               
> 2025 08 06 07 06 08.0000000  0  8                                             
G32  28085479.384 6 147590298.876 6      2354.630 6        36.610               
G05  28349428.190 7 148977253.341 7     -3512.723 7        43.192               
G10  26638817.098 7 139987924.700 7      3107.789 7        45.044               
G12  27223987.287 7 143063047.591 7      3193.895 7        45.741               
G15  24834117.326 7 130504142.932 7     -2047.296 7        46.193               
G23  23610951.880 6 124076412.118 6      1085.116 6        41.583               
G24  23405651.869 7 122997548.590 7      -780.221 7        46.131               
G25  28262168.247 7 148518700.233 7      3608.486 7        43.300               
> 2025 08 06 07 06 09.0000000  0  8                                             
G32  28085042.004 6 147587941.895 6      2352.635 6        36.651               
G05  28350091.989 7 148980767.275 7     -3511.841 7        42.886               
G10  26638224.793 7 139984814.381 7      3108.417 7        45.435               
G12  27223379.329 7 143059853.396 7      3195.114 7        46.171               
G15  24834505.691 7 130506191.697 7     -2051.269 7        46.100               
G23  23610740.400 6 124075330.979 6      1080.081 6        41.982               
G24  23405799.825 7 122998329.709 7      -784.506 7        46.021               
G25  28261480.558 7 148515095.488 7      3608.598 7        43.531               
> 2025 08 06 07 06 10.0000000  0  8                                             
G32  28084586.237 6 147585584.983 6      2355.939 6        37.286               
G05  28350763.489 7 148984281.341 7     -3516.988 7        42.891               
G10  26637631.023 7 139981704.164 7      3108.074 7        44.984               
G12  27222771.050 7 143056659.296 7      3195.361 7        45.943               
G15  24834894.378 7 130508240.682 7     -2051.780 7        46.122               
G23  23610532.136 6 124074250.341 6      1079.936 6        40.674               
G24  23405950.264 7 122999111.414 7      -782.043 7        46.490               
G25  28260793.208 7 148511490.604 7      3607.167 7        43.241               
> 2025 08 06 07 06 11.0000000  0  8                                             
G32  28084143.353 6 147583228.088 6      2351.877 6        36.969               
G05  28351432.898 7 148987795.536 7     -3521.643 7        43.160               
G10  26637043.097 7 139978594.088 7      3108.990 7        45.283               
G12  27222164.897 7 143053465.332 7      3192.369 7        45.882               
G15  24835283.279 7 130510289.890 7     -2046.421 7        46.178               
G23  23610322.533 6 124073170.201 6      1082.594 6        41.172               
G24  23406096.594 7 122999893.715 7      -785.447 7        46.207               
G25  28260107.091 7 148507885.583 7      3606.688 7        43.530               
> 2025 08 06 07 06 12.0000000  0  8                                             
G32  28083694.036 6 147580871.223 6      2350.280 6        37.198               
G05  28352102.611 7 148991309.836 7     -3511.919 7        42.993               
G10  26636454.080 7 139975484.088 7      3110.926 7        44.928               
G12  27221555.778 7 143050271.430 7      3192.502 7        46.953               
G15  24835674.397 7 130512339.285 7     -2054.849 7        45.674               
G23  23610129.100 6 124072090.560 6      1078.634 6        41.160               
G24  23406245.943 7 123000676.576 7      -781.194 7        45.996               
G25  28259420.242 7 148504280.365 7      3611.474 7        43.595               
> 2025 08 06 07 06 13.0000000  0  8                                             
G32  28083255.709 6 147578514.311 6      2359.087 6        37.126               
G05  28352766.535 7 148994824.251 7     -3513.501 7        42.990               
G10  26635860.328 7 139972374.201 7      3109.182 7        45.148               
G12  27220948.553 7 143047077.621 7      3191.739 7        46.627               
G15  24836066.782 7 130514388.852 7     -2048.446 7        46.404               
G23  23609922.999 6 124071011.375 6      1079.744 6        40.785               
G24  23406396.471 7 123001460.023 7      -782.668 7        46.038               
G25  28258734.750 7 148500675.005 7      3606.904 7        43.662               
> 2025 08 06 07 06 14.0000000  0  8                                             
G32  28082804.981 6 147576157.489 6      2356.457 6        37.601               
G05  28353437.963 7 148998338.820 7     -3511.648 7        42.975               
G10  26635266.022 7 139969264.462 7      3109.697 7        45.055               
G12  27220340.291 7 143043883.955 7      3194.059 7        46.560               
G15  24836459.240 7 130516438.693 7     -2050.027 7        46.936               
G23  23609720.632 6 124069932.753 6      1076.803 6        40.667               
G24  23406548.054 7 123002244.118 7      -782.928 7        45.946               
G25  28258048.526 7 148497069.526 7      3605.165 7        42.999               
> 2025 08 06 07 06 15.0000000  0  8                                             
G32  28082357.165 6 147573800.712 6      2347.435 6        38.165               
G05  28354103.281 7 149001853.498 7     -3518.478 7        43.256               
G10  26634678.310 7 139966154.832 7      3109.148 7        44.733               
G12  27219729.939 7 143040690.378 7      3196.348 7        46.408               
G15  24836849.660 7 130518488.725 7     -2047.255 7        46.988               
G23  23609517.587 6 124068854.599 6      1071.876 6        41.456               
G24  23406696.224 7 123003028.783 7      -783.315 7        45.839               
G25  28257364.643 7 148493463.884 7      3603.493 7        42.819               
> 2025 08 06 07 06 16.0000000  0  8                                             
G32  28081910.190 6 147571443.948 6      2365.704 6        37.696               
G05  28354776.442 7 149005368.297 7     -3515.175 7        43.071               
G10  26634087.810 7 139963045.338 7      3110.462 7        44.569               
G12  27219125.001 7 143037496.914 7      3190.858 7        46.118               
G15  24837238.740 7 130520538.994 7     -2052.112 7        46.288               
G23  23609315.381 6 124067776.956 6      1079.513 6        41.164               
G24  23406846.056 7 123003814.055 7      -790.580 7        46.443               
G25  28256675.203 7 148489858.117 7      3606.605 7        43.028               
> 2025 08 06 07 06 17.0000000  0  8                                             
G32  28081455.584 6 147569087.209 6      2355.788 6        38.364               
G05  28355441.027 7 149008883.212 7     -3516.679 7        42.984               
G10  26633495.274 7 139959935.943 7      3110.336 7        45.124               
G12  27218516.007 7 143034303.551 7      3191.183 7        46.407               
G15  24837631.448 7 130522589.451 7     -2052.833 7        46.127               
G23  23609106.331 6 124066699.797 6      1073.612 6        41.520               
G24  23406998.211 7 123004599.906 7      -787.944 7        46.082               
G25  28255991.176 7 148486252.174 7      3609.498 7        43.286               
> 2025 08 06 07 06 18.0000000  0 10                                             
G32  28081003.569 6 147566730.497 6      2367.359 6        38.640               
G05  28356110.973 7 149012398.245 7     -3512.421 7        42.976               
G10  26632900.110 7 139956826.677 7      3108.709 7        44.867               
G12  27217908.514 7 143031110.305 7      3190.946 7        46.663               
G15  24838020.474 7 130524640.127 7     -2049.069 7        46.576               
G18  25720417.076 6 135161710.251 6     -2573.030 6        40.626               
G22  28671588.537 6 150670233.139 6     -1714.025 6        40.476               
G23  23608897.138 6 124065623.141 6      1079.741 6        41.993               
G24  23407146.434 7 123005386.371 7      -785.069 7        45.970               
G25  28255303.844 7 148482646.101 7      3605.035 7        43.508               
> 2025 08 06 07 06 19.0000000  0 10                                             
G32  28080565.492 6 147564373.823 6      2354.580 6        38.872               
G05  28356782.973 7 149015913.419 7     -3514.859 7        42.958               
G10  26632310.164 7 139953717.520 7      3112.042 7        44.893               
G12  27217303.075 7 143027917.155 7      3192.076 7        46.074               
G15  24838410.555 7 130526691.028 7     -2048.329 7        46.372               
G18  25720901.113 6 135164276.720 6     -2562.354 6        40.530               
G22  28671917.988 6 150671951.826 6     -1720.227 6        40.314               
G23  23608688.214 6 124064546.998 6      1075.426 6        41.936               
G24  23407297.034 7 123006173.412 7      -787.273 7        46.267               
G25  28254619.211 7 148479039.883 7      3608.896 7        42.967               
> 2025 08 06 07 06 20.0000000  0 10                                             
G32  28080115.872 6 147562017.235 6      2361.761 6        38.369               
G05  28357450.667 7 149019428.783 7     -3510.715 7        42.993               
G10  26631717.896 7 139950608.555 7      3110.443 7        44.728               
G12  27216692.759 7 143024724.178 7      3194.937 7        46.351               
G15  24838799.796 7 130528742.217 7     -2052.524 7        46.750               
G18  25721386.542 6 135166843.703 6     -2571.226 6        40.363               
G22  28672245.277 6 150673671.044 6     -1718.124 6        39.657               
G23  23608485.168 6 124063471.432 6      1076.607 6        41.158               
G24  23407448.975 7 123006961.125 7      -789.127 7        46.459               
G25  28253934.845 7 148475433.589 7      3606.706 7        43.211               
> 2025 08 06 07 06 21.0000000  0 10                                             
G32  28079666.466 6 147559660.705 6      2362.439 6        37.378               
G05  28358120.898 7 149022944.293 7     -3512.968 7        42.754               
G10  26631125.430 7 139947499.722 7      3109.489 7        44.978               
G12  27216087.589 7 143021531.343 7      3191.124 7        46.545               
G15  24839190.752 7 130530793.622 7     -2051.434 7        46.672               
G18  25721879.084 6 135169411.097 6     -2567.335 6        40.051               
G22  28672571.512 6 150675390.760 6     -1713.276 6        39.544               
G23  23608287.251 6 124062396.370 6      1078.224 6        41.197               
G24  23407598.324 7 123007749.450 7      -790.264 7        46.126               
G25  28253247.656 7 148471827.161 7      3605.736 7        44.073               
> 2025 08 06 07 06 22.0000000  0 10                                             
G32  28079217.024 6 147557304.231 6      2348.506 6        37.949               
G05  28358794.185 7 149026459.963 7     -3517.002 7        43.061               
G10  26630537.361 7 139944391.035 7      3105.296 7        45.189               
G12  27215479.274 7 143018338.624 7      3196.967 7        46.335               
G15  24839581.887 7 130532845.277 7     -2053.102 7        46.666               
G18  25722363.924 6 135171978.896 6     -2565.002 6        40.271               
G22  28672903.876 6 150677110.967 6     -1718.674 6        40.128               
G23  23608085.867 6 124061321.844 6      1079.874 6        41.427               
G24  23407750.532 7 123008538.391 7      -789.830 7        45.956               
G25  28252561.039 7 148468220.614 7      3602.370 7        43.493               
> 2025 08 06 07 06 23.0000000  0 10                                             
G32  28078766.546 6 147554947.815 6      2354.482 6        37.771               
G05  28359459.038 7 149029975.740 7     -3516.082 7        42.696               
G10  26629944.913 7 139941282.467 7      3106.058 7        45.771               
G12  27214872.352 7 143015146.026 7      3192.600 7        46.233               
G15  24839972.522 7 130534897.129 7     -2049.541 7        46.436               
G18  25722860.487 6 135174547.120 6     -2568.023 6        40.036               
G22  28673242.315 6 150678831.621 6     -1726.643 6        40.798               
G23  23607887.717 6 124060247.816 6      1073.286 6        41.689               
G24  23407899.524 7 123009327.939 7      -788.368 7        45.967               
G25  28251873.671 7 148464613.921 7      3606.705 7        43.778               
> 2025 08 06 07 06 24.0000000  0 10                                             
G32  28078321.322 6 147552591.375 6      2351.159 6        37.797               
G05  28360128.125 7 149033491.644 7     -3512.330 7        42.882               
G10  26629351.876 7 139938174.022 7      3107.439 7        46.163               
G12  27214266.414 7 143011953.530 7      3193.391 7        46.191               
G15  24840363.085 7 130536949.194 7     -2052.234 7        47.029               
G18  25723344.201 6 135177115.751 6     -2568.273 6        40.020               
G22  28673564.851 6 150680552.751 6     -1719.757 6        41.055               
G23  23607686.673 7 124059174.277 7      1074.899 7        42.528               
G24  23408049.856 7 123010118.051 7      -786.433 7        46.152               
G25  28251188.269 7 148461007.063 7      3607.844 7        43.042               
> 2025 08 06 07 06 25.0000000  0 10                                             
G32  28077866.269 6 147550234.983 6      2348.005 6        37.946               
G05  28360797.964 7 149037007.681 7     -3516.836 7        42.223               
G10  26628760.715 7 139935065.698 7      3106.261 7        45.694               
G12  27213659.099 7 143008761.160 7      3191.270 7        46.138               
G15  24840752.255 7 130539001.500 7     -2052.663 7        46.633               
G18  25723838.851 6 135179684.813 6     -2571.058 6        40.659               
G22  28673890.729 6 150682274.386 6     -1722.105 6        40.664               
G23  23607480.250 6 124058101.271 6      1067.624 6        41.613               
G24  23408198.044 7 123010908.798 7      -788.274 7        46.638               
G25  28250502.688 7 148457400.097 7      3612.134 7        42.976               
> 2025 08 06 07 06 26.0000000  0 10                                             
G32  28077415.130 6 147547878.649 6      2359.033 6        37.802               
G05  28361467.909 7 149040523.850 7     -3517.297 7        42.947               
G10  26628169.251 7 139931957.515 7      3108.384 7        45.558               
G12  27213051.499 7 143005568.906 7      3191.766 7        46.726               
G15  24841144.998 7 130541054.017 7     -2050.977 7        45.964               
G18  25724332.269 6 135182254.271 6     -2561.963 6        40.768               
G22  28674216.231 6 150683996.485 6     -1724.755 6        41.282               
G23  23607270.128 6 124057028.752 6      1072.138 6        41.690               
G24  23408351.253 7 123011700.151 7      -796.238 7        46.761               
G25  28249817.518 7 148453792.982 7      3606.758 7        43.172               
> 2025 08 06 07 06 27.0000000  0 10                                             
G32  28076971.924 6 147545522.342 6      2356.535 6        37.200               
G05  28362137.175 7 149044040.132 7     -3513.359 7        42.780               
G10  26627578.930 7 139928849.426 7      3110.256 7        45.157               
G12  27212444.095 7 143002376.741 7      3192.050 7        47.415               
G15  24841530.754 7 130543106.722 7     -2054.211 7        45.945               
G18  25724820.361 6 135184824.136 6     -2569.861 6        41.397               
G22  28674541.679 6 150685719.035 6     -1724.361 6        40.734               
G23  23607058.845 6 124055956.744 6      1068.605 6        41.555               
G24  23408499.477 7 123012492.061 7      -794.055 7        46.665               
G25  28249127.667 7 148450185.709 7      3605.157 7        43.717               
> 2025 08 06 07 06 28.0000000  0 10                                             
G32  28076522.769 6 147543166.045 6      2356.770 6        36.719               
G05  28362803.547 7 149047556.546 7     -3519.417 7        42.485               
G10  26626985.142 7 139925741.468 7      3108.149 7        45.523               
G12  27211836.959 7 142999184.687 7      3192.833 7        46.496               
G15  24841922.265 7 130545159.667 7     -2056.672 7        45.910               
G18  25725313.367 6 135187394.409 6     -2565.167 6        41.666               
G22  28674868.361 6 150687442.064 6     -1729.792 6        40.156               
G23  23606844.149 6 124054885.259 6      1070.036 6        41.166               
G24  23408652.757 7 123013284.597 7      -794.394 7        46.270               
G25  28248440.924 7 148446578.301 7      3610.019 7        43.641               
> 2025 08 06 07 06 29.0000000  0 10                                             
G32  28076065.232 6 147540809.792 6      2357.105 6        36.913               
G05  28363478.174 7 149051073.080 7     -3517.097 7        42.776               
G10  26626390.836 7 139922633.651 7      3105.372 7        45.751               
G12  27211227.947 7 142995992.769 7      3192.110 7        46.589               
G15  24842313.775 7 130547212.836 7     -2052.444 7        45.578               
G18  25725799.852 6 135189965.088 6     -2573.926 6        41.464               
G22  28675194.721 6 150689165.566 6     -1716.832 6        40.398               
G23  23606637.386 6 124053814.251 6      1069.759 6        40.536               
G24  23408803.000 7 123014077.705 7      -790.514 7        45.963               
G25  28247756.291 7 148442970.769 7      3600.762 7        43.466               
> 2025 08 06 07 06 30.0000000  0 10                                             
G32  28075622.956 6 147538453.596 6      2363.627 6        36.433               
G05  28364147.172 7 149054589.799 7     -3515.620 7        42.626               
G10  26625803.231 7 139919525.989 7      3105.571 7        45.766               
G12  27210622.294 7 142992801.011 7      3188.465 7        47.405               
G15  24842703.284 7 130549266.275 7     -2053.972 7        45.671               
G18  25726289.481 6 135192536.234 6     -2567.965 6        41.432               
G22  28675521.920 6 150690889.567 6     -1727.025 6        39.854               
G23  23606437.593 6 124052743.823 6      1072.230 6        41.021               
G24  23408952.957 7 123014871.493 7      -795.348 7        45.307               
G25  28247069.370 7 148439363.129 7      3611.457 7        43.296               
> 2025 08 06 07 06 31.0000000  0 10                                             
G32  28075182.163 6 147536097.506 6      2355.333 6        36.751               
G05  28364813.437 7 149058106.648 7     -3517.034 7        43.030               
G10  26625210.712 7 139916418.465 7      3106.113 7        45.382               
G12  27210015.016 7 142989609.369 7      3189.993 7        46.603               
G15  24843093.168 7 130551319.941 7     -2049.888 7        45.671               
G18  25726776.769 7 135195107.799 7     -2571.175 7        42.259               
G22  28675846.082 6 150692614.098 6     -1726.701 6        40.601               
G23  23606244.321 6 124051673.923 6      1065.412 6        41.107               
G24  23409104.468 7 123015665.872 7      -796.771 7        45.284               
G25  28246378.839 7 148435755.360 7      3606.936 7        42.662               
> 2025 08 06 07 06 32.0000000  0 10                                             
G32  28074738.993 6 147533741.426 6      2352.114 6        37.740               
G05  28365482.900 7 149061623.658 7     -3519.105 7        43.035               
G10  26624616.996 7 139913311.086 7      3106.987 7        45.170               
G12  27209408.702 7 142986417.858 7      3188.908 7        47.279               
G15  24843485.072 7 130553373.844 7     -2054.856 7        46.149               
G18  25727263.503 6 135197679.784 6     -2574.110 6        41.759               
G22  28676178.535 6 150694339.086 6     -1724.369 6        40.662               
G23  23606045.939 6 124050604.529 6      1061.794 6        41.228               
G24  23409253.407 7 123016460.867 7      -790.516 7        45.722               
G25  28245694.920 7 148432147.482 7      3610.398 7        42.757               
> 2025 08 06 07 06 33.0000000  0 10                                             
G32  28074290.016 6 147531385.350 6      2351.731 6        37.728               
G05  28366151.862 7 149065140.759 7     -3513.254 7        42.658               
G10  26624027.229 7 139910203.818 7      3106.048 7        45.571               
G12  27208798.904 7 142983226.444 7      3188.761 7        47.918               
G15  24843876.332 7 130555427.941 7     -2054.822 7        45.810               
G18  25727755.509 6 135200252.171 6     -2569.612 6        40.982               
G22  28676509.219 6 150696064.540 6     -1725.797 6        40.991               
G23  23605847.468 6 124049535.619 6      1068.376 6        41.440               
G24  23409402.023 7 123017256.456 7      -798.038 7        45.495               
G25  28245007.338 7 148428539.430 7      3604.542 7        42.500               
> 2025 08 06 07 06 34.0000000  0 10                                             
G32  28073848.687 6 147529029.343 6      2354.680 6        37.626               
G05  28366821.254 7 149068657.993 7     -3522.467 7        42.520               
G10  26623438.159 7 139907096.670 7      3106.542 7        45.162               
G12  27208191.464 7 142980035.149 7      3190.382 7        47.664               
G15  24844266.055 7 130557482.260 7     -2053.355 7        45.662               
G18  25728235.703 6 135202824.975 6     -2569.642 6        40.894               
G22  28676846.033 6 150697790.452 6     -1726.449 6        41.271               
G23  23605644.726 6 124048467.223 6      1067.770 6        41.579               
G24  23409556.930 7 123018052.618 7      -791.585 7        45.446               
G25  28244320.060 7 148424931.235 7      3610.999 7        42.211               
> 2025 08 06 07 06 35.0000000  0 10                                             
G32  28073387.363 6 147526673.344 6      2358.270 6        38.041               
G05  28367491.199 7 149072175.360 7     -3515.363 7        42.413               
G10  26622846.462 7 139903989.660 7      3108.299 7        45.030               
G12  27207583.399 7 142976843.981 7      3190.355 7        47.500               
G15  24844660.049 7 130559536.803 7     -2057.294 7        45.989               
G18  25728728.031 6 135205398.190 6     -2574.379 6        41.362               
G22  28677176.520 6 150699516.870 6     -1728.397 6        41.376               
G23  23605434.175 6 124047399.336 6      1066.745 6        40.722               
G24  23409707.852 7 123018849.407 7      -799.745 7        45.798               
G25  28243634.318 7 148421322.917 7      3606.531 7        42.228               
> 2025 08 06 07 06 36.0000000  0 11                                             
G32  28072936.116 6 147524317.414 6      2358.811 6        37.940               
G05  28368156.928 6 149075692.853 6     -3520.677 6        41.696               
G10  26622256.587 7 139900882.756 7      3106.596 7        45.642               
G12  27206979.122 7 142973652.925 7      3192.353 7        47.100               
G13  27893169.850 7 146579596.412 7     -2857.615 7        44.402               
G15  24845050.076 7 130561591.561 7     -2051.982 7        46.352               
G18  25729215.801 6 135207971.814 6     -2578.206 6        41.134               
G22  28677511.136 6 150701243.736 6     -1724.645 6        41.472               
G23  23605223.142 6 124046331.985 6      1060.882 6        40.107               
G24  23409863.669 7 123019646.781 7      -802.002 7        46.019               
G25  28242950.810 7 148417714.446 7      3605.954 7        42.164               
> 2025 08 06 07 06 37.0000000  0 11                                             
G32  28072497.146 6 147521961.493 6      2365.048 6        38.542               
G05  28368831.251 6 149079210.474 6     -3514.373 6        41.951               
G10  26621666.266 7 139897775.987 7      3103.842 7        46.058               
G12  27206371.272 7 142970461.965 7      3190.468 7        47.070               
G13  27893715.427 7 146582452.588 7     -2857.437 7        44.193               
G15  24845442.105 7 130563646.530 7     -2058.207 7        45.990               
G18  25729701.803 6 135210545.828 6     -2574.418 6        41.155               
G22  28677835.798 6 150702971.070 6     -1725.045 6        40.640               
G23  23605011.895 6 124045265.075 6      1066.540 6        40.052               
G24  23410015.610 7 123020444.736 7      -793.722 7        45.837               
G25  28242258.618 6 148414105.821 6      3608.506 6        41.907               
> 2025 08 06 07 06 38.0000000  0 11                                             
G32  28072040.128 6 147519605.570 6      2362.725 6        37.498               
G05  28369496.086 7 149082728.147 7     -3518.009 7        42.073               
G10  26621076.035 7 139894669.279 7      3110.638 7        46.146               
G12  27205763.653 7 142967271.057 7      3188.966 7        47.007               
G13  27894263.023 7 146585308.668 7     -2854.202 7        44.281               
G15  24845834.902 7 130565701.642 7     -2055.705 7        45.854               
G18  25730195.006 6 135213120.197 6     -2574.471 6        41.027               
G22  28678160.728 6 150704698.824 6     -1729.717 6        41.167               
G23  23604812.476 6 124044198.653 6      1071.931 6        39.658               
G24  23410169.534 7 123021243.249 7      -801.014 7        45.617               
G25  28241573.073 7 148410497.036 7      3607.931 7        42.353               
> 2025 08 06 07 06 39.0000000  0 11                                             
G32  28071588.577 6 147517249.683 6      2356.720 6        37.777               
G05  28370167.389 7 149086245.993 7     -3520.249 7        42.637               
G10  26620484.874 7 139891562.723 7      3105.171 7        46.069               
G12  27205153.980 7 142964080.305 7      3191.919 7        46.918               
G13  27894802.382 7 146588164.758 7     -2860.817 7        44.377               
G15  24846225.090 7 130567757.020 7     -2056.403 7        45.779               
G18  25730681.526 6 135215695.025 6     -2580.832 6        40.481               
G22  28678490.608 6 150706427.092 6     -1726.897 6        41.004               
G23  23604613.666 6 124043132.774 6      1064.419 6        40.429               
G24  23410322.457 7 123022042.392 7      -800.202 7        45.716               
G25  28240885.812 7 148406888.088 7      3610.459 7        42.006               
> 2025 08 06 07 06 40.0000000  0 11                                             
G32  28071146.498 6 147514893.835 6      2357.239 6        37.617               
G05  28370836.245 7 149089763.949 7     -3515.682 7        42.195               
G10  26619894.285 7 139888456.273 7      3104.875 7        45.445               
G12  27204546.916 7 142960889.642 7      3191.308 7        47.292               
G13  27895345.475 7 146591020.779 7     -2854.954 7        44.167               
G15  24846615.367 7 130569812.595 7     -2057.445 7        45.506               
G18  25731169.368 6 135218270.226 6     -2572.274 6        41.049               
G22  28678811.357 6 150708155.794 6     -1725.540 6        41.497               
G23  23604422.896 6 124042067.363 6      1066.737 6        41.148               
G24  23410472.199 7 123022842.106 7      -800.769 7        46.646               
G25  28240198.445 6 148403279.011 6      3611.686 6        41.793               
> 2025 08 06 07 06 41.0000000  0 11                                             
G32  28070695.519 6 147512538.041 6      2342.936 6        38.063               
G05  28371510.479 7 149093282.065 7     -3517.881 7        42.175               
G10  26619302.355 7 139885350.013 7      3108.872 7        45.438               
G12  27203942.353 7 142957699.155 7      3190.368 7        47.322               
G13  27895891.445 7 146593876.832 7     -2854.744 7        45.017               
G15  24847005.501 7 130571868.428 7     -2052.323 7        45.358               
G18  25731665.823 6 135220845.894 6     -2570.399 6        40.778               
G22  28679140.415 6 150709885.034 6     -1721.792 6        40.618               
G23  23604224.836 6 124041002.512 6      1062.642 6        41.319               
G24  23410624.372 7 123023642.470 7      -801.025 7        46.495               
G25  28239513.525 6 148399669.840 6      3615.467 6        41.624               
> 2025 08 06 07 06 42.0000000  0 11                                             
G32  28070244.059 6 147510182.287 6      2353.410 6        37.569               
G05  28372178.387 7 149096800.306 7     -3519.846 7        42.520               
G10  26618710.855 7 139882243.836 7      3107.099 7        46.216               
G12  27203329.696 7 142954508.750 7      3190.893 7        47.006               
G13  27896434.002 7 146596732.827 7     -2856.459 7        44.426               
G15  24847396.672 7 130573924.466 7     -2056.408 7        45.823               
G18  25732159.866 6 135223421.933 6     -2575.719 6        40.712               
G22  28679468.401 6 150711614.702 6     -1726.650 6        40.545               
G23  23604022.523 6 124039938.165 6      1061.125 6        41.308               
G24  23410777.456 7 123024443.412 7      -801.145 7        46.058               
G25  28238823.888 7 148396060.514 7      3608.577 7        42.122               
> 2025 08 06 07 06 43.0000000  0 11                                             
G32  28069792.490 6 147507826.575 6      2359.312 6        38.124               
G05  28372843.275 6 149100318.688 6     -3512.629 6        41.546               
G10  26618120.820 7 139879137.817 7      3106.861 7        46.328               
G12  27202724.186 7 142951318.501 7      3188.045 7        46.325               
G13  27896978.989 7 146599588.824 7     -2853.225 7        44.864               
G15  24847787.128 7 130575980.755 7     -2055.852 7        45.882               
G18  25732651.425 6 135225998.446 6     -2574.198 6        41.298               
G22  28679798.692 6 150713344.892 6     -1726.516 6        40.718               
G23  23603813.348 6 124038874.308 6      1071.954 6        41.706               
G24  23410928.770 7 123025244.998 7      -805.282 7        45.658               
G25  28238138.575 6 148392451.091 6      3606.818 6        41.433               
> 2025 08 06 07 06 44.0000000  0 11                                             
G32  28069359.631 6 147505470.894 6      2364.543 6        38.037               
G05  28373514.650 7 149103837.175 7     -3518.090 7        42.045               
G10  26617528.748 7 139876031.894 7      3107.217 7        46.353               
G12  27202119.016 7 142948128.316 7      3187.197 7        46.263               
G13  27897521.225 7 146602444.737 7     -2856.127 7        45.158               
G15  24848179.139 7 130578037.216 7     -2060.264 7        45.144               
G18  25733142.090 6 135228575.306 6     -2579.569 6        41.147               
G22  28680132.360 6 150715075.507 6     -1736.847 6        40.517               
G23  23603603.280 6 124037810.966 6      1060.933 6        41.741               
G24  23411082.444 7 123026047.107 7      -805.430 7        46.388               
G25  28237454.638 6 148388841.461 6      3606.965 6        41.810               
> 2025 08 06 07 06 45.0000000  0 11                                             
G32  28068896.270 6 147503115.214 6      2360.956 6        38.001               
G05  28374188.759 7 149107355.803 7     -3520.100 7        42.186               
G10  26616940.589 7 139872926.120 7      3108.268 7        46.299               
G12  27201510.433 7 142944938.286 7      3189.988 7        46.265               
G13  27898063.800 7 146605300.661 7     -2854.565 7        44.747               
G15  24848568.684 7 130580093.935 7     -2059.517 7        45.514               
G18  25733632.720 6 135231152.610 6     -2575.253 6        41.797               
G22  28680462.830 6 150716806.612 6     -1731.988 6        40.853               
G23  23603397.268 6 124036748.164 6      1060.539 6        40.948               
G24  23411231.829 7 123026849.868 7      -801.198 7        46.299               
G25  28236766.734 7 148385231.739 7      3612.619 7        42.591               
> 2025 08 06 07 06 46.0000000  0 11                                             
G32  28068445.559 6 147500759.661 6      2352.072 6        37.902               
G05  28374855.738 7 149110874.636 7     -3524.549 7        42.370               
G10  26616346.051 7 139869820.525 7      3106.541 7        46.384               
G12  27200903.100 7 142941748.411 7      3188.811 7        46.791               
G13  27898605.857 7 146608156.600 7     -2854.123 7        44.356               
G15  24848959.318 7 130582150.904 7     -2053.302 7        44.760               
G18  25734125.923 6 135233730.370 6     -2574.777 6        41.787               
G22  28680795.694 6 150718538.249 6     -1727.365 6        41.278               
G23  23603194.579 6 124035685.923 6      1061.398 6        40.261               
G24  23411385.896 7 123027653.256 7      -805.856 7        46.097               
G25  28236080.064 7 148381621.940 7      3602.669 7        42.710               
> 2025 08 06 07 06 47.0000000  0 11                                             
G32  28067990.507 6 147498404.100 6      2357.708 6        37.694               
G05  28375525.469 7 149114393.542 7     -3516.522 7        42.134               
G10  26615757.374 7 139866715.024 7      3105.611 7        46.155               
G12  27200297.216 7 142938558.632 7      3188.731 7        46.247               
G13  27899153.792 7 146611012.476 7     -2853.643 7        44.374               
G15  24849348.506 7 130584208.072 7     -2057.628 7        45.475               
G18  25734617.696 6 135236308.511 6     -2579.985 6        41.946               
G22  28681130.560 6 150720270.323 6     -1733.567 6        41.435               
G23  23602995.197 6 124034624.134 6      1061.246 6        40.038               
G24  23411539.123 7 123028457.228 7      -804.924 7        46.299               
G25  28235392.571 7 148378011.954 7      3610.747 7        42.662               
> 2025 08 06 07 06 48.0000000  0 11                                             
G32  28067538.403 6 147496048.659 6      2358.665 6        37.043               
G05  28376193.646 7 149117912.597 7     -3522.144 7        42.651               
G10  26615163.890 7 139863609.673 7      3104.622 7        46.430               
G12  27199691.134 7 142935368.996 7      3188.988 7        46.160               
G13  27899692.508 7 146613868.359 7     -2854.753 7        44.529               
G15  24849741.213 7 130586265.477 7     -2054.130 7        45.260               
G18  25735103.126 6 135238887.087 6     -2577.706 6        41.447               
G22  28681455.955 6 150722002.902 6     -1734.369 6        40.865               
G23  23602798.941 6 124033562.900 6      1056.006 6        40.772               
G24  23411689.616 7 123029261.829 7      -807.912 7        45.575               
G25  28234705.400 7 148374401.862 7      3612.971 7        42.301               
> 2025 08 06 07 06 49.0000000  0 11                                             
G32  28067097.252 6 147493693.164 6      2359.723 6        37.229               
G05  28376863.180 7 149121431.790 7     -3521.121 7        42.247               
G10  26614574.820 7 139860504.445 7      3103.683 7        46.530               
G12  27199082.158 7 142932179.466 7      3188.777 7        46.717               
G13  27900236.423 7 146616724.181 7     -2857.494 7        43.977               
G15  24850134.189 7 130588323.111 7     -2056.839 7        45.749               
G18  25735594.828 6 135241466.078 6     -2579.080 6        40.989               
G22  28681784.763 6 150723735.934 6     -1723.241 6        40.796               
G23  23602598.504 6 124032502.152 6      1065.363 6        41.058               
G24  23411843.486 7 123030067.012 7      -810.943 7        46.092               
G25  28234019.390 7 148370791.618 7      3611.815 7        43.017               
> 2025 08 06 07 06 50.0000000  0 11                                             
G32  28066641.163 6 147491337.808 6      2349.048 6        37.200               
G05  28377534.269 7 149124951.139 7     -3519.395 7        42.172               
G10  26613981.371 7 139857399.378 7      3102.949 7        46.478               
G12  27198478.292 7 142928990.094 7      3188.819 7        46.956               
G13  27900777.783 7 146619580.018 7     -2851.314 7        44.659               
G15  24850531.185 7 130590380.972 7     -2058.593 7        46.249               
G18  25736078.864 6 135244045.499 6     -2582.369 6        41.584               
G22  28682116.948 6 150725469.466 6     -1730.970 6        40.255               
G23  23602398.925 6 124031441.939 6      1065.757 6        41.292               
G24  23411995.158 7 123030872.835 7      -805.395 7        46.345               
G25  28233330.682 7 148367181.273 7      3606.229 7        43.477               
> 2025 08 06 07 06 51.0000000  0 11                                             
G32  28066196.278 6 147488982.374 6      2356.388 6        36.702               
G05  28378203.518 7 149128470.554 7     -3515.934 7        42.813               
G10  26613392.569 7 139854294.398 7      3104.246 7        46.149               
G12  27197870.102 7 142925800.788 7      3191.975 7        47.026               
G13  27901320.948 7 146622435.781 7     -2855.871 7        43.936               
G15  24850926.215 7 130592439.022 7     -2056.057 7        46.079               
G18  25736575.140 6 135246625.303 6     -2582.598 6        40.770               
G22  28682441.110 6 150727203.449 6     -1727.816 6        38.614               
G23  23602192.020 6 124030382.202 6      1055.548 6        41.401               
G24  23412148.421 7 123031679.201 7      -806.810 7        46.510               
G25  28232642.689 7 148363570.746 7      3611.108 7        43.147               
> 2025 08 06 07 06 52.0000000  0 11                                             
G32  28065737.991 6 147486627.101 6      2354.963 6        36.346               
G05  28378872.069 7 149131990.180 7     -3513.096 7        42.517               
G10  26612803.124 7 139851189.615 7      3101.550 7        45.748               
G12  27197264.002 7 142922611.661 7      3190.636 7        46.681               
G13  27901866.882 7 146625291.582 7     -2853.459 7        43.855               
G15  24851318.905 7 130594497.367 7     -2056.655 7        46.682               
G18  25737066.664 6 135249205.563 6     -2582.147 6        41.295               
G22  28682761.787 6 150728937.951 6     -1740.814 6        38.814               
G23  23601993.424 6 124029323.042 6      1055.452 6        40.862               
G24  23412303.881 7 123032486.245 7      -805.684 7        45.856               
G25  28231957.072 7 148359960.165 7      3614.857 7        42.375               
> 2025 08 06 07 06 53.0000000  0 11                                             
G32  28065292.945 6 147484271.753 6      2357.085 6        36.363               
G05  28379546.500 7 149135509.855 7     -3514.150 7        42.417               
G10  26612212.553 7 139848084.887 7      3109.209 7        46.190               
G12  27196656.992 7 142919422.590 7      3187.249 7        47.127               
G13  27902408.599 7 146628147.272 7     -2853.091 7        44.254               
G15  24851707.360 7 130596555.852 7     -2058.006 7        45.904               
G18  25737561.618 6 135251786.175 6     -2584.669 6        41.389               
G22  28683089.308 6 150730672.869 6     -1734.997 6        38.685               
G23  23601779.228 6 124028264.330 6      1051.862 6        40.891               
G24  23412458.573 7 123033293.819 7      -807.223 7        46.406               
G25  28231272.600 7 148356349.365 7      3611.895 7        43.097               
> 2025 08 06 07 06 54.0000000  0 11                                             
G32  28064846.399 6 147481916.501 6      2355.855 6        36.459               
G05  28380213.640 7 149139029.714 7     -3518.595 7        42.787               
G10  26611623.143 7 139844980.339 7      3104.934 7        46.670               
G12  27196051.089 7 142916233.701 7      3187.619 7        47.181               
G13  27902954.391 7 146631002.996 7     -2853.601 7        44.417               
G15  24852097.583 7 130598614.606 7     -2054.367 7        45.884               
G18  25738051.283 6 135254367.252 6     -2580.630 6        41.357               
G22  28683419.635 6 150732408.311 6     -1737.777 6        38.467               
G23  23601580.292 6 124027206.208 6      1058.462 6        40.513               
G24  23412614.195 7 123034102.053 7      -807.647 7        46.473               
G25  28230584.731 7 148352738.486 7      3612.143 7        42.743               
> 2025 08 06 07 06 55.0000000  0 11                                             
G32  28064398.797 6 147479561.330 6      2351.126 6        36.319               
G05  28380881.048 7 149142549.694 7     -3514.848 7        42.572               
G10  26611031.464 7 139841875.925 7      3102.514 7        46.675               
G12  27195443.524 7 142913044.912 7      3188.387 7        47.053               
G13  27903497.412 7 146633858.703 7     -2859.724 7        44.496               
G15  24852486.628 7 130600673.584 7     -2059.634 7        45.592               
G18  25738546.648 6 135256948.733 6     -2579.453 6        41.235               
G22  28683757.967 6 150734144.244 6     -1730.881 6        38.724               
G23  23601374.762 6 124026148.571 6      1061.566 6        40.505               
G24  23412769.744 7 123034910.866 7      -807.880 7        46.964               
G25  28229894.701 7 148349127.467 7      3614.591 7        43.096               
> 2025 08 06 07 06 56.0000000  0 11                                             
G32  28063941.833 6 147477206.113 6      2363.686 6        36.958               
G05  28381549.868 7 149146069.772 7     -3514.011 7        42.223               
G10  26610441.035 7 139838771.570 7      3104.672 7        46.623               
G12  27194838.694 7 142909856.210 7      3188.515 7        47.594               
G13  27904042.989 7 146636714.311 7     -2854.247 7        45.033               
G15  24852875.761 7 130602732.740 7     -2057.960 7        45.391               
G18  25739033.400 6 135259530.597 6     -2580.923 6        41.545               
G22  28684086.918 6 150735880.593 6     -1737.226 6        39.190               
G23  23601181.223 6 124025091.395 6      1062.006 6        40.677               
G24  23412923.525 7 123035720.262 7      -809.028 7        46.549               
G25  28229209.085 7 148345516.267 7      3608.569 7        43.153               
> 2025 08 06 07 06 57.0000000  0 11                                             
G32  28063502.541 6 147474850.967 6      2353.982 6        37.187               
G05  28382223.012 7 149149590.016 7     -3521.845 7        42.107               
G10  26609849.964 7 139835667.402 7      3103.486 7        46.141               
G12  27194232.076 7 142906667.655 7      3187.571 7        47.181               
G13  27904585.189 7 146639569.934 7     -2857.163 7        45.275               
G15  24853264.788 7 130604792.153 7     -2059.214 7        45.203               
G18  25739525.620 6 135262112.893 6     -2581.431 6        41.587               
G22  28684415.655 6 150737617.458 6     -1734.711 6        39.790               
G23  23600982.573 6 124024034.764 6      1062.473 6        40.730               
G24  23413075.894 7 123036530.269 7      -810.544 7        46.460               
G25  28228521.949 7 148341904.965 7      3613.138 7        42.948               
> 2025 08 06 07 06 58.0000000  0 11                                             
G32  28063059.675 6 147472495.827 6      2350.265 6        36.895               
G05  28382895.191 6 149153110.334 6     -3520.938 6        41.959               
G10  26609258.875 7 139832563.329 7      3101.988 7        46.176               
G12  27193624.762 7 142903479.193 7      3187.386 7        47.107               
G13  27905130.016 7 146642425.478 7     -2854.926 7        45.024               
G15  24853657.888 7 130606851.748 7     -2061.954 7        45.281               
G18  25740014.445 6 135264695.552 6     -2581.428 6        41.819               
G22  28684752.861 6 150739354.772 6     -1734.366 6        39.489               
G23  23600789.981 6 124022978.631 6      1056.410 6        40.870               
G24  23413230.622 7 123037340.851 7      -809.818 7        46.679               
G25  28227838.745 7 148338293.496 7      3612.689 7        43.043               
> 2025 08 06 07 06 59.0000000  0 11                                             
G32  28062608.643 6 147470140.677 6      2356.161 6        37.512               
G05  28383561.741 7 149156630.739 7     -3516.484 7        42.421               
G10  26608669.554 7 139829459.367 7      3103.686 7        46.238               
G12  27193021.753 7 142900290.818 7      3189.555 7        47.146               
G13  27905670.786 7 146645280.982 7     -2851.898 7        45.482               
G15  24854051.436 7 130608911.528 7     -2060.003 7        45.581               
G18  25740503.198 6 135267278.613 6     -2586.995 6        41.489               
G22  28685086.100 6 150741092.506 6     -1731.297 6        39.374               
G23  23600584.469 6 124021922.943 6      1055.412 6        40.904               
G24  23413385.690 7 123038151.981 7      -812.772 7        46.631               
G25  28227152.021 7 148334681.846 7      3613.634 7        42.958               
> 2025 08 06 07 07 00.0000000  0 11                                             
G32  28062162.793 6 147467785.592 6      2351.884 6        37.568               
G05  28384232.633 7 149160151.326 7     -3518.705 7        42.447               
G10  26608078.500 7 139826355.515 7      3104.775 7        46.795               
G12  27192413.706 7 142897102.580 7      3187.491 7        47.391               
G13  27906213.468 7 146648136.462 7     -2853.897 7        44.670               
G15  24854447.324 7 130610971.539 7     -2062.149 7        45.899               
G18  25740991.934 6 135269862.084 6     -2578.366 6        41.474               
G22  28685420.608 6 150742830.720 6     -1732.816 6        39.677               
G23  23600378.350 6 124020867.781 6      1059.951 6        41.456               
G24  23413537.862 7 123038963.753 7      -810.348 7        46.721               
G25  28226459.328 7 148331070.100 7      3611.829 7        42.643               
> 2025 08 06 07 07 01.0000000  0 11                                             
G32  28061717.944 6 147465430.550 6      2353.928 6        36.920               
G05  28384901.953 7 149163672.013 7     -3519.757 7        42.454               
G10  26607488.340 7 139823251.823 7      3104.092 7        46.506               
G12  27191805.159 7 142893914.467 7      3187.242 7        47.742               
G13  27906753.452 7 146650991.908 7     -2856.598 7        44.332               
G15  24854841.979 7 130613031.779 7     -2062.992 7        46.107               
G18  25741491.302 6 135272445.972 6     -2589.792 6        41.365               
G22  28685750.471 6 150744569.438 6     -1742.218 6        40.395               
G23  23600176.198 6 124019813.135 6      1057.901 6        41.155               
G24  23413693.895 7 123039776.123 7      -812.546 7        46.703               
G25  28225770.084 7 148327458.200 7      3612.657 7        42.208               
> 2025 08 06 07 07 02.0000000  0 11                                             
G32  28061259.246 6 147463075.544 6      2353.878 6        37.670               
G05  28385572.113 7 149167192.844 7     -3517.164 7        42.005               
G10  26606895.821 7 139820148.240 7      3105.328 7        46.097               
G12  27191198.934 7 142890726.455 7      3187.436 7        47.292               
G13  27907294.723 7 146653847.329 7     -2854.186 7        43.912               
G15  24855234.794 7 130615092.222 7     -2055.857 7        45.517               
G18  25741981.521 6 135275030.258 6     -2587.102 6        41.840               
G22  28686079.886 6 150746308.594 6     -1740.714 6        39.844               
G23  23599976.976 6 124018759.018 6      1047.897 6        40.496               
G24  23413852.804 7 123040589.103 7      -812.245 7        46.078               
G25  28225084.217 7 148323846.163 7      3612.223 7        42.594               
> 2025 08 06 07 07 03.0000000  0 11                                             
G32  28060816.308 6 147460720.525 6      2355.551 6        37.547               
G05  28386240.039 7 149170713.773 7     -3523.126 7        42.274               
G10  26606305.465 7 139817044.776 7      3103.362 7        46.566               
G12  27190593.300 7 142887538.550 7      3189.627 7        47.578               
G13  27907837.887 7 146656702.710 7     -2858.735 7        43.971               
G15  24855623.838 7 130617152.883 7     -2059.196 7        45.933               
G18  25742466.325 6 135277614.954 6     -2583.519 6        41.283               
G22  28686407.783 6 150748048.209 6     -1734.555 6        39.919               
G23  23599776.789 6 124017705.383 6      1054.181 6        40.616               
G24  23414005.119 7 123041402.630 7      -809.454 7        46.302               
G25  28224397.886 7 148320233.984 7      3616.901 7        42.039               
> 2025 08 06 07 07 04.0000000  0 11                                             
G32  28060375.480 6 147458365.597 6      2350.793 6        38.028               
G05  28386915.292 7 149174234.856 7     -3519.875 7        42.167               
G10  26605711.177 7 139813941.453 7      3105.410 7        46.212               
G12  27189987.165 7 142884350.784 7      3187.656 7        47.189               
G13  27908383.268 7 146659558.067 7     -2855.632 7        43.887               
G15  24856015.599 7 130619213.763 7     -2060.227 7        45.549               
G18  25742959.957 6 135280200.060 6     -2587.139 6        41.310               
G22  28686739.217 6 150749788.337 6     -1748.625 6        39.710               
G23  23599578.032 6 124016652.280 6      1055.570 6        41.543               
G24  23414156.613 7 123042216.786 7      -814.881 7        46.127               
G25  28223710.876 7 148316621.691 7      3621.009 7        42.595               
> 2025 08 06 07 07 05.0000000  0 11                                             
G32  28059924.430 6 147456010.685 6      2358.383 6        37.478               
G05  28387581.342 6 149177756.076 6     -3521.088 6        41.999               
G10  26605123.411 7 139810838.271 7      3100.532 7        45.568               
G12  27189380.386 7 142881163.147 7      3186.599 7        46.855               
G13  27908927.451 7 146662413.410 7     -2856.991 7        44.456               
G15  24856404.411 7 130621274.875 7     -2058.340 7        45.362               
G18  25743451.569 6 135282785.585 6     -2584.017 6        40.791               
G22  28687064.398 6 150751528.919 6     -1744.894 6        39.346               
G23  23599383.635 6 124015599.705 6      1050.901 6        40.819               
G24  23414314.253 7 123043031.555 7      -816.287 7        46.554               
G25  28223026.010 7 148313009.262 7      3617.146 7        42.445               
> 2025 08 06 07 07 06.0000000  0 11                                             
G32  28059479.616 6 147453655.811 6      2353.313 6        37.554               
G05  28388255.540 7 149181277.408 7     -3517.589 7        42.471               
G10  26604532.089 7 139807735.197 7      3102.800 7        46.331               
G12  27188770.767 7 142877975.611 7      3185.538 7        46.722               
G13  27909468.132 7 146665268.708 7     -2855.537 7        44.469               
G15  24856795.421 7 130623336.207 7     -2060.129 7        45.112               
G18  25743947.149 6 135285371.479 6     -2581.314 6        40.969               
G22  28687394.707 6 150753269.971 6     -1748.294 6        39.091               
G23  23599187.058 6 124014547.618 6      1060.299 6        41.429               
G24  23414467.302 7 123043846.894 7      -815.740 7        46.341               
G25  28222337.677 7 148309396.698 7      3617.666 7        42.974               
> 2025 08 06 07 07 07.0000000  0 11                                             
G32  28059029.495 6 147451300.945 6      2364.372 6        37.278               
G05  28388919.803 7 149184798.848 7     -3518.175 7        42.387               
G10  26603939.856 7 139804632.263 7      3102.044 7        46.355               
G12  27188164.756 7 142874788.188 7      3187.336 7        46.962               
G13  27910012.958 7 146668123.953 7     -2856.427 7        44.281               
G15  24857192.453 7 130625397.762 7     -2065.500 7        45.259               
G18  25744437.796 6 135287957.808 6     -2579.622 6        40.804               
G22  28687731.234 6 150755011.485 6     -1744.405 6        38.690               
G23  23598993.572 7 124013496.031 7      1047.964 7        42.002               
G24  23414621.833 7 123044662.829 7      -813.770 7        46.207               
G25  28221651.846 7 148305783.978 7      3613.106 7        42.920               
> 2025 08 06 07 07 08.0000000  0 11                                             
G32  28058590.346 6 147448946.152 6      2355.689 6        37.929               
G05  28389590.678 6 149188320.449 6     -3523.808 6        41.965               
G10  26603349.267 7 139801529.460 7      3101.677 7        46.259               
G12  27187558.907 7 142871600.899 7      3186.302 7        46.650               
G13  27910558.768 7 146670979.200 7     -2853.899 7        44.447               
G15  24857586.751 7 130627459.529 7     -2060.409 7        45.539               
G18  25744929.534 6 135290544.567 6     -2589.782 6        41.084               
G22  28688060.042 6 150756753.504 6     -1746.194 6        39.092               
G23  23598785.809 6 124012444.986 6      1055.789 6        41.570               
G24  23414778.098 7 123045479.381 7      -817.128 7        46.141               
G25  28220960.404 7 148302171.152 7      3610.720 7        42.694               
> 2025 08 06 07 07 09.0000000  0 11                                             
G32  28058139.761 6 147446591.416 6      2364.113 6        38.135               
G05  28390260.391 6 149191842.225 6     -3524.637 6        41.548               
G10  26602760.751 7 139798426.816 7      3104.687 7        46.144               
G12  27186951.360 7 142868413.763 7      3187.443 7        45.615               
G13  27911103.487 7 146673834.440 7     -2854.123 7        44.741               
G15  24857977.600 7 130629521.552 7     -2065.431 7        45.378               
G18  25745423.952 6 135293131.751 6     -2591.852 6        41.095               
G22  28688392.423 6 150758496.015 6     -1745.675 6        38.816               
G23  23598579.493 6 124011394.489 6      1052.844 6        41.339               
G24  23414933.272 7 123046296.553 7      -815.151 7        46.456               
G25  28220272.554 7 148298558.198 7      3611.154 7        42.872               
> 2025 08 06 07 07 10.0000000  0 11                                             
G32  28057695.323 6 147444236.778 6      2355.949 6        38.324               
G05  28390931.516 6 149195364.136 6     -3523.207 6        41.529               
G10  26602170.322 7 139795324.333 7      3102.659 7        46.090               
G12  27186343.671 7 142865226.770 7      3188.489 7        45.400               
G13  27911645.347 7 146676689.667 7     -2853.079 7        44.390               
G15  24858367.001 7 130631583.820 7     -2062.440 7        45.705               
G18  25745918.799 6 135295719.353 6     -2594.481 6        40.752               
G22  28688727.807 6 150760239.032 6     -1739.648 6        38.450               
G23  23598381.808 6 124010344.490 6      1054.604 6        41.502               
G24  23415090.073 7 123047114.337 7      -816.196 7        46.560               
G25  28219595.247 7 148294945.162 7      3614.951 7        42.523               
> 2025 08 06 07 07 11.0000000  0 11                                             
G32  28057245.238 6 147441882.142 6      2363.140 6        38.121               
G05  28391601.997 6 149198886.166 6     -3523.347 6        41.211               
G10  26601577.107 7 139792221.974 7      3101.828 7        45.986               
G12  27185736.785 7 142862039.889 7      3187.689 7        45.412               
G13  27912186.332 7 146679544.868 7     -2855.901 7        44.130               
G15  24858758.065 7 130633646.298 7     -2059.841 7        44.804               
G18  25746410.662 6 135298307.378 6     -2593.494 6        40.331               
G22  28689064.281 6 150761982.516 6     -1740.401 6        37.804               
G23  23598179.334 6 124009295.027 6      1057.077 6        41.513               
G24  23415247.695 7 123047932.747 7      -817.901 7        47.103               
G25  28218898.676 7 148291331.967 7      3614.937 7        43.159               
> 2025 08 06 07 07 12.0000000  0 11                                             
G32  28056795.921 6 147439527.515 6      2357.639 6        38.058               
G05  28392274.873 6 149202408.290 6     -3526.489 6        41.385               
G10  26600991.289 7 139789119.700 7      3102.001 7        46.576               
G12  27185131.079 7 142858853.099 7      3185.657 7        45.410               
G13  27912731.301 7 146682399.996 7     -2854.211 7        43.983               
G15  24859150.236 7 130635708.958 7     -2061.402 7        44.512               
G18  25746899.880 6 135300895.757 6     -2582.224 6        40.763               
G22  28689395.698 6 150763726.441 6     -1749.994 6        37.893               
G23  23597981.756 6 124008246.025 6      1050.445 6        40.886               
G24  23415405.604 7 123048751.707 7      -821.136 7        46.967               
G25  28218211.773 7 148287718.590 7      3612.460 7        43.168               
> 2025 08 06 07 07 13.0000000  0 11                                             
G32  28056354.270 6 147437172.911 6      2353.324 6        37.878               
G05  28392944.568 6 149205930.574 6     -3521.583 6        41.163               
G10  26600400.271 7 139786017.573 7      3101.462 7        46.551               
G12  27184522.799 7 142855666.435 7      3186.391 7        45.015               
G13  27913271.393 7 146685255.102 7     -2855.931 7        44.338               
G15  24859543.123 7 130637771.859 7     -2067.198 7        45.295               
G18  25747386.864 6 135303484.589 6     -2592.068 6        39.955               
G22  28689730.009 6 150765470.828 6     -1743.450 6        38.180               
G23  23597781.909 6 124007197.566 6      1045.565 6        41.430               
G24  23415562.816 7 123049571.256 7      -821.895 7        46.966               
G25  28217524.531 7 148284105.107 7      3613.022 7        42.952               
> 2025 08 06 07 07 14.0000000  0 11                                             
G32  28055910.458 6 147434818.379 6      2351.222 6        37.458               
G05  28393613.370 6 149209452.993 6     -3522.777 6        40.939               
G10  26599807.913 7 139782915.606 7      3099.123 7        46.419               
G12  27183914.395 7 142852479.904 7      3182.866 7        45.244               
G13  27913822.098 7 146688110.208 7     -2851.860 7        43.695               
G15  24859931.738 7 130639834.994 7     -2061.099 7        45.453               
G18  25747877.262 6 135306073.816 6     -2587.401 6        40.551               
G22  28690060.533 6 150767215.686 6     -1744.342 6        38.205               
G23  23597584.385 6 124006149.598 6      1051.292 6        41.347               
G24  23415716.775 7 123050391.451 7      -820.607 7        46.833               
G25  28216839.021 7 148280491.508 7      3614.340 7        42.732               
> 2025 08 06 07 07 15.0000000  0 11                                             
G32  28055456.066 6 147432463.874 6      2348.205 6        38.682               
G05  28394284.370 6 149212975.542 6     -3522.951 6        40.855               
G10  26599219.718 7 139779813.757 7      3101.466 7        46.692               
G12  27183311.726 7 142849293.509 7      3189.165 7        45.367               
G13  27914357.722 7 146690965.287 7     -2853.129 7        43.675               
G15  24860328.216 7 130641898.355 7     -2066.144 7        45.596               
G18  25748374.986 6 135308663.481 6     -2591.832 6        40.899               
G22  28690387.017 6 150768961.055 6     -1746.227 6        38.292               
G23  23597375.496 6 124005102.188 6      1047.579 6        40.890               
G24  23415875.452 7 123051212.230 7      -824.665 7        47.067               
G25  28216146.329 7 148276877.764 7      3614.739 7        43.116               
> 2025 08 06 07 07 16.0000000  0 11                                             
G32  28055006.696 6 147430109.382 6      2354.509 6        39.038               
G05  28394949.633 6 149216498.186 6     -3521.442 6        40.996               
G10  26598631.094 7 139776712.032 7      3102.195 7        45.567               
G12  27182700.302 7 142846107.194 7      3187.547 7        45.431               
G13  27914899.922 7 146693820.298 7     -2854.124 7        43.498               
G15  24860725.391 7 130643961.895 7     -2063.490 7        45.811               
G18  25748862.917 6 135311253.514 6     -2588.957 6        40.209               
G22  28690716.951 6 150770706.849 6     -1745.316 6        38.255               
G23  23597176.543 6 124004055.234 6      1052.319 6        40.877               
G24  23416026.553 7 123052033.581 7      -819.627 7        46.478               
G25  28215464.536 7 148273263.891 7      3610.501 7        43.362               
> 2025 08 06 07 07 17.0000000  0 11                                             
G32  28054568.297 6 147427754.987 6      2343.092 6        38.575               
G05  28395622.349 6 149220021.007 6     -3520.737 6        40.850               
G10  26598041.703 7 139773610.467 7      3104.956 7        46.186               
G12  27182097.473 7 142842921.057 7      3188.078 7        45.149               
G13  27915447.482 7 146696675.337 7     -2854.367 7        44.347               
G15  24861116.472 7 130646025.720 7     -2065.436 7        45.683               
G18  25749358.640 6 135313843.983 6     -2592.781 6        40.297               
G22  28691048.958 6 150772453.164 6     -1747.882 6        38.162               
G23  23596974.980 6 124003008.867 6      1044.504 6        40.713               
G24  23416180.047 7 123052855.587 7      -820.479 7        46.342               
G25  28214778.205 7 148269649.913 7      3613.007 7        43.843               
> 2025 08 06 07 07 18.0000000  0 11                                             
G32  28054110.797 6 147425400.628 6      2353.470 6        38.470               
G05  28396289.685 6 149223543.953 6     -3521.858 6        39.867               
G10  26597446.825 7 139770509.034 7      3101.793 7        45.891               
G12  27181489.694 7 142839735.041 7      3189.179 7        46.003               
G13  27915989.289 7 146699530.359 7     -2853.732 7        44.145               
G15  24861510.806 7 130648089.739 7     -2063.354 7        45.389               
G18  25749856.649 6 135316434.889 6     -2588.471 6        40.817               
G22  28691380.374 6 150774199.949 6     -1744.998 6        37.998               
G23  23596770.719 6 124001963.005 6      1043.518 6        40.261               
G24  23416338.921 7 123053678.180 7      -821.401 7        46.600               
G25  28214087.549 7 148266035.800 7      3613.245 7        43.568               
> 2025 08 06 07 07 19.0000000  0 11                                             
G32  28053667.127 6 147423046.309 6      2354.594 6        39.514               
G05  28396960.310 6 149227067.007 6     -3526.937 6        39.614               
G10  26596857.969 7 139767407.749 7      3100.778 7        45.889               
G12  27180886.239 7 142836549.151 7      3184.710 7        45.983               
G13  27916535.795 7 146702385.333 7     -2855.029 7        43.980               
G15  24861902.870 7 130650154.001 7     -2064.250 7        45.717               
G18  25750352.729 6 135319026.175 6     -2592.221 6        40.733               
G22  28691710.415 6 150775947.198 6     -1753.637 6        37.767               
G23  23596580.664 6 124000917.638 6      1039.223 6        41.034               
G24  23416496.025 7 123054501.378 7      -821.976 7        46.467               
G25  28213400.628 7 148262421.551 7      3616.364 7        43.347               
> 2025 08 06 07 07 20.0000000  0 11                                             
G32  28053217.989 6 147420692.002 6      2351.409 6        39.030               
G05  28397633.453 6 149230590.185 6     -3520.771 6        39.419               
G10  26596269.989 7 139764306.572 7      3099.941 7        45.941               
G12  27180279.836 7 142833363.374 7      3183.290 7        46.322               
G13  27917077.941 7 146705240.275 7     -2856.297 7        44.168               
G15  24862295.488 7 130652218.477 7     -2064.358 7        45.720               
G18  25750845.521 6 135321617.880 6     -2590.679 6        40.194               
G22  28692050.427 6 150777694.949 6     -1747.579 6        38.768               
G23  23596381.407 6 123999872.792 6      1048.004 6        40.003               
G24  23416652.933 7 123055325.182 7      -825.132 7        46.830               
G25  28212712.099 7 148258807.176 7      3610.778 7        43.216               
> 2025 08 06 07 07 21.0000000  0 11                                             
G32  28052769.476 6 147418337.779 6      2354.531 6        39.230               
G05  28398299.664 6 149234113.538 6     -3523.019 6        39.270               
G10  26595677.488 7 139761205.550 7      3102.023 7        45.895               
G12  27179674.773 7 142830177.740 7      3184.822 7        46.398               
G13  27917626.234 7 146708095.209 7     -2855.169 7        44.006               
G15  24862687.874 7 130654283.198 7     -2063.123 7        45.898               
G18  25751339.474 6 135324210.015 6     -2594.322 6        40.437               
G22  28692385.096 6 150779443.204 6     -1756.313 6        37.109               
G23  23596180.648 6 123998828.498 6      1046.749 6        40.289               
G24  23416810.717 7 123056149.604 7      -826.331 7        45.978               
G25  28212025.714 7 148255192.686 7      3615.491 7        43.289               
> 2025 08 06 07 07 22.0000000  0 11                                             
G32  28052324.270 6 147415983.565 6      2354.035 6        39.591               
G05  28398972.826 6 149237637.003 6     -3524.187 6        39.191               
G10  26595090.044 7 139758104.673 7      3098.090 7        45.543               
G12  27179069.888 7 142826992.240 7      3185.737 7        46.941               
G13  27918166.040 7 146710950.131 7     -2857.519 7        44.042               
G15  24863079.760 7 130656348.131 7     -2063.445 7        45.022               
G18  25751830.479 6 135326802.559 6     -2588.861 6        40.473               
G22  28692707.918 6 150781191.878 6     -1746.364 6        37.193               
G23  23595991.648 6 123997784.704 6      1040.410 6        40.625               
G24  23416966.570 7 123056974.613 7      -823.985 7        46.846               
G25  28211338.650 7 148251578.043 7      3615.100 7        43.105               
> 2025 08 06 07 07 23.0000000  0 11                                             
G32  28051876.954 6 147413629.417 6      2351.454 6        39.440               
G05  28399644.844 6 149241160.596 6     -3520.735 6        39.055               
G10  26594496.828 7 139755003.927 7      3101.389 7        46.003               
G12  27178463.146 7 142823806.867 7      3186.050 7        46.896               
G13  27918708.043 7 146713805.032 7     -2851.809 7        44.018               
G15  24863469.894 7 130658413.294 7     -2062.377 7        45.391               
G18  25752325.112 6 135329395.515 6     -2592.142 6        40.422               
G22  28693053.773 6 150782941.063 6     -1744.805 6        37.279               
G23  23595792.390 6 123996741.412 6      1040.983 6        40.920               
G24  23417122.799 7 123057800.244 7      -824.360 7        46.139               
G25  28210649.799 7 148247963.308 7      3617.101 7        43.159               
> 2025 08 06 07 07 24.0000000  0 11                                             
G32  28051420.329 6 147411275.293 6      2352.026 6        39.761               
G05  28400316.469 6 149244684.299 6     -3519.519 6        38.685               
G10  26593906.185 7 139751903.293 7      3102.929 7        45.974               
G12  27177858.333 7 142820621.598 7      3186.362 7        47.131               
G13  27919255.228 7 146716659.880 7     -2857.150 7        44.081               
G15  24863863.977 7 130660478.666 7     -2067.321 7        45.391               
G18  25752816.689 6 135331988.861 6     -2593.217 6        40.985               
G22  28693381.526 6 150784690.687 6     -1743.169 6        36.522               
G23  23595594.205 6 123995698.671 6      1040.206 6        40.645               
G24  23417275.776 7 123058626.447 7      -827.443 7        46.569               
G25  28209963.700 7 148244348.409 7      3614.552 7        42.256               
> 2025 08 06 07 07 25.0000000  0 11                                             
G32  28050977.785 6 147408921.239 6      2355.196 6        39.448               
G05  28400989.185 6 149248208.165 6     -3527.681 6        38.761               
G10  26593314.488 7 139748802.842 7      3101.291 7        46.103               
G12  27177250.357 7 142817436.528 7      3187.427 7        46.917               
G13  27919793.086 7 146719514.732 7     -2856.980 7        43.911               
G15  24864257.007 7 130662544.284 7     -2064.457 7        45.240               
G18  25753306.014 6 135334582.657 6     -2596.357 6        40.540               
G22  28693713.586 6 150786440.874 6     -1742.900 6        36.912               
G23  23595395.769 6 123994656.405 6      1039.599 6        40.494               
G24  23417439.867 7 123059453.288 7      -826.465 7        45.939               
G25  28209272.616 7 148240733.418 7      3613.716 7        43.060               
> 2025 08 06 07 07 26.0000000  0 11                                             
G32  28050533.204 6 147406567.224 6      2342.417 6        39.829               
G05  28401653.787 6 149251732.169 6     -3522.015 6        39.431               
G10  26592726.186 7 139745702.491 7      3097.359 7        46.188               
G12  27176644.526 7 142814251.553 7      3183.917 7        47.072               
G13  27920334.142 7 146722369.535 7     -2857.569 7        43.673               
G15  24864650.661 7 130664610.103 7     -2063.268 7        45.435               
G18  25753801.218 6 135337176.842 6     -2596.776 6        40.122               
G22  28694046.629 6 150788191.446 6     -1746.671 6        36.629               
G23  23595191.884 6 123993614.700 6      1043.957 6        40.622               
G24  23417595.774 7 123060280.705 7      -825.534 7        46.163               
G25  28208588.893 7 148237118.286 7      3613.266 7        42.735               
> 2025 08 06 07 07 27.0000000  0 11                                             
G32  28050081.332 6 147404213.194 6      2356.509 6        38.957               
G05  28402327.306 6 149255256.267 6     -3525.958 6        39.051               
G10  26592133.042 7 139742602.267 7      3099.777 7        45.915               
G12  27176040.767 7 142811066.674 7      3183.905 7        46.933               
G13  27920874.072 7 146725224.305 7     -2851.878 7        43.351               
G15  24865044.763 7 130666676.142 7     -2068.026 7        45.499               
G18  25754297.048 6 135339771.435 6     -2591.399 6        39.640               
G22  28694380.530 6 150789942.503 6     -1753.374 6        36.982               
G23  23594998.666 6 123992573.474 6      1032.071 6        40.907               
G24  23417752.647 7 123061108.705 7      -829.866 7        46.514               
G25  28207891.787 7 148233503.000 7      3611.958 7        43.068               
> 2025 08 06 07 07 28.0000000  0 11                                             
G32  28049634.535 6 147401859.239 6      2356.505 6        39.160               
G05  28402992.659 6 149258780.542 6     -3520.922 6        38.832               
G10  26591540.720 7 139739502.201 7      3099.037 7        45.932               
G12  27175433.310 7 142807881.949 7      3183.197 7        47.092               
G13  27921419.828 7 146728079.074 7     -2857.482 7        42.691               
G15  24865436.183 7 130668742.421 7     -2067.772 7        45.286               
G18  25754793.753 6 135342366.464 6     -2596.419 6        40.349               
G22  28694710.213 6 150791694.048 6     -1746.447 6        36.882               
G23  23594797.568 6 123991532.774 6      1051.988 6        40.668               
G24  23417909.662 7 123061937.328 7      -827.888 7        46.307               
G25  28207210.066 7 148229887.589 7      3617.013 7        43.222               
> 2025 08 06 07 07 29.0000000  0 11                                             
G32  28049186.559 6 147399505.263 6      2348.501 6        38.866               
G05  28403670.038 6 149262304.894 6     -3513.965 6        38.840               
G10  26590954.473 7 139736402.229 7      3101.493 7        46.079               
G12  27174830.802 7 142804697.324 7      3187.470 7        47.233               
G13  27921958.150 7 146730933.765 7     -2854.745 7        42.620               
G15  24865832.608 7 130670808.889 7     -2068.503 7        45.036               
G18  25755279.755 6 135344961.852 6     -2591.413 6        40.636               
G22  28695041.308 6 150793446.082 6     -1747.267 6        37.466               
G23  23594601.277 6 123990492.602 6      1039.642 6        41.158               
G24  23418066.963 7 123062766.514 7      -834.750 7        46.343               
G25  28206518.749 7 148226272.039 7      3616.657 7        42.982               
> 2025 08 06 07 07 30.0000000  0 11                                             
G32  28048732.757 6 147397151.381 6      2351.379 6        39.471               
G05  28404334.980 6 149265829.415 6     -3527.596 6        38.985               
G10  26590365.385 7 139733302.390 7      3102.566 7        46.147               
G12  27174220.128 7 142801512.817 7      3183.953 7        46.979               
G13  27922505.264 7 146733788.446 7     -2852.615 7        42.592               
G15  24866225.691 7 130672875.591 7     -2067.231 7        45.329               
G18  25755779.712 6 135347557.666 6     -2593.479 6        40.961               
G22  28695376.352 6 150795198.539 6     -1752.503 6        37.486               
G23  23594408.327 6 123989452.903 6      1039.013 6        40.636               
G24  23418224.139 7 123063596.315 7      -828.463 7        46.529               
G25  28205832.793 7 148222656.346 7      3614.163 7        42.954               
> 2025 08 06 07 07 31.0000000  0 11                                             
G32  28048290.177 6 147394797.483 6      2350.013 6        39.311               
G05  28405005.319 6 149269354.006 6     -3530.807 6        39.129               
G10  26589776.600 7 139730202.681 7      3100.052 7        45.637               
G12  27173615.834 7 142798328.429 7      3181.955 7        46.824               
G13  27923046.749 7 146736643.075 7     -2854.836 7        42.556               
G15  24866618.541 7 130674942.499 7     -2066.275 7        45.943               
G18  25756278.722 6 135350153.852 6     -2598.800 6        41.311               
G22  28695712.344 6 150796951.471 6     -1750.725 6        37.924               
G23  23594207.211 6 123988413.730 6      1039.178 6        40.988               
G24  23418380.921 7 123064426.701 7      -828.259 7        46.304               
G25  28205145.014 7 148219040.540 7      3620.193 7        42.662               
> 2025 08 06 07 07 32.0000000  0 11                                             
G32  28047838.377 6 147392443.643 6      2357.282 6        38.898               
G05  28405679.839 6 149272878.704 6     -3530.388 6        39.100               
G10  26589184.957 7 139727103.096 7      3100.823 7        45.571               
G12  27173010.360 7 142795144.150 7      3182.653 7        46.957               
G13  27923590.485 7 146739497.667 7     -2855.282 7        42.160               
G15  24867012.803 7 130677009.608 7     -2066.442 7        45.217               
G18  25756767.619 6 135352750.437 6     -2598.753 6        41.699               
G22  28696046.012 6 150798704.861 6     -1759.943 6        37.029               
G23  23594007.168 6 123987375.035 6      1043.185 6        41.255               
G24  23418539.920 7 123065257.672 7      -829.582 7        46.092               
G25  28204454.091 7 148215424.567 7      3618.006 7        43.195               
> 2025 08 06 07 07 33.0000000  0 11                                             
G32  28047395.278 6 147390089.870 6      2347.241 6        39.155               
G05  28406352.643 6 149276403.623 6     -3515.265 6        39.391               
G10  26588596.226 7 139724003.701 7      3099.516 7        45.950               
G12  27172403.992 7 142791960.037 7      3184.558 7        47.022               
G13  27924132.828 7 146742352.275 7     -2853.460 7        42.674               
G15  24867411.640 7 130679076.999 7     -2068.348 7        45.737               
G18  25757268.684 6 135355347.492 6     -2598.693 6        41.981               
G22  28696381.253 6 150800458.769 6     -1754.663 6        36.631               
G23  23593811.788 6 123986336.930 6      1035.271 6        41.447               
G24  23418705.208 7 123066089.296 7      -834.134 7        46.311               
G25  28203765.061 7 148211808.540 7      3617.137 7        42.838               
> 2025 08 06 07 07 34.0000000  0 11                                             
G32  28046949.518 6 147387736.188 6      2356.852 6        39.552               
G05  28407022.374 6 149279928.686 6     -3532.291 6        39.992               
G10  26588007.281 7 139720904.460 7      3100.300 7        45.795               
G12  27171795.284 7 142788776.075 7      3181.859 7        46.824               
G13  27924680.460 7 146745206.891 7     -2851.538 7        42.662               
G15  24867805.473 7 130681144.634 7     -2069.616 7        45.543               
G18  25757760.779 7 135357944.978 7     -2599.449 7        42.434               
G22  28696727.197 6 150802213.173 6     -1758.516 6        36.555               
G23  23593614.889 6 123985299.356 6      1036.042 6        40.422               
G24  23418859.990 7 123066921.544 7      -833.619 7        46.075               
G25  28203076.711 7 148208192.379 7      3615.468 7        42.808               
> 2025 08 06 07 07 35.0000000  0 11                                             
G32  28046502.864 6 147385382.549 6      2350.712 6        39.302               
G05  28407693.731 6 149283453.888 6     -3527.098 6        39.766               
G10  26587417.925 7 139717805.386 7      3097.329 7        46.187               
G12  27171191.400 7 142785592.271 7      3181.967 7        47.268               
G13  27925221.355 7 146748061.515 7     -2853.597 7        42.656               
G15  24868197.144 7 130683212.529 7     -2063.524 7        45.360               
G18  25758257.073 6 135360542.909 6     -2597.729 6        41.868               
G22  28697065.547 6 150803968.118 6     -1753.405 6        36.531               
G23  23593411.218 6 123984262.356 6      1027.362 6        40.584               
G24  23419018.560 7 123067754.444 7      -835.405 7        45.379               
G25  28202391.845 7 148204576.139 7      3621.627 7        43.052               
> 2025 08 06 07 07 36.0000000  0 11                                             
G32  28046053.708 6 147383028.996 6      2355.385 6        38.413               
G05  28408358.638 6 149286979.240 6     -3515.779 6        40.017               
G10  26586830.249 7 139714706.465 7      3099.980 7        45.845               
G12  27170583.318 7 142782408.623 7      3184.176 7        47.038               
G13  27925768.987 7 146750916.123 7     -2857.508 7        42.265               
G15  24868588.279 7 130685280.657 7     -2067.300 7        45.743               
G18  25758751.670 7 135363141.257 7     -2601.541 7        42.024               
G22  28697401.627 5 150805723.531 5     -1762.643 5        35.722               
G23  23593220.037 6 123983225.857 6      1039.775 6        40.783               
G24  23419175.664 7 123068587.938 7      -830.854 7        46.566               
G25  28201701.904 7 148200959.798 7      3617.596 7        42.932               
> 2025 08 06 07 07 37.0000000  0 11                                             
G32  28045609.877 6 147380675.435 6      2344.142 6        39.077               
G05  28409030.477 6 149290504.711 6     -3523.920 6        39.942               
G10  26586238.909 7 139711607.658 7      3100.212 7        45.871               
G12  27169981.632 7 142779225.070 7      3181.603 7        47.859               
G13  27926312.224 7 146753770.687 7     -2856.834 7        42.498               
G15  24868978.932 7 130687348.984 7     -2068.804 7        45.303               
G18  25759239.101 6 135365739.989 6     -2596.016 6        41.872               
G22  28697733.330 5 150807479.369 5     -1753.822 5        35.486               
G23  23593023.978 6 123982189.844 6      1041.456 6        40.664               
G24  23419333.233 7 123069422.016 7      -834.956 7        46.475               
G25  28201011.159 7 148197343.290 7      3619.039 7        42.326               
> 2025 08 06 07 07 38.0000000  0 11                                             
G32  28045159.149 6 147378321.909 6      2351.612 6        39.565               
G05  28409705.462 6 149294030.285 6     -3518.529 6        39.377               
G10  26585649.535 7 139708508.971 7      3098.654 7        46.135               
G12  27169375.604 7 142776041.623 7      3182.165 7        47.708               
G13  27926851.010 6 146756625.203 6     -2850.868 6        41.995               
G15  24869370.710 7 130689417.525 7     -2066.132 7        45.361               
G18  25759728.641 6 135368339.144 6     -2595.854 6        40.976               
G22  28698065.462 5 150809235.689 5     -1753.708 5        34.914               
G23  23592829.796 6 123981154.368 6      1028.871 6        40.536               
G24  23419490.641 7 123070256.691 7      -834.110 7        46.368               
G25  28200326.275 7 148193726.650 7      3619.470 7        43.183               
> 2025 08 06 07 07 39.0000000  0 11                                             
G32  28044705.401 6 147375968.380 6      2357.713 6        40.007               
G05  28410375.336 6 149297555.970 6     -3529.187 6        39.179               
G10  26585060.286 7 139705410.383 7      3097.409 7        46.057               
G12  27168769.630 7 142772858.274 7      3185.754 7        47.509               
G13  27927393.907 7 146759479.655 7     -2856.216 7        42.548               
G15  24869764.704 7 130691486.256 7     -2072.629 7        44.917               
G18  25760226.043 6 135370938.646 6     -2596.368 6        41.245               
G22  28698395.503 5 150810992.442 5     -1764.109 5        34.558               
G23  23592622.283 6 123980119.353 6      1027.030 6        40.589               
G24  23419648.675 7 123071091.923 7      -837.746 7        46.452               
G25  28199637.621 7 148190109.844 7      3618.513 7        43.680               
> 2025 08 06 07 07 40.0000000  0 11                                             
G32  28044259.229 6 147373614.897 6      2352.670 6        39.345               
G05  28411047.443 6 149301081.801 6     -3529.245 6        39.672               
G10  26584470.144 7 139702311.963 7      3098.421 7        45.973               
G12  27168164.674 7 142769675.086 7      3181.167 7        47.748               
G13  27927938.626 6 146762334.110 6     -2849.706 6        41.661               
G15  24870158.412 7 130693555.234 7     -2072.681 7        44.970               
G18  25760716.816 6 135373538.599 6     -2600.264 6        41.485               
G22  28698716.627 5 150812749.706 5     -1757.937 5        34.719               
G23  23592422.543 6 123979084.910 6      1034.636 6        40.363               
G24  23419808.764 7 123071927.765 7      -837.721 7        46.363               
G25  28198950.986 7 148186492.928 7      3617.841 7        43.653               
> 2025 08 06 07 07 41.0000000  0 11                                             
G32  28043800.853 6 147371261.523 6      2355.212 6        39.061               
G05  28411716.281 6 149304607.781 6     -3527.997 6        40.285               
G10  26583881.699 7 139699213.680 7      3100.973 7        45.643               
G12  27167558.163 7 142766492.029 7      3183.776 7        47.548               
G13  27928480.790 7 146765188.561 7     -2850.740 7        42.096               
G15  24870549.762 7 130695624.449 7     -2067.764 7        45.788               
G18  25761216.845 6 135376138.972 6     -2596.709 6        41.691               
G22  28699043.290 5 150814507.436 5     -1746.521 5        34.910               
G23  23592222.749 6 123978050.967 6      1038.509 6        40.633               
G24  23419967.172 7 123072764.248 7      -837.689 7        46.299               
G25  28198260.902 7 148182875.894 7      3621.417 7        43.478               
> 2025 08 06 07 07 42.0000000  0 11                                             
G32  28043359.792 6 147368908.185 6      2351.816 6        38.765               
G05  28412387.888 6 149308133.893 6     -3528.433 6        40.204               
G10  26583294.005 7 139696115.572 7      3098.225 7        45.778               
G12  27166950.152 7 142763309.125 7      3182.978 7        47.428               
G13  27929017.272 6 146768043.005 6     -2852.285 6        41.851               
G15  24870944.989 7 130697693.923 7     -2070.866 7        44.889               
G18  25761714.426 7 135378739.762 7     -2602.705 7        42.051               
G22  28699375.279 5 150816265.705 5     -1754.459 5        34.864               
G23  23592028.155 6 123977017.571 6      1031.608 6        40.170               
G24  23420125.045 7 123073601.344 7      -834.120 7        45.724               
G25  28197573.016 7 148179258.773 7      3617.598 7        43.971               
> 2025 08 06 07 07 43.0000000  0 10                                             
G32  28042903.864 6 147366554.831 6      2349.684 6        38.415               
G05  28413058.941 6 149311660.110 6     -3526.334 6        39.660               
G10  26582704.256 7 139693017.554 7      3096.534 7        45.805               
G12  27166345.500 7 142760126.301 7      3184.738 7        47.376               
G13  27929563.546 6 146770897.398 6     -2855.232 6        41.535               
G15  24871334.980 7 130699763.565 7     -2071.778 7        44.956               
G18  25762210.077 6 135381340.927 6     -2601.110 6        41.940               
G23  23591833.848 6 123975984.675 6      1032.455 6        40.297               
G24  23420289.816 7 123074438.998 7      -838.131 7        46.393               
G25  28196885.059 7 148175641.449 7      3618.005 7        44.381               
> 2025 08 06 07 07 44.0000000  0 10                                             
G32  28042464.071 6 147364201.579 6      2354.496 6        38.803               
G05  28413725.599 6 149315186.485 6     -3528.510 6        39.960               
G10  26582112.005 7 139689919.693 7      3094.363 7        46.093               
G12  27165741.420 7 142756943.630 7      3182.656 7        47.122               
G13  27930106.246 6 146773751.763 6     -2855.732 6        41.560               
G15  24871730.904 7 130701833.450 7     -2073.269 7        44.682               
G18  25762707.854 7 135383942.504 7     -2607.179 7        42.484               
G23  23591642.381 6 123974952.317 6      1029.448 6        40.521               
G24  23420450.798 7 123075277.267 7      -835.593 7        45.640               
G25  28196193.492 7 148172024.072 7      3615.916 7        43.958               
> 2025 08 06 07 07 45.0000000  0 10                                             
G32  28042015.112 6 147361848.320 6      2359.054 6        38.492               
G05  28414398.635 6 149318712.976 6     -3531.378 6        39.400               
G10  26581522.202 7 139686821.932 7      3099.879 7        46.322               
G12  27165135.589 7 142753761.061 7      3180.526 7        47.375               
G13  27930652.967 6 146776606.080 6     -2853.805 6        41.704               
G15  24872122.825 7 130703903.526 7     -2069.795 7        44.601               
G18  25763199.788 7 135386544.481 7     -2597.030 7        42.417               
G23  23591451.647 6 123973920.450 6      1035.035 6        40.738               
G24  23420609.635 7 123076116.129 7      -838.507 7        46.348               
G25  28195506.928 7 148168406.510 7      3618.111 7        43.768               
> 2025 08 06 07 07 46.0000000  0 10                                             
G32  28041567.582 6 147359495.106 6      2347.691 6        38.391               
G05  28415069.975 6 149322239.584 6     -3527.345 6        40.241               
G10  26580933.918 7 139683724.327 7      3097.967 7        46.010               
G12  27164531.830 7 142750578.627 7      3181.273 7        47.915               
G13  27931195.452 7 146779460.364 7     -2855.672 7        42.129               
G15  24872517.981 7 130705973.844 7     -2070.668 7        44.833               
G18  25763697.065 7 135389146.876 7     -2601.421 7        42.986               
G23  23591258.001 6 123972889.099 6      1026.030 6        41.505               
G24  23420765.703 7 123076955.584 7      -838.691 7        46.214               
G25  28194816.826 7 148164788.832 7      3620.346 7        43.474               
> 2025 08 06 07 07 47.0000000  0 10                                             
G32  28041122.197 6 147357141.920 6      2354.316 6        38.017               
G05  28415746.264 6 149325766.350 6     -3525.057 6        39.792               
G10  26580347.260 7 139680626.890 7      3100.520 7        45.997               
G12  27163924.730 7 142747396.361 7      3181.773 7        47.563               
G13  27931744.210 7 146782314.679 7     -2850.774 7        42.325               
G15  24872911.153 7 130708044.428 7     -2068.366 7        45.229               
G18  25764186.819 7 135391749.708 7     -2603.796 7        42.149               
G23  23591063.907 6 123971858.279 6      1031.196 6        41.295               
G24  23420922.790 7 123077795.676 7      -840.719 7        45.825               
G25  28194128.940 7 148161171.059 7      3620.721 7        43.494               
> 2025 08 06 07 07 48.0000000  0 10                                             
G32  28040672.898 6 147354788.820 6      2345.709 6        37.463               
G05  28416416.888 6 149329293.234 6     -3521.689 6        40.038               
G10  26579751.953 7 139677529.571 7      3098.606 7        45.723               
G12  27163319.846 7 142744214.201 7      3181.941 7        47.537               
G13  27932285.498 7 146785168.941 7     -2854.988 7        42.376               
G15  24873306.773 7 130710115.215 7     -2071.528 7        45.049               
G18  25764687.563 7 135394352.945 7     -2608.241 7        42.445               
G23  23590866.222 6 123970827.990 6      1027.747 6        41.596               
G24  23421082.396 7 123078636.348 7      -844.920 7        45.986               
G25  28193439.482 7 148157553.159 7      3614.001 7        43.822               
> 2025 08 06 07 07 49.0000000  0 10                                             
G32  28040223.707 6 147352435.805 6      2349.142 6        38.358               
G05  28417085.189 6 149332820.297 6     -3528.756 6        40.290               
G10  26579163.276 7 139674432.424 7      3097.913 7        45.785               
G12  27162716.087 7 142741032.206 7      3180.968 7        47.031               
G13  27932831.862 6 146788023.196 6     -2857.956 6        41.823               
G15  24873699.517 7 130712186.246 7     -2070.411 7        44.765               
G18  25765179.426 7 135396956.624 7     -2602.635 7        42.443               
G23  23590665.750 6 123969798.222 6      1028.018 6        41.208               
G24  23421244.593 7 123079477.661 7      -845.314 7        46.532               
G25  28192749.166 7 148153935.150 7      3617.709 7        43.668               
> 2025 08 06 07 07 50.0000000  0 10                                             
G32  28039774.283 6 147350082.835 6      2352.691 6        38.059               
G05  28417753.991 6 149336347.489 6     -3524.242 6        40.185               
G10  26578575.779 7 139671335.457 7      3096.962 7        45.998               
G12  27162108.076 7 142737850.368 7      3181.068 7        47.536               
G13  27933372.239 6 146790877.466 6     -2854.033 6        41.814               
G15  24874095.298 7 130714257.538 7     -2070.850 7        44.751               
G18  25765673.486 7 135399560.725 7     -2602.867 7        42.844               
G23  23590469.977 6 123968769.053 6      1026.876 6        41.352               
G24  23421406.719 7 123080319.589 7      -842.591 7        45.570               
G25  28192062.334 7 148150317.041 7      3617.973 7        43.551               
> 2025 08 06 07 07 51.0000000  0 10                                             
G32  28039315.585 6 147347729.873 6      2352.704 6        38.465               
G05  28418430.012 6 149339874.811 6     -3524.322 6        40.364               
G10  26577988.549 7 139668238.599 7      3097.579 7        45.891               
G12  27161502.655 7 142734668.648 7      3181.229 7        47.074               
G13  27933911.347 7 146793731.699 7     -2857.477 7        42.016               
G15  24874490.936 7 130716329.042 7     -2068.701 7        45.354               
G18  25766170.442 7 135402165.231 7     -2607.371 7        43.097               
G23  23590270.791 6 123967740.351 6      1024.243 6        41.210               
G24  23421568.040 7 123081162.122 7      -845.165 7        45.910               
G25  28191372.018 7 148146698.795 7      3620.594 7        43.808               
> 2025 08 06 07 07 52.0000000  0 10                                             
G32  28038871.897 6 147345377.023 6      2346.006 6        38.349               
G05  28419099.707 6 149343402.351 6     -3524.928 6        40.527               
G10  26577397.495 7 139665141.957 7      3101.073 7        46.067               
G12  27160898.790 7 142731487.128 7      3184.938 7        46.571               
G13  27934455.655 7 146796585.969 7     -2850.068 7        42.021               
G15  24874888.504 7 130718400.850 7     -2074.048 7        45.924               
G18  25766669.899 7 135404770.210 7     -2604.057 7        42.945               
G23  23590076.429 6 123966712.243 6      1026.817 6        40.801               
G24  23421725.592 7 123082005.327 7      -845.630 7        46.299               
G25  28190684.615 7 148143080.504 7      3620.663 7        43.837               
> 2025 08 06 07 07 53.0000000  0 10                                             
G32  28038421.884 6 147343024.251 6      2347.354 6        37.935               
G05  28419769.760 6 149346929.999 6     -3530.560 6        40.998               
G10  26576806.960 7 139662045.471 7      3094.268 7        45.561               
G12  27160292.512 7 142728305.742 7      3183.483 7        47.112               
G13  27934996.694 6 146799440.238 6     -2853.741 6        41.945               
G15  24875284.016 7 130720472.870 7     -2075.998 7        45.778               
G18  25767165.693 7 135407375.591 7     -2606.335 7        43.151               
G23  23589879.941 6 123965684.664 6      1028.655 6        40.525               
G24  23421886.609 7 123082849.109 7      -839.303 7        46.311               
G25  28189993.423 7 148139462.074 7      3622.088 7        43.588               
> 2025 08 06 07 07 54.0000000  0 10                                             
G32  28037975.641 6 147340671.447 6      2346.595 6        38.158               
G05  28420446.210 6 149350457.736 6     -3526.674 6        41.340               
G10  26576218.586 7 139658949.072 7      3094.112 7        46.106               
G12  27159684.464 7 142725124.449 7      3178.751 7        47.004               
G13  27935546.774 7 146802294.426 7     -2848.925 7        42.146               
G15  24875681.602 7 130722545.074 7     -2072.963 7        45.822               
G18  25767661.272 7 135409981.354 7     -2603.534 7        43.123               
G23  23589684.061 6 123964657.570 6      1025.318 6        40.476               
G24  23422046.019 7 123083693.480 7      -839.927 7        45.946               
G25  28189304.501 7 148135843.469 7      3620.515 7        43.305               
> 2025 08 06 07 07 55.0000000  0 10                                             
G32  28037519.999 6 147338318.695 6      2346.079 6        38.199               
G05  28421113.957 6 149353985.618 6     -3530.597 6        40.974               
G10  26575630.267 7 139655852.809 7      3099.886 7        45.814               
G12  27159081.474 7 142721943.267 7      3182.537 7        46.416               
G13  27936083.238 6 146805148.571 6     -2857.491 6        41.956               
G15  24876073.327 7 130724617.501 7     -2073.893 7        45.933               
G18  25768159.210 7 135412587.523 7     -2605.703 7        43.219               
G23  23589486.162 6 123963630.979 6      1026.456 6        40.379               
G24  23422210.646 7 123084538.437 7      -844.148 7        45.960               
G25  28188616.293 7 148132224.745 7      3616.869 7        43.328               
> 2025 08 06 07 07 56.0000000  0 10                                             
G32  28037078.258 6 147335965.962 6      2360.189 6        38.406               
G05  28421783.188 6 149357513.623 6     -3531.244 6        41.130               
G10  26575040.911 7 139652756.671 7      3097.723 7        45.986               
G12  27158474.195 7 142718762.220 7      3178.362 7        46.248               
G13  27936623.418 7 146808002.688 7     -2855.700 7        42.106               
G15  24876466.946 7 130726690.128 7     -2075.025 7        45.868               
G18  25768654.701 7 135415194.079 7     -2604.275 7        43.277               
G23  23589290.317 6 123962604.911 6      1028.662 6        41.002               
G24  23422373.629 7 123085383.983 7      -845.907 7        45.269               
G25  28187931.999 7 148128605.876 7      3619.191 7        43.812               
> 2025 08 06 07 07 57.0000000  0 10                                             
G32  28036627.209 6 147333613.284 6      2356.931 6        37.292               
G05  28422454.956 6 149361041.763 6     -3526.003 6        40.924               
G10  26574451.340 7 139649660.693 7      3093.878 7        46.205               
G12  27157869.776 7 142715581.312 7      3179.458 7        45.746               
G13  27937162.938 6 146810856.803 6     -2857.098 6        41.668               
G15  24876862.477 7 130728763.008 7     -2068.510 7        45.868               
G18  25769153.407 7 135417801.071 7     -2609.546 7        43.467               
G23  23589093.883 6 123961579.376 6      1024.586 6        41.474               
G24  23422534.897 7 123086230.150 7      -847.030 7        45.721               
G25  28187237.645 7 148124986.889 7      3618.868 7        43.024               
> 2025 08 06 07 07 58.0000000  0 10                                             
G32  28036181.823 6 147331260.673 6      2346.315 6        37.258               
G05  28423130.137 6 149364570.017 6     -3526.786 6        41.635               
G10  26573861.770 7 139646564.835 7      3097.930 7        45.743               
G12  27157263.283 7 142712400.533 7      3181.693 7        45.565               
G13  27937711.356 6 146813710.874 6     -2849.918 6        41.901               
G15  24877252.825 7 130730836.110 7     -2072.941 7        45.436               
G18  25769645.967 7 135420408.461 7     -2605.469 7        42.601               
G23  23588902.649 6 123960554.350 6      1023.325 6        40.998               
G24  23422693.485 7 123087076.909 7      -845.429 7        46.052               
G25  28186553.404 7 148121367.787 7      3621.161 7        42.916               
> 2025 08 06 07 07 59.0000000  0 10                                             
G32  28035733.722 6 147328908.080 6      2345.602 6        37.215               
G05  28423798.742 6 149368098.447 6     -3521.926 6        41.372               
G10  26573271.180 7 139643469.126 7      3096.336 7        45.687               
G12  27156658.685 7 142709219.889 7      3179.871 7        46.488               
G13  27938253.681 6 146816564.945 6     -2854.350 6        41.660               
G15  24877649.125 7 130732909.439 7     -2075.264 7        45.252               
G18  25770141.939 7 135423016.264 7     -2610.456 7        43.566               
G23  23588710.092 7 123959529.846 7      1030.831 7        42.078               
G24  23422852.358 7 123087924.263 7      -848.873 7        45.745               
G25  28185862.159 7 148117748.568 7      3618.481 7        43.411               
> 2025 08 06 07 08 00.0000000  0 10                                             
G32  28035284.798 6 147326555.486 6      2355.478 6        37.580               
G05  28424471.422 6 149371626.972 6     -3533.817 6        41.670               
G10  26572682.325 7 139640373.518 7      3097.355 7        45.928               
G12  27156052.854 7 142706039.350 7      3180.070 7        45.779               
G13  27938798.686 6 146819418.933 6     -2850.091 6        41.463               
G15  24878040.724 7 130734982.959 7     -2073.567 7        45.176               
G18  25770637.769 7 135425624.454 7     -2612.997 7        43.490               
G23  23588521.038 7 123958505.838 7      1021.396 7        42.708               
G24  23423014.288 7 123088772.202 7      -851.916 7        45.950               
G25  28185179.508 7 148114129.178 7      3618.771 7        42.906               
> 2025 08 06 07 08 01.0000000  0 10                                             
G32  28034847.114 6 147324202.912 6      2355.784 6        37.865               
G05  28425139.008 6 149375155.595 6     -3530.508 6        41.599               
G10  26572093.469 7 139637278.042 7      3091.494 7        45.817               
G12  27155444.967 7 142702858.915 7      3179.938 7        45.307               
G13  27939340.600 6 146822272.903 6     -2855.052 6        41.434               
G15  24878439.525 7 130737056.684 7     -2076.849 7        45.219               
G18  25771135.814 7 135428233.017 7     -2608.110 7        42.977               
G23  23588328.249 7 123957482.340 7      1020.876 7        42.174               
G24  23423176.449 7 123089620.716 7      -847.214 7        46.745               
G25  28184490.675 7 148110509.654 7      3618.148 7        43.073               
> 2025 08 06 07 08 02.0000000  0 10                                             
G32  28034394.117 6 147321850.482 6      2355.063 6        37.926               
G05  28425811.402 6 149378684.415 6     -3531.051 6        41.726               
G10  26571505.632 7 139634182.756 7      3094.092 7        46.061               
G12  27154838.904 7 142699678.674 7      3182.656 7        46.171               
G13  27939884.783 6 146825126.887 6     -2853.790 6        41.422               
G15  24878834.913 7 130739130.698 7     -2079.283 7        45.371               
G18  25771629.714 7 135430842.050 7     -2609.322 7        43.751               
G23  23588134.388 7 123956459.409 7      1023.070 7        42.438               
G24  23423338.003 7 123090469.891 7      -852.255 7        45.381               
G25  28183799.126 7 148106890.075 7      3620.743 7        42.934               
> 2025 08 06 07 08 03.0000000  0 10                                             
G32  28033942.924 6 147319498.018 6      2351.555 6        38.250               
G05  28426484.456 7 149382213.327 7     -3531.993 7        42.066               
G10  26570916.025 7 139631087.571 7      3092.879 7        46.180               
G12  27154235.109 7 142696498.521 7      3181.127 7        46.133               
G13  27940430.610 6 146827980.801 6     -2859.092 6        41.115               
G15  24879228.532 7 130741204.887 7     -2071.733 7        45.044               
G18  25772126.777 7 135433451.452 7     -2613.457 7        44.487               
G23  23587938.544 6 123955436.956 6      1019.701 6        41.910               
G24  23423497.484 7 123091319.620 7      -849.174 7        45.202               
G25  28183111.741 7 148103270.308 7      3620.543 7        43.263               
> 2025 08 06 07 08 04.0000000  0 10                                             
G32  28033504.865 6 147317145.694 6      2348.692 6        37.808               
G05  28427153.884 7 149385742.421 7     -3526.306 7        42.475               
G10  26570325.436 7 139627992.605 7      3095.490 7        45.913               
G12  27153630.511 7 142693318.570 7      3183.192 7        45.791               
G13  27940968.646 6 146830834.779 6     -2855.072 6        41.811               
G15  24879625.421 7 130743279.401 7     -2070.213 7        45.606               
G18  25772626.663 7 135436061.328 7     -2612.205 7        44.306               
G23  23587743.235 6 123954415.103 6      1025.168 6        41.648               
G24  23423663.290 7 123092170.025 7      -850.002 7        45.836               
G25  28182421.175 7 148099650.510 7      3620.726 7        42.901               
> 2025 08 06 07 08 05.0000000  0 10                                             
G32  28033049.044 6 147314793.318 6      2348.541 6        37.205               
G05  28427825.937 7 149389271.556 7     -3528.998 7        42.549               
G10  26569739.064 7 139624897.677 7      3094.490 7        45.820               
G12  27153025.805 7 142690138.665 7      3181.270 7        46.250               
G13  27941513.491 6 146833688.629 6     -2854.191 6        41.605               
G15  24880018.218 7 130745354.042 7     -2073.380 7        45.862               
G18  25773120.223 7 135438671.516 7     -2609.751 7        44.200               
G23  23587539.689 6 123953393.684 6      1023.117 6        41.364               
G24  23423824.273 7 123093020.931 7      -855.026 7        45.999               
G25  28181733.646 7 148096030.488 7      3620.176 7        42.831               
> 2025 08 06 07 08 06.0000000  0 10                                             
G32  28032602.175 6 147312440.960 6      2355.631 6        37.817               
G05  28428501.601 7 149392800.819 7     -3526.867 7        42.232               
G10  26569148.064 7 139621802.905 7      3092.227 7        46.087               
G12  27152420.760 7 142686958.920 7      3177.049 7        46.420               
G13  27942055.244 6 146836542.480 6     -2852.152 6        41.388               
G15  24880413.659 7 130747428.925 7     -2072.312 7        45.626               
G18  25773620.681 7 135441282.141 7     -2611.712 7        44.384               
G23  23587343.505 6 123952372.797 6      1019.519 6        41.453               
G24  23423985.737 7 123093872.459 7      -850.963 7        45.787               
G25  28181044.366 7 148092410.359 7      3619.382 7        42.956               
> 2025 08 06 07 08 07.0000000  0 10                                             
G32  28032161.704 6 147310088.687 6      2350.557 6        37.859               
G05  28429171.260 6 149396330.243 6     -3527.129 6        41.794               
G10  26568557.279 7 139618708.288 7      3095.467 7        45.484               
G12  27151815.769 7 142683779.322 7      3180.807 7        46.689               
G13  27942598.659 6 146839396.323 6     -2857.800 6        40.791               
G15  24880806.456 7 130749504.058 7     -2076.474 7        45.483               
G18  25774119.745 7 135443893.181 7     -2613.539 7        44.574               
G23  23587148.911 6 123951352.450 6      1026.163 6        41.781               
G24  23424149.346 7 123094724.599 7      -852.392 7        46.306               
G25  28180357.999 7 148088790.132 7      3617.821 7        43.270               
> 2025 08 06 07 08 08.0000000  0 10                                             
G32  28031710.493 6 147307736.461 6      2345.732 6        38.864               
G05  28429840.723 6 149399859.790 6     -3526.875 6        41.645               
G10  26567969.263 7 139615613.802 7      3097.407 7        45.693               
G12  27151211.349 7 142680599.856 7      3180.373 7        46.406               
G13  27943147.077 6 146842250.149 6     -2852.852 6        40.973               
G15  24881202.094 7 130751579.404 7     -2075.873 7        45.415               
G18  25774615.824 7 135446504.645 7     -2617.151 7        44.358               
G23  23586960.500 6 123950332.641 6      1024.177 6        41.714               
G24  23424311.346 7 123095577.365 7      -854.379 7        46.742               
G25  28179671.132 7 148085169.776 7      3622.244 7        43.449               
> 2025 08 06 07 08 09.0000000  0 10                                             
G32  28031273.899 6 147305384.227 6      2358.184 6        38.977               
G05  28430520.157 7 149403389.446 7     -3530.388 7        42.175               
G10  26567382.873 7 139612519.454 7      3092.483 7        46.005               
G12  27150606.250 7 142677420.493 7      3178.738 7        47.584               
G13  27943683.916 6 146845103.902 6     -2853.015 6        40.915               
G15  24881593.801 7 130753654.941 7     -2075.639 7        45.662               
G18  25775114.174 7 135449116.468 7     -2610.514 7        44.460               
G23  23586764.513 6 123949313.308 6      1013.993 6        41.322               
G24  23424474.741 7 123096430.688 7      -852.406 7        46.380               
G25  28178978.689 7 148081549.264 7      3622.850 7        43.189               
> 2025 08 06 07 08 10.0000000  0 10                                             
G32  28030814.308 6 147303032.086 6      2346.664 6        38.146               
G05  28431186.011 7 149406919.247 7     -3528.301 7        42.815               
G10  26566794.142 7 139609425.250 7      3094.893 7        45.544               
G12  27150001.205 7 142674241.299 7      3178.367 7        47.101               
G13  27944230.118 6 146847957.648 6     -2852.751 6        41.086               
G15  24881990.028 7 130755730.725 7     -2073.564 7        45.090               
G18  25775614.203 7 135451728.729 7     -2613.062 7        44.219               
G23  23586570.902 6 123948294.514 6      1013.867 6        40.930               
G24  23424636.634 7 123097284.642 7      -857.907 7        46.273               
G25  28178289.017 7 148077928.654 7      3622.744 7        42.906               
> 2025 08 06 07 08 11.0000000  0 10                                             
G32  28030374.873 6 147300679.989 6      2351.135 6        38.739               
G05  28431859.137 7 149410449.198 7     -3528.080 7        42.469               
G10  26566205.447 7 139606331.206 7      3094.524 7        45.485               
G12  27149395.981 7 142671062.246 7      3181.715 7        47.244               
G13  27944773.658 6 146850811.406 6     -2857.801 6        41.539               
G15  24882383.808 7 130757806.751 7     -2074.048 7        45.339               
G18  25776106.369 7 135454341.417 7     -2609.779 7        44.411               
G23  23586378.185 6 123947276.281 6      1019.591 6        41.810               
G24  23424802.030 7 123098139.219 7      -854.754 7        46.030               
G25  28177598.486 7 148074307.944 7      3619.124 7        42.565               
> 2025 08 06 07 08 12.0000000  0 10                                             
G32  28029929.398 6 147298327.931 6      2346.207 6        38.963               
G05  28432531.941 7 149413979.290 7     -3532.931 7        42.431               
G10  26565618.843 7 139603237.305 7      3094.785 7        45.709               
G12  27148792.419 7 142667883.343 7      3176.263 7        47.392               
G13  27945316.072 6 146853665.146 6     -2854.518 6        41.716               
G15  24882779.768 7 130759883.012 7     -2073.161 7        45.647               
G18  25776604.665 7 135456954.517 7     -2611.764 7        44.228               
G23  23586178.749 7 123946258.545 7      1020.152 7        42.318               
G24  23424963.047 7 123098994.395 7      -853.877 7        45.746               
G25  28176913.048 7 148070687.096 7      3622.508 7        42.462               
> 2025 08 06 07 08 13.0000000  0 10                                             
G32  28029488.319 6 147295975.943 6      2347.531 6        39.387               
G05  28433208.016 7 149417509.531 7     -3530.821 7        42.361               
G10  26565027.468 7 139600143.578 7      3093.705 7        46.119               
G12  27148185.909 7 142664704.578 7      3177.634 7        46.894               
G13  27945861.649 6 146856518.846 6     -2850.480 6        41.868               
G15  24883173.744 7 130761959.505 7     -2075.819 7        45.429               
G18  25777100.905 7 135459568.049 7     -2615.735 7        44.391               
G23  23585991.320 6 123945241.376 6      1017.084 6        41.924               
G24  23425122.904 7 123099850.187 7      -856.508 7        46.502               
G25  28176223.107 7 148067066.166 7      3625.813 7        42.230               
> 2025 08 06 07 08 14.0000000  0 10                                             
G32  28029043.417 6 147293624.034 6      2352.282 6        39.527               
G05  28433876.978 7 149421039.906 7     -3525.427 7        42.468               
G10  26564440.274 7 139597049.992 7      3094.661 7        45.548               
G12  27147581.954 7 142661525.966 7      3179.572 7        46.854               
G13  27946405.833 6 146859372.558 6     -2857.539 6        41.386               
G15  24883570.972 7 130764036.230 7     -2076.295 7        45.634               
G18  25777600.898 7 135462181.980 7     -2612.448 7        44.036               
G23  23585799.389 7 123944224.725 7      1014.029 7        42.362               
G24  23425286.387 7 123100706.581 7      -854.513 7        46.164               
G25  28175531.934 7 148063445.110 7      3624.158 7        42.076               
> 2025 08 06 07 08 15.0000000  0 10                                             
G32  28028592.134 6 147291272.144 6      2353.609 6        38.944               
G05  28434547.174 7 149424570.427 7     -3526.654 7        42.177               
G10  26563848.523 7 139593956.564 7      3092.156 7        45.987               
G12  27146978.338 7 142658347.493 7      3175.725 7        47.156               
G13  27946949.373 6 146862226.239 6     -2852.894 6        41.689               
G15  24883968.344 7 130766113.177 7     -2075.838 7        45.994               
G18  25778097.139 7 135464796.361 7     -2613.144 7        44.160               
G23  23585609.995 7 123943208.622 7      1011.944 7        42.670               
G24  23425449.800 7 123101563.584 7      -862.162 7        46.028               
G25  28174842.154 7 148059823.944 7      3617.186 7        42.279               
> 2025 08 06 07 08 16.0000000  0 10                                             
G32  28028143.175 6 147288920.294 6      2353.526 6        39.840               
G05  28435222.391 7 149428101.048 7     -3534.182 7        42.490               
G10  26563261.508 7 139590863.266 7      3091.017 7        45.144               
G12  27146373.972 7 142655169.143 7      3177.480 7        47.992               
G13  27947494.824 6 146865079.906 6     -2859.518 6        41.917               
G15  24884363.785 7 130768190.349 7     -2076.126 7        45.668               
G18  25778595.095 7 135467411.106 7     -2613.081 7        44.483               
G23  23585419.172 7 123942193.004 7      1021.288 7        42.889               
G24  23425617.143 7 123102421.189 7      -855.873 7        45.920               
G25  28174155.197 6 148056202.657 6      3618.975 6        41.958               
> 2025 08 06 07 08 17.0000000  0 10                                             
G32  28027701.435 6 147286568.448 6      2356.188 6        39.077               
G05  28435889.334 7 149431631.776 7     -3528.921 7        42.743               
G10  26562669.168 7 139587770.064 7      3098.027 7        45.562               
G12  27145769.749 7 142651990.882 7      3180.158 7        47.426               
G13  27948036.989 6 146867933.476 6     -2849.349 6        41.686               
G15  24884759.584 7 130770267.714 7     -2076.157 7        45.731               
G18  25779087.065 7 135470026.234 7     -2610.995 7        44.815               
G23  23585226.115 7 123941177.891 7      1010.075 7        42.794               
G24  23425780.966 7 123103279.351 7      -858.136 7        46.391               
G25  28173462.790 7 148052581.199 7      3622.195 7        42.562               
> 2025 08 06 07 08 18.0000000  0 10                                             
G32  28027247.330 6 147284216.614 6      2350.749 6        38.853               
G05  28436561.352 7 149435162.639 7     -3530.133 7        42.476               
G10  26562082.724 7 139584677.033 7      3093.698 7        45.421               
G12  27145164.740 7 142648812.763 7      3179.294 7        47.277               
G13  27948582.708 6 146870787.044 6     -2858.520 6        41.684               
G15  24885157.420 7 130772345.294 7     -2077.579 7        45.715               
G18  25779585.468 7 135472641.762 7     -2615.819 7        44.143               
G23  23585032.469 7 123940163.283 7      1014.700 7        43.394               
G24  23425943.449 7 123104138.112 7      -859.293 7        46.199               
G25  28172777.066 7 148048959.619 7      3622.404 7        42.416               
> 2025 08 06 07 08 19.0000000  0 10                                             
G32  28026797.870 6 147281864.880 6      2350.962 6        38.210               
G05  28437230.279 7 149438693.635 7     -3526.833 7        42.174               
G10  26561494.619 7 139581584.122 7      3090.047 7        45.642               
G12  27144559.998 7 142645634.783 7      3178.184 7        46.826               
G13  27949119.887 7 146873640.584 7     -2854.311 7        42.130               
G15  24885554.988 7 130774423.106 7     -2077.671 7        45.778               
G18  25780081.083 7 135475257.700 7     -2612.545 7        43.986               
G23  23584835.105 7 123939149.231 7      1014.043 7        43.017               
G24  23426105.682 7 123104997.493 7      -859.776 7        46.212               
G25  28172086.411 7 148045337.941 7      3624.149 7        42.186               
> 2025 08 06 07 08 20.0000000  0 10                                             
G32  28026352.449 6 147279513.182 6      2348.664 6        39.043               
G05  28437906.389 6 149442224.787 6     -3529.924 6        41.948               
G10  26560901.546 7 139578491.392 7      3093.729 7        45.479               
G12  27143954.131 7 142642456.966 7      3176.081 7        46.634               
G13  27949664.946 7 146876494.131 7     -2854.915 7        42.299               
G15  24885954.200 7 130776501.176 7     -2076.952 7        46.140               
G18  25780578.217 7 135477874.086 7     -2615.836 7        43.838               
G23  23584636.634 7 123938135.700 7      1017.209 7        42.295               
G24  23426270.524 7 123105857.494 7      -860.431 7        46.648               
G25  28171396.827 7 148041716.166 7      3619.063 7        42.209               
> 2025 08 06 07 08 21.0000000  0 10                                             
G32  28025900.452 6 147277161.512 6      2344.641 6        39.474               
G05  28438579.926 6 149445756.050 6     -3533.121 6        41.716               
G10  26560313.333 7 139575398.788 7      3089.094 7        45.344               
G12  27143346.709 7 142639279.268 7      3176.517 7        46.304               
G13  27950207.682 6 146879347.625 6     -2851.045 6        41.372               
G15  24886350.517 7 130778579.440 7     -2079.471 7        46.609               
G18  25781077.388 7 135480490.852 7     -2617.167 7        43.359               
G23  23584446.097 7 123937122.711 7      1012.831 7        42.370               
G24  23426430.059 7 123106718.069 7      -863.284 7        45.574               
G25  28170708.780 7 148038094.250 7      3623.478 7        42.527               
> 2025 08 06 07 08 22.0000000  0 10                                             
G32  28025451.618 6 147274809.919 6      2337.883 6        38.829               
G05  28439249.550 6 149449287.462 6     -3532.670 6        41.735               
G10  26559723.942 7 139572306.339 7      3091.713 7        44.624               
G12  27142743.648 7 142636101.711 7      3179.446 7        46.791               
G13  27950752.115 6 146882201.130 6     -2853.856 6        41.258               
G15  24886744.636 7 130780657.956 7     -2080.958 7        46.263               
G18  25781577.453 7 135483108.051 7     -2614.522 7        43.338               
G23  23584252.396 7 123936110.235 7      1015.958 7        42.145               
G24  23426595.079 7 123107579.286 7      -864.385 7        45.343               
G25  28170017.875 6 148034472.224 6      3622.333 6        41.727               
> 2025 08 06 07 08 23.0000000  0 10                                             
G32  28024998.174 6 147272458.275 6      2355.515 6        39.076               
G05  28439922.605 6 149452818.920 6     -3538.663 6        41.353               
G10  26559138.642 7 139569213.936 7      3091.058 7        45.144               
G12  27142139.943 7 142632924.206 7      3179.846 7        46.623               
G13  27951286.024 6 146885054.526 6     -2851.845 6        41.283               
G15  24887139.666 7 130782736.602 7     -2078.949 7        46.696               
G18  25782074.873 7 135485725.559 7     -2617.550 7        43.904               
G23  23584058.464 7 123935098.209 7      1010.399 7        42.529               
G24  23426759.313 7 123108440.993 7      -859.678 7        46.178               
G25  28169327.469 6 148030849.989 6      3621.811 6        41.614               
> 2025 08 06 07 08 24.0000000  0 10                                             
G32  28024563.420 6 147270106.704 6      2351.757 6        38.886               
G05  28440593.015 6 149456350.547 6     -3534.254 6        41.814               
G10  26558547.123 7 139566121.744 7      3090.693 7        44.812               
G12  27141531.967 7 142629746.898 7      3175.018 7        46.589               
G13  27951839.445 6 146887907.949 6     -2851.060 6        41.340               
G15  24887530.605 7 130784815.539 7     -2080.052 7        46.818               
G18  25782574.258 7 135488343.540 7     -2616.647 7        43.678               
G23  23583869.445 7 123934086.747 7      1009.597 7        42.216               
G24  23426921.296 7 123109303.369 7      -866.872 7        45.812               
G25  28168637.010 7 148027227.702 7      3625.554 7        42.023               
> 2025 08 06 07 08 25.0000000  0 10                                             
G32  28024112.924 6 147267755.187 6      2354.025 6        38.895               
G05  28441267.160 7 149459882.273 7     -3538.616 7        42.342               
G10  26557959.697 7 139563029.653 7      3092.621 7        45.367               
G12  27140928.852 7 142626569.682 7      3177.845 7        46.696               
G13  27952372.603 6 146890761.332 6     -2851.525 6        40.843               
G15  24887924.009 7 130786894.676 7     -2081.359 7        45.837               
G18  25783073.537 7 135490961.884 7     -2617.056 7        44.495               
G23  23583675.924 7 123933075.787 7      1008.483 7        42.337               
G24  23427085.441 7 123110166.299 7      -865.811 7        46.095               
G25  28167949.857 7 148023605.266 7      3622.864 7        42.125               
> 2025 08 06 07 08 26.0000000  0 10                                             
G32  28023665.055 6 147265403.722 6      2352.139 6        38.804               
G05  28441937.051 6 149463414.186 6     -3533.790 6        41.672               
G10  26557372.450 7 139559937.755 7      3092.242 7        45.207               
G12  27140325.201 7 142623392.652 7      3176.271 7        46.627               
G13  27952919.735 6 146893614.732 6     -2850.662 6        41.052               
G15  24888317.378 7 130788974.068 7     -2078.632 7        45.709               
G18  25783571.010 7 135493580.686 7     -2619.694 7        44.862               
G23  23583482.134 7 123932065.406 7      1018.290 7        42.423               
G24  23427249.496 7 123111029.880 7      -860.868 7        46.420               
G25  28167260.148 6 148019982.747 6      3618.186 6        41.979               
> 2025 08 06 07 08 27.0000000  0 10                                             
G32  28023221.510 6 147263052.312 6      2351.156 6        38.652               
G05  28442610.946 7 149466946.223 7     -3528.385 7        42.272               
G10  26556784.273 7 139556845.990 7      3092.512 7        44.807               
G12  27139718.154 7 142620215.760 7      3174.256 7        46.409               
G13  27953460.148 6 146896468.092 6     -2850.693 6        41.134               
G15  24888714.642 7 130791053.689 7     -2078.484 7        46.364               
G18  25784069.860 7 135496199.886 7     -2619.556 7        44.435               
G23  23583285.897 7 123931055.542 7      1008.647 7        42.934               
G24  23427416.625 7 123111894.074 7      -863.787 7        47.163               
G25  28166569.350 7 148016360.081 7      3621.969 7        42.102               
> 2025 08 06 07 08 28.0000000  0 10                                             
G32  28022769.835 6 147260700.936 6      2366.009 6        38.892               
G05  28443281.695 7 149470478.411 7     -3529.171 7        42.247               
G10  26556195.489 7 139553754.400 7      3089.521 7        44.270               
G12  27139115.897 7 142617039.027 7      3179.580 7        46.358               
G13  27954008.959 6 146899321.471 6     -2853.962 6        41.621               
G15  24889108.154 7 130793133.567 7     -2080.288 7        46.096               
G18  25784564.635 7 135498819.537 7     -2617.379 7        44.368               
G23  23583093.340 7 123930046.220 7      1009.341 7        42.515               
G24  23427582.307 7 123112758.883 7      -865.554 7        46.163               
G25  28165882.304 7 148012737.356 7      3620.306 7        42.317               
> 2025 08 06 07 08 29.0000000  0 10                                             
G32  28022332.133 6 147258349.634 6      2351.581 6        38.245               
G05  28443955.232 7 149474010.693 7     -3531.759 7        42.486               
G10  26555606.257 7 139550662.914 7      3089.006 7        44.472               
G12  27138511.924 7 142613862.395 7      3177.038 7        46.203               
G13  27954551.641 6 146902174.759 6     -2852.909 6        41.646               
G15  24889503.774 7 130795213.613 7     -2080.031 7        45.464               
G18  25785064.557 7 135501439.529 7     -2623.716 7        43.608               
G23  23582900.641 7 123929037.375 7      1008.837 7        42.163               
G24  23427748.828 7 123113624.245 7      -867.608 7        46.102               
G25  28165191.058 7 148009114.451 7      3620.456 7        42.193               
> 2025 08 06 07 08 30.0000000  0 10                                             
G32  28021878.600 6 147255998.287 6      2344.765 6        38.980               
G05  28444631.646 7 149477543.078 7     -3528.779 7        42.906               
G10  26555017.455 7 139547571.543 7      3089.155 7        44.396               
G12  27137906.092 7 142610685.860 7      3178.211 7        46.336               
G13  27955093.466 6 146905028.016 6     -2854.069 6        41.800               
G15  24889900.431 7 130797293.868 7     -2080.737 7        45.606               
G18  25785560.958 7 135504059.937 7     -2626.777 7        43.685               
G23  23582709.353 6 123928029.044 6      1010.486 6        41.846               
G24  23427914.956 7 123114490.186 7      -864.429 7        46.510               
G25  28164502.708 7 148005491.399 7      3622.681 7        42.010               
> 2025 08 06 07 08 31.0000000  0 10                                             
G32  28021439.736 6 147253647.059 6      2348.443 6        38.703               
G05  28445297.375 7 149481075.634 7     -3526.063 7        42.301               
G10  26554430.762 7 139544480.371 7      3092.356 7        44.710               
G12  27137299.242 7 142607509.525 7      3176.951 7        45.717               
G13  27955637.810 6 146907881.299 6     -2853.091 6        41.769               
G15  24890295.568 7 130799374.414 7     -2082.331 7        45.585               
G18  25786062.453 7 135506680.798 7     -2622.302 7        43.922               
G23  23582520.048 6 123927021.294 6      1006.081 6        41.632               
G24  23428078.422 7 123115356.798 7      -869.251 7        46.520               
G25  28163815.483 6 148001868.284 6      3625.003 6        41.944               
> 2025 08 06 07 08 32.0000000  0 10                                             
G32  28020987.507 6 147251295.824 6      2347.621 6        38.327               
G05  28445970.286 7 149484608.329 7     -3532.518 7        42.116               
G10  26553842.889 7 139541389.298 7      3092.152 7        44.630               
G12  27136696.038 7 142604333.308 7      3176.959 7        45.633               
G13  27956185.227 6 146910734.543 6     -2852.873 6        41.913               
G15  24890691.850 7 130801455.133 7     -2079.574 7        45.715               
G18  25786560.105 7 135509302.013 7     -2621.269 7        44.503               
G23  23582329.654 7 123926014.030 7      1006.437 7        42.395               
G24  23428246.087 7 123116223.950 7      -866.675 7        46.334               
G25  28163124.542 7 147998245.017 7      3619.851 7        42.204               
> 2025 08 06 07 08 33.0000000  0 10                                             
G32  28020542.086 6 147248944.707 6      2355.094 6        38.630               
G05  28446646.271 7 149488141.196 7     -3532.659 7        42.467               
G10  26553253.676 7 139538298.449 7      3090.036 7        44.992               
G12  27136092.297 7 142601157.281 7      3176.491 7        45.973               
G13  27956732.073 6 146913587.814 6     -2856.124 6        41.440               
G15  24891088.131 7 130803536.136 7     -2079.649 7        45.799               
G18  25787062.224 7 135511923.694 7     -2621.671 7        44.595               
G23  23582138.509 7 123925007.337 7      1013.397 7        42.099               
G24  23428409.071 7 123117091.780 7      -871.253 7        45.764               
G25  28162436.602 7 147994621.672 7      3624.774 7        42.207               
> 2025 08 06 07 08 34.0000000  0 10                                             
G32  28020086.194 6 147246593.618 6      2356.721 6        38.481               
G05  28447318.558 7 149491674.180 7     -3531.283 7        42.601               
G10  26552670.020 7 139535207.702 7      3089.935 7        44.532               
G12  27135486.144 7 142597981.370 7      3175.851 7        45.678               
G13  27957277.757 6 146916441.038 6     -2858.121 6        41.601               
G15  24891485.592 7 130805617.361 7     -2081.026 7        45.815               
G18  25787564.380 7 135514545.754 7     -2625.411 7        44.070               
G23  23581945.238 7 123924001.173 7      1010.031 7        42.600               
G24  23428572.572 7 123117960.182 7      -871.206 7        45.745               
G25  28161744.320 7 147990998.207 7      3621.644 7        42.122               
> 2025 08 06 07 08 35.0000000  0 10                                             
G32  28019638.038 6 147244242.592 6      2346.904 6        38.380               
G05  28447992.899 7 149495207.307 7     -3531.057 7        42.295               
G10  26552079.466 7 139532117.128 7      3089.196 7        44.615               
G12  27134882.564 7 142594805.613 7      3177.706 7        45.934               
G13  27957816.705 6 146919294.254 6     -2853.324 6        41.919               
G15  24891881.801 7 130807698.812 7     -2081.696 7        45.685               
G18  25788063.319 7 135517168.251 7     -2622.084 7        44.551               
G23  23581756.809 7 123922995.544 7      1002.546 7        42.521               
G24  23428737.092 7 123118829.202 7      -871.686 7        46.395               
G25  28161053.039 7 147987374.632 7      3628.547 7        42.533               
> 2025 08 06 07 08 36.0000000  0 10                                             
G32  28019185.130 6 147241891.583 6      2360.875 6        38.032               
G05  28448668.580 6 149498740.542 6     -3531.645 6        41.855               
G10  26551492.505 7 139529026.670 7      3088.691 7        44.598               
G12  27134277.734 7 142591629.965 7      3176.023 7        45.753               
G13  27958357.332 6 146922147.411 6     -2849.424 6        41.171               
G15  24892274.884 7 130809780.472 7     -2084.712 7        45.484               
G18  25788561.292 7 135519791.114 7     -2625.093 7        44.888               
G23  23581568.255 7 123921990.394 7      1001.074 7        42.838               
G24  23428902.274 7 123119698.781 7      -870.298 7        46.069               
G25  28160365.582 7 147983750.908 7      3624.558 7        42.835               
> 2025 08 06 07 08 37.0000000  0 10                                             
G32  28018738.583 6 147239540.608 6      2346.102 6        37.877               
G05  28449336.060 6 149502273.901 6     -3530.855 6        41.917               
G10  26550905.078 7 139525936.345 7      3090.681 7        44.868               
G12  27133672.546 7 142588454.452 7      3177.825 7        45.651               
G13  27958899.603 6 146925000.532 6     -2852.397 6        41.628               
G15  24892677.420 7 130811862.343 7     -2080.765 7        45.970               
G18  25789063.591 7 135522414.381 7     -2626.937 7        44.475               
G23  23581383.185 7 123920985.755 7      1008.148 7        42.549               
G24  23429068.330 7 123120568.969 7      -868.387 7        45.379               
G25  28159674.641 7 147980127.051 7      3625.915 7        43.353               
> 2025 08 06 07 08 38.0000000  0 10                                             
G32  28018290.571 6 147237189.695 6      2342.931 6        37.379               
G05  28450010.365 6 149505807.429 6     -3534.035 6        41.976               
G10  26550314.561 7 139522846.216 7      3090.130 7        45.399               
G12  27133067.661 7 142585279.115 7      3175.201 7        45.224               
G13  27959440.856 7 146927853.688 7     -2857.262 7        42.032               
G15  24893072.575 7 130813944.495 7     -2082.192 7        46.829               
G18  25789566.890 7 135525038.098 7     -2625.740 7        44.751               
G23  23581189.128 7 123919981.723 7      1003.079 7        42.541               
G24  23429234.709 7 123121439.798 7      -867.584 7        46.076               
G25  28158982.073 7 147976503.135 7      3625.240 7        43.651               
> 2025 08 06 07 08 39.0000000  0 10                                             
G32  28017843.971 6 147234838.802 6      2341.658 6        37.691               
G05  28450679.739 7 149509340.986 7     -3533.526 7        42.069               
G10  26549726.134 7 139519756.153 7      3086.081 7        45.268               
G12  27132464.492 7 142582103.832 7      3173.062 7        45.227               
G13  27959984.199 6 146930706.718 6     -2850.888 6        41.662               
G15  24893472.252 7 130816026.775 7     -2085.980 7        46.784               
G18  25790063.148 7 135527662.142 7     -2626.360 7        44.941               
G23  23580999.591 7 123918978.104 7      1006.431 7        42.708               
G24  23429399.015 7 123122311.158 7      -873.805 7        45.857               
G25  28158300.620 7 147972879.015 7      3625.034 7        43.061               
> 2025 08 06 07 08 40.0000000  0 10                                             
G32  28017403.070 6 147232487.911 6      2358.900 6        37.661               
G05  28451348.451 6 149512874.729 6     -3530.076 6        41.279               
G10  26549138.618 7 139516666.281 7      3089.999 7        45.083               
G12  27131863.289 7 142578928.745 7      3176.443 7        45.078               
G13  27960523.933 6 146933559.801 6     -2850.898 6        41.632               
G15  24893863.923 7 130818109.332 7     -2082.953 7        46.462               
G18  25790556.744 7 135530286.641 7     -2622.216 7        44.351               
G23  23580801.424 7 123917975.067 7      1005.012 7        43.428               
G24  23429565.911 7 123123183.150 7      -867.151 7        46.035               
G25  28157609.000 7 147969254.835 7      3628.859 7        43.028               
> 2025 08 06 07 08 41.0000000  0 10                                             
G32  28016957.685 6 147230137.179 6      2357.474 6        36.411               
G05  28452023.061 6 149516408.626 6     -3523.833 6        41.317               
G10  26548554.301 7 139513576.566 7      3084.229 7        44.956               
G12  27131256.511 7 142575753.802 7      3175.805 7        45.444               
G13  27961069.903 6 146936412.865 6     -2851.715 6        41.667               
G15  24894260.937 7 130820192.126 7     -2082.867 7        45.838               
G18  25791057.238 7 135532911.567 7     -2629.025 7        44.358               
G23  23580609.778 7 123916972.584 7       998.627 7        43.214               
G24  23429729.306 7 123124055.775 7      -872.711 7        45.817               
G25  28156918.987 7 147965630.536 7      3627.231 7        42.621               
> 2025 08 06 07 08 42.0000000  0 10                                             
G32  28016511.460 6 147227786.435 6      2353.288 6        36.748               
G05  28452693.453 6 149519942.667 6     -3534.362 6        41.823               
G10  26547964.641 7 139510487.018 7      3090.942 7        44.908               
G12  27130654.217 7 142572579.015 7      3176.172 7        46.170               
G13  27961606.635 6 146939265.936 6     -2851.299 6        41.399               
G15  24894654.073 7 130822275.169 7     -2086.518 7        45.802               
G18  25791552.120 7 135535536.900 7     -2623.385 7        44.527               
G23  23580422.761 7 123915970.645 7       999.590 7        42.747               
G24  23429900.151 7 123124928.999 7      -871.531 7        46.273               
G25  28156226.884 7 147962006.145 7      3624.289 7        42.825               
> 2025 08 06 07 08 43.0000000  0 10                                             
G32  28016064.127 6 147225435.774 6      2351.139 6        37.359               
G05  28453371.600 6 149523476.849 6     -3533.968 6        41.941               
G10  26547376.322 7 139507397.618 7      3089.831 7        45.174               
G12  27130049.887 7 142569404.382 7      3173.379 7        46.203               
G13  27962155.250 6 146942118.981 6     -2858.343 6        41.999               
G15  24895054.786 7 130824358.451 7     -2079.773 7        46.508               
G18  25792052.774 7 135538162.655 7     -2625.298 7        44.071               
G23  23580231.062 7 123914969.210 7       997.915 7        43.261               
G24  23430062.956 7 123125802.848 7      -869.436 7        46.314               
G25  28155539.070 7 147958381.641 7      3623.868 7        43.055               
> 2025 08 06 07 08 44.0000000  0 10                                             
G32  28015604.911 6 147223085.117 6      2350.226 6        36.498               
G05  28454041.206 6 149527011.128 6     -3531.644 6        41.736               
G10  26546787.073 7 139504308.355 7      3091.010 7        44.418               
G12  27129446.754 7 142566229.877 7      3175.404 7        46.274               
G13  27962694.537 6 146944972.013 6     -2856.892 6        41.416               
G15  24895449.084 7 130826441.942 7     -2083.390 7        46.133               
G18  25792552.017 7 135540788.833 7     -2633.385 7        44.019               
G23  23580037.970 7 123913968.325 7       998.244 7        43.344               
G24  23430228.441 7 123126677.290 7      -873.743 7        45.982               
G25  28154849.040 7 147954757.010 7      3625.883 7        43.265               
> 2025 08 06 07 08 45.0000000  0 10                                             
G32  28015154.147 6 147220734.475 6      2352.579 6        36.288               
G05  28454716.709 6 149530545.532 6     -3534.228 6        41.830               
G10  26546202.130 7 139501219.208 7      3089.821 7        45.235               
G12  27128842.745 7 142563055.489 7      3176.703 7        46.133               
G13  27963239.810 6 146947824.994 6     -2852.976 6        40.815               
G15  24895845.097 7 130828525.636 7     -2083.965 7        45.770               
G18  25793054.190 7 135543415.368 7     -2619.615 7        43.982               
G23  23579851.417 7 123912967.927 7      1001.747 7        42.528               
G24  23430395.105 7 123127552.311 7      -876.306 7        46.241               
G25  28154160.814 7 147951132.245 7      3626.611 7        43.114               
> 2025 08 06 07 08 46.0000000  0 10                                             
G32  28014721.395 6 147218383.921 6      2355.593 6        36.619               
G05  28455391.872 7 149534080.040 7     -3533.618 7        42.215               
G10  26545611.219 7 139498130.200 7      3088.866 7        45.008               
G12  27128238.629 7 142559881.225 7      3175.892 7        46.811               
G13  27963783.475 6 146950677.917 6     -2850.028 6        41.170               
G15  24896242.361 7 130830609.560 7     -2081.718 7        45.923               
G18  25793553.612 7 135546042.295 7     -2626.658 7        43.774               
G23  23579664.775 7 123911968.056 7       997.639 7        42.391               
G24  23430562.842 7 123128427.892 7      -875.492 7        45.687               
G25  28153475.144 7 147947507.346 7      3620.471 7        43.188               
> 2025 08 06 07 08 47.0000000  0 10                                             
G32  28014271.042 6 147216033.369 6      2353.241 6        37.305               
G05  28456060.566 7 149537614.665 7     -3532.915 7        42.324               
G10  26545025.044 7 139495041.323 7      3090.182 7        45.157               
G12  27127635.407 7 142556707.088 7      3174.869 7        47.017               
G13  27964322.888 6 146953530.839 6     -2847.617 6        40.983               
G15  24896639.393 7 130832693.680 7     -2080.730 7        46.227               
G18  25794054.051 7 135548669.620 7     -2626.638 7        44.334               
G23  23579470.306 7 123910968.679 7      1001.805 7        42.444               
G24  23430730.614 7 123129304.083 7      -875.158 7        45.956               
G25  28152778.699 7 147943882.305 7      3626.457 7        42.714               
> 2025 08 06 07 08 48.0000000  0 10                                             
G32  28013821.868 6 147213682.892 6      2356.968 6        36.774               
G05  28456737.963 6 149541149.453 6     -3537.762 6        41.880               
G10  26544438.154 7 139491952.641 7      3091.077 7        45.125               
G12  27127032.792 7 142553533.136 7      3174.441 7        47.139               
G13  27964866.660 6 146956383.760 6     -2853.430 6        40.771               
G15  24897035.710 7 130834778.076 7     -2082.495 7        46.193               
G18  25794555.742 7 135551297.373 7     -2625.709 7        44.522               
G23  23579283.343 7 123909969.859 7       994.953 7        43.155               
G24  23430892.329 7 123130180.911 7      -878.177 7        46.184               
G25  28152093.172 7 147940257.196 7      3623.623 7        42.492               
> 2025 08 06 07 08 49.0000000  0 10                                             
G32  28013372.123 6 147211332.436 6      2344.612 6        36.928               
G05  28457405.049 6 149544684.352 6     -3534.304 6        41.565               
G10  26543850.370 7 139488864.061 7      3089.614 7        45.553               
G12  27126427.854 7 142550359.270 7      3175.709 7        47.356               
G13  27965408.377 6 146959236.599 6     -2852.296 6        40.975               
G15  24897435.655 7 130836862.650 7     -2086.089 7        45.998               
G18  25795058.666 7 135553925.498 7     -2628.752 7        44.443               
G23  23579096.754 7 123908971.570 7      1004.546 7        44.188               
G24  23431059.118 7 123131058.296 7      -875.877 7        45.746               
G25  28151402.802 7 147936631.932 7      3625.732 7        42.963               
> 2025 08 06 07 08 50.0000000  0 10                                             
G32  28012925.308 6 147208982.038 6      2342.488 6        37.590               
G05  28458079.534 6 149548219.370 6     -3534.826 6        41.860               
G10  26543259.781 7 139485775.640 7      3088.010 7        44.801               
G12  27125825.007 7 142547185.576 7      3175.510 7        47.658               
G13  27965954.276 6 146962089.443 6     -2847.743 6        41.113               
G15  24897829.917 7 130838947.449 7     -2086.869 7        45.573               
G18  25795553.638 7 135556554.057 7     -2630.628 7        44.252               
G23  23578899.284 7 123907973.799 7       993.894 7        43.003               
G24  23431231.072 7 123131936.295 7      -878.513 7        46.298               
G25  28150711.628 7 147933006.560 7      3625.567 7        43.129               
> 2025 08 06 07 08 51.0000000  0 10                                             
G32  28012470.916 6 147206631.621 6      2357.792 6        37.408               
G05  28458751.998 6 149551754.487 6     -3523.299 6        41.377               
G10  26542674.714 7 139482687.335 7      3089.242 7        45.138               
G12  27125221.123 7 142544011.982 7      3175.264 7        47.807               
G13  27966497.994 6 146964942.240 6     -2861.443 6        41.026               
G15  24898226.234 7 130841032.462 7     -2085.836 7        45.716               
G18  25796056.365 7 135559182.969 7     -2631.590 7        43.974               
G23  23578711.123 7 123906976.517 7       998.071 7        43.175               
G24  23431396.861 7 123132814.863 7      -876.604 7        46.201               
G25  28150023.457 7 147929381.048 7      3621.589 7        42.940               
> 2025 08 06 07 08 52.0000000  0 10                                             
G32  28012028.318 6 147204281.298 6      2355.169 6        37.016               
G05  28459428.770 6 149555289.789 6     -3535.364 6        41.570               
G10  26542085.768 7 139479599.221 7      3089.106 7        44.785               
G12  27124618.312 8 142540838.584 8      3172.900 8        48.062               
G13  27967040.176 6 146967795.053 6     -2856.205 6        41.586               
G15  24898623.337 7 130843117.735 7     -2083.166 7        46.295               
G18  25796555.893 7 135561812.341 7     -2629.269 7        44.071               
G23  23578522.891 7 123905979.823 7       995.055 7        43.179               
G24  23431565.312 7 123133694.082 7      -880.316 7        46.362               
G25  28149331.800 7 147925755.450 7      3625.312 7        42.815               
> 2025 08 06 07 08 53.0000000  0 10                                             
G32  28011586.078 6 147201931.013 6      2355.204 6        36.548               
G05  28460098.036 6 149558825.197 6     -3538.935 6        41.435               
G10  26541501.112 7 139476511.245 7      3087.134 7        45.339               
G12  27124013.677 7 142537665.287 7      3173.343 7        47.813               
G13  27967585.449 6 146970647.813 6     -2850.761 6        40.625               
G15  24899022.549 7 130845203.211 7     -2087.788 7        46.192               
G18  25797054.153 7 135564442.099 7     -2629.472 7        43.618               
G23  23578333.997 7 123904983.616 7       997.333 7        43.527               
G24  23431733.531 7 123134573.874 7      -879.663 7        46.525               
G25  28148643.289 7 147922129.718 7      3621.554 7        42.982               
> 2025 08 06 07 08 54.0000000  0 10                                             
G32  28011131.276 6 147199580.779 6      2337.530 6        37.296               
G05  28460766.141 6 149562360.722 6     -3535.941 6        41.207               
G10  26540915.151 7 139473423.387 7      3086.026 7        45.454               
G12  27123409.204 8 142534492.138 8      3172.137 8        48.300               
G13  27968126.059 6 146973500.553 6     -2849.527 6        41.043               
G15  24899416.543 7 130847288.937 7     -2083.623 7        45.938               
G18  25797551.430 7 135567072.247 7     -2627.798 7        43.892               
G23  23578146.105 7 123903987.943 7       997.417 7        43.824               
G24  23431907.021 7 123135454.260 7      -876.820 7        46.985               
G25  28147949.899 7 147918503.859 7      3627.742 7        43.060               
> 2025 08 06 07 08 55.0000000  0 10                                             
G32  28010683.925 6 147197230.588 6      2345.728 6        37.602               
G05  28461443.109 6 149565896.405 6     -3537.780 6        41.272               
G10  26540328.404 7 139470335.710 7      3086.085 7        45.402               
G12  27122806.232 8 142531319.140 8      3173.985 8        48.197               
G13  27968670.528 6 146976353.260 6     -2848.656 6        40.892               
G15  24899811.949 7 130849374.875 7     -2084.310 7        45.868               
G18  25798052.960 7 135569702.822 7     -2631.238 7        44.373               
G23  23577956.050 7 123902992.798 7       993.921 7        43.581               
G24  23432072.292 7 123136335.259 7      -881.012 7        46.262               
G25  28147258.189 7 147914877.916 7      3619.820 7        43.515               
> 2025 08 06 07 08 56.0000000  0 10                                             
G32  28010244.740 6 147194880.412 6      2349.190 6        37.402               
G05  28462116.432 6 149569432.179 6     -3537.501 6        41.586               
G10  26539744.069 7 139467248.139 7      3093.335 7        45.705               
G12  27122201.097 8 142528146.258 8      3169.878 8        48.286               
G13  27969216.069 6 146979205.933 6     -2853.240 6        40.654               
G15  24900207.980 7 130851461.025 7     -2086.492 7        46.808               
G18  25798554.401 7 135572333.773 7     -2628.035 7        44.028               
G23  23577765.334 7 123901998.150 7      1005.454 7        43.179               
G24  23432235.490 7 123137216.834 7      -882.442 7        46.170               
G25  28146572.287 7 147911251.826 7      3624.795 7        43.875               
> 2025 08 06 07 08 57.0000000  0 10                                             
G32  28009798.121 6 147192530.249 6      2352.808 6        37.245               
G05  28462793.775 6 149572968.055 6     -3540.129 6        41.626               
G10  26539158.036 7 139464160.694 7      3083.826 7        45.876               
G12  27121598.054 8 142524973.483 8      3171.517 8        48.875               
G13  27969758.287 6 146982058.556 6     -2848.250 6        40.839               
G15  24900608.996 7 130853547.363 7     -2087.251 7        46.570               
G18  25799059.576 7 135574965.101 7     -2631.243 7        43.887               
G23  23577568.042 7 123901004.044 7       993.469 7        43.181               
G24  23432398.044 7 123138098.975 7      -884.996 7        46.378               
G25  28145882.686 7 147907625.572 7      3625.040 7        44.231               
> 2025 08 06 07 08 58.0000000  0 10                                             
G32  28009343.819 6 147190180.141 6      2348.396 6        37.709               
G05  28463460.629 6 149576504.078 6     -3540.184 6        41.706               
G10  26538571.718 7 139461073.407 7      3086.309 7        45.899               
G12  27120994.903 8 142521800.874 8      3172.557 8        48.435               
G13  27970302.774 6 146984911.170 6     -2850.660 6        40.875               
G15  24901004.777 7 130855633.937 7     -2084.202 7        46.517               
G18  25799554.280 7 135577596.866 7     -2628.427 7        43.994               
G23  23577383.419 7 123900010.454 7       998.400 7        42.896               
G24  23432565.745 7 123138981.743 7      -878.173 7        45.584               
G25  28145190.583 7 147903999.256 7      3624.955 7        44.138               
> 2025 08 06 07 08 59.0000000  0 10                                             
G32  28008900.310 6 147187830.078 6      2354.401 6        37.443               
G05  28464135.721 7 149580040.210 7     -3535.088 7        42.054               
G10  26537980.861 7 139457986.241 7      3085.841 7        45.856               
G12  27120392.091 7 142518628.386 7      3171.754 7        47.357               
G13  27970842.365 6 146987763.765 6     -2851.144 6        40.718               
G15  24901402.953 7 130857720.722 7     -2086.884 7        46.483               
G18  25800060.348 7 135580228.995 7     -2633.438 7        44.055               
G23  23577189.415 7 123899017.387 7       993.690 7        42.372               
G24  23432737.734 7 123139865.102 7      -882.309 7        46.494               
G25  28144498.909 7 147900372.789 7      3625.585 7        44.104               
> 2025 08 06 07 09 00.0000000  0 10                                             
G32  28008451.905 6 147185480.028 6      2360.158 6        37.460               
G05  28464803.736 6 149583576.470 6     -3534.599 6        41.217               
G10  26537395.114 7 139454899.222 7      3087.850 7        45.300               
G12  27119784.669 7 142515456.031 7      3172.122 7        47.409               
G13  27971384.511 6 146990616.298 6     -2855.542 6        40.236               
G15  24901797.483 7 130859807.731 7     -2085.814 7        46.406               
G18  25800559.627 7 135582861.534 7     -2630.582 7        43.488               
G23  23577003.255 7 123898024.831 7       991.534 7        42.089               
G24  23432902.111 7 123140749.030 7      -883.490 7        46.097               
G25  28143807.860 7 147896746.194 7      3625.882 7        44.315               
> 2025 08 06 07 09 01.0000000  0 10                                             
G32  28008000.176 6 147183130.053 6      2343.287 6        37.468               
G05  28465477.702 6 149587112.851 6     -3538.973 6        41.458               
G10  26536805.008 7 139451812.350 7      3088.436 7        46.019               
G12  27119182.376 7 142512283.821 7      3172.339 7        47.382               
G13  27971929.534 6 146993468.809 6     -2853.208 6        40.229               
G15  24902192.567 7 130861894.972 7     -2084.817 7        45.670               
G18  25801060.013 7 135585494.463 7     -2630.425 7        43.796               
G23  23576814.076 7 123897032.797 7       993.728 7        42.536               
G24  23433073.064 7 123141633.560 7      -882.456 7        45.256               
G25  28143121.028 7 147893119.478 7      3631.706 7        44.021               
> 2025 08 06 07 09 02.0000000  0 10                                             
G32  28007560.830 6 147180780.019 6      2354.261 6        37.698               
G05  28466149.917 6 149590649.297 6     -3535.685 6        40.648               
G10  26536218.671 7 139448725.550 7      3085.452 7        45.705               
G12  27118575.312 7 142509111.669 7      3174.091 7        47.015               
G13  27972467.445 6 146996321.253 6     -2852.701 6        40.058               
G15  24902588.813 7 130863982.350 7     -2089.577 7        45.904               
G18  25801557.737 7 135588127.729 7     -2634.575 7        43.990               
G23  23576627.774 7 123896041.205 7       996.096 7        43.041               
G24  23433243.070 7 123142518.633 7      -884.774 7        45.819               
G25  28142431.338 7 147889492.569 7      3622.865 7        43.382               
> 2025 08 06 07 09 03.0000000  0 10                                             
G32  28007112.657 6 147178430.036 6      2363.813 6        37.257               
G05  28466822.007 6 149594185.867 6     -3542.891 6        40.801               
G10  26535633.836 7 139445638.892 7      3083.688 7        45.690               
G12  27117971.375 7 142505939.682 7      3173.320 7        47.667               
G13  27973014.756 6 146999173.639 6     -2853.542 6        39.768               
G15  24902982.664 7 130866069.966 7     -2086.317 7        45.547               
G18  25802061.804 7 135590761.407 7     -2632.688 7        44.037               
G23  23576441.275 7 123895050.183 7       994.097 7        42.865               
G24  23433415.060 7 123143404.303 7      -887.593 7        46.373               
G25  28141741.504 7 147885865.561 7      3625.867 7        43.873               
> 2025 08 06 07 09 04.0000000  0 10                                             
G32  28006655.139 6 147176080.153 6      2344.190 6        36.187               
G05  28467494.007 6 149597722.576 6     -3536.991 6        40.531               
G10  26535047.518 7 139442552.405 7      3086.248 7        45.714               
G12  27117370.725 7 142502767.841 7      3170.405 7        47.051               
G13  27973551.577 6 147002026.015 6     -2854.425 6        39.699               
G15  24903380.732 7 130868157.830 7     -2086.340 7        45.714               
G18  25802561.529 7 135593395.500 7     -2636.009 7        43.661               
G23  23576249.344 7 123894059.655 7       990.025 7        42.516               
G24  23433584.583 7 123144290.579 7      -886.719 7        46.054               
G25  28141051.474 7 147882238.446 7      3630.222 7        44.169               
> 2025 08 06 07 09 05.0000000  0 10                                             
G32  28006204.857 5 147173730.335 5      2338.311 5        35.823               
G05  28468168.741 6 149601259.468 6     -3540.861 6        39.987               
G10  26534460.056 7 139439466.129 7      3084.873 7        45.565               
G12  27116767.646 7 142499596.207 7      3174.546 7        47.309               
G13  27974096.814 6 147004878.452 6     -2859.464 6        39.655               
G15  24903779.998 7 130870245.970 7     -2086.376 7        45.977               
G18  25803059.163 7 135596030.051 7     -2634.380 7        44.248               
G23  23576068.795 7 123893069.730 7       987.679 7        42.650               
G24  23433755.482 7 123145177.519 7      -886.723 7        46.242               
G25  28140357.995 7 147878611.267 7      3625.640 7        43.589               
> 2025 08 06 07 09 06.0000000  0 10                                             
G32  28005771.587 5 147171380.479 5      2359.849 5        35.218               
G05  28468844.244 6 149604796.483 6     -3537.664 6        40.058               
G10  26533874.702 7 139436379.959 7      3087.395 7        45.608               
G12  27116162.922 7 142496424.693 7      3171.418 7        46.887               
G13  27974636.959 6 147007730.820 6     -2857.228 6        39.510               
G15  24904179.817 7 130872334.323 7     -2090.630 7        46.268               
G18  25803559.192 7 135598664.966 7     -2632.609 7        43.681               
G23  23575875.363 7 123892080.321 7       990.617 7        42.480               
G24  23433925.435 7 123146065.045 7      -888.732 7        46.351               
G25  28139671.771 7 147874983.941 7      3628.797 7        43.532               
> 2025 08 06 07 09 07.0000000  0 10                                             
G32  28005307.797 6 147169030.718 6      2360.912 6        36.142               
G05  28469515.226 6 149608333.594 6     -3534.693 6        40.394               
G10  26533282.273 7 139433293.919 7      3084.776 7        45.489               
G12  27115561.826 7 142493253.282 7      3171.281 7        47.363               
G13  27975180.142 6 147010583.145 6     -2854.530 6        39.227               
G15  24904580.333 7 130874422.861 7     -2091.668 7        45.951               
G18  25804065.368 7 135601300.270 7     -2632.290 7        44.056               
G23  23575686.755 7 123891091.407 7       992.398 7        42.336               
G24  23434093.296 7 123146953.132 7      -892.245 7        46.365               
G25  28138977.291 7 147871356.480 7      3631.962 7        44.175               
> 2025 08 06 07 09 08.0000000  0 10                                             
G32  28004860.196 6 147166680.982 6      2349.684 6        36.146               
G05  28470189.906 6 149611870.840 6     -3539.218 6        40.669               
G10  26532694.918 7 139430208.034 7      3089.750 7        45.232               
G12  27114957.657 7 142490082.016 7      3171.796 7        47.414               
G13  27975722.913 6 147013435.441 6     -2859.000 6        39.186               
G15  24904976.543 7 130876511.626 7     -2092.143 7        46.721               
G18  25804567.863 7 135603935.979 7     -2633.219 7        43.878               
G23  23575502.365 7 123890103.012 7       993.346 7        42.731               
G24  23434261.926 7 123147841.812 7      -889.226 7        46.861               
G25  28138288.262 7 147867728.923 7      3629.161 7        44.015               
> 2025 08 06 07 09 09.0000000  0 10                                             
G32  28004421.904 6 147164331.210 6      2354.094 6        36.542               
G05  28470866.481 6 149615408.115 6     -3530.066 6        41.073               
G10  26532108.617 7 139427122.205 7      3084.375 7        45.362               
G12  27114353.916 7 142486910.801 7      3169.833 7        47.222               
G13  27976266.096 6 147016287.623 6     -2855.080 6        39.235               
G15  24905374.826 7 130878600.551 7     -2086.280 7        46.659               
G18  25805070.411 7 135606572.017 7     -2634.957 7        44.084               
G23  23575311.702 7 123889115.072 7       989.483 7        42.979               
G24  23434432.468 7 123148731.021 7      -890.059 7        46.353               
G25  28137598.356 7 147864101.164 7      3630.323 7        44.121               
> 2025 08 06 07 09 10.0000000  0 10                                             
G32  28003971.998 5 147161981.456 5      2357.617 5        35.708               
G05  28471537.981 6 149618945.539 6     -3532.177 6        40.740               
G10  26531522.764 7 139424036.533 7      3083.573 7        45.238               
G12  27113749.157 7 142483739.725 7      3172.077 7        46.864               
G13  27976801.470 6 147019139.791 6     -2859.116 6        39.127               
G15  24905772.983 7 130880689.671 7     -2087.088 7        46.438               
G18  25805571.655 7 135609208.437 7     -2641.312 7        43.666               
G23  23575122.112 7 123888127.658 7       988.433 7        42.669               
G24  23434601.420 7 123149620.799 7      -892.883 7        46.397               
G25  28136907.558 7 147860473.257 7      3628.711 7        43.829               
> 2025 08 06 07 09 11.0000000  0 10                                             
G32  28003525.469 5 147159631.804 5      2359.590 5        35.996               
G05  28472206.926 6 149622483.091 6     -3536.220 6        41.201               
G10  26530932.049 7 139420951.008 7      3084.934 7        45.530               
G12  27113147.596 7 142480568.814 7      3171.682 7        47.167               
G13  27977350.585 6 147021991.966 6     -2855.045 6        39.013               
G15  24906169.497 7 130882779.056 7     -2092.009 7        46.338               
G18  25806075.365 7 135611845.269 7     -2636.418 7        43.283               
G23  23574935.452 7 123887140.800 7       987.699 7        42.152               
G24  23434768.084 7 123150511.226 7      -889.883 7        46.656               
G25  28136216.634 7 147856845.296 7      3627.195 7        43.105               
> 2025 08 06 07 09 12.0000000  0 10                                             
G32  28003081.120 5 147157282.084 5      2357.235 5        35.856               
G05  28472882.625 6 149626020.698 6     -3534.168 6        41.545               
G10  26530340.906 7 139417865.558 7      3086.919 7        45.496               
G12  27112542.033 7 142477397.972 7      3171.298 7        47.470               
G13  27977897.019 6 147024844.039 6     -2852.582 6        38.499               
G15  24906567.386 7 130884868.592 7     -2087.189 7        46.351               
G18  25806575.948 7 135614482.439 7     -2637.342 7        42.737               
G23  23574750.275 6 123886154.353 6       990.710 6        41.483               
G24  23434937.232 7 123151402.160 7      -892.213 7        46.597               
G25  28135523.566 7 147853217.130 7      3629.407 7        43.012               
> 2025 08 06 07 09 13.0000000  0 10                                             
G32  28002640.202 6 147154932.467 6      2337.372 6        36.670               
G05  28473558.325 7 149629558.449 7     -3545.008 7        42.222               
G10  26529756.339 7 139414780.300 7      3083.951 7        44.674               
G12  27111941.437 7 142474227.295 7      3169.269 7        47.171               
G13  27978446.367 6 147027696.090 6     -2849.885 6        38.533               
G15  24906961.559 7 130886958.362 7     -2086.480 7        46.297               
G18  25807075.244 7 135617120.048 7     -2641.109 7        43.578               
G23  23574559.845 7 123885168.507 7       987.695 7        42.179               
G24  23435103.593 7 123152293.715 7      -893.364 7        46.247               
G25  28134835.734 7 147849588.878 7      3628.492 7        43.477               
> 2025 08 06 07 09 14.0000000  0 10                                             
G32  28002187.311 6 147152582.858 6      2346.599 6        36.052               
G05  28474230.271 7 149633096.301 7     -3534.374 7        42.259               
G10  26529165.339 7 139411695.138 7      3086.423 7        45.235               
G12  27111337.589 7 142471056.744 7      3168.458 7        46.697               
G13  27978988.155 6 147030548.119 6     -2863.909 6        39.333               
G15  24907358.162 7 130889048.336 7     -2091.583 7        46.889               
G18  25807577.578 7 135619758.009 7     -2635.695 7        43.463               
G23  23574371.738 7 123884183.145 7       984.860 7        42.379               
G24  23435277.494 7 123153185.833 7      -891.047 7        46.259               
G25  28134143.435 7 147845960.477 7      3625.635 7        43.733               
> 2025 08 06 07 09 15.0000000  0 10                                             
G32  28001740.121 6 147150233.275 6      2346.444 6        36.188               
G05  28474904.612 6 149636634.295 6     -3537.975 6        41.965               
G10  26528578.431 7 139408610.136 7      3089.299 7        44.963               
G12  27110731.847 7 142467886.333 7      3170.024 7        46.564               
G13  27979536.913 6 147033400.097 6     -2855.052 6        39.369               
G15  24907757.624 7 130891138.533 7     -2091.526 7        46.374               
G18  25808083.736 7 135622396.379 7     -2637.135 7        43.691               
G23  23574178.413 6 123883198.301 6       990.150 6        41.839               
G24  23435448.876 7 123154078.561 7      -892.293 7        46.176               
G25  28133453.154 7 147842331.952 7      3629.152 7        43.417               
> 2025 08 06 07 09 16.0000000  0 10                                             
G32  28001284.014 6 147147883.778 6      2341.687 6        36.475               
G05  28475577.935 6 149640172.418 6     -3544.316 6        41.803               
G10  26527992.488 7 139405525.310 7      3081.928 7        45.016               
G12  27110129.143 7 142464716.093 7      3171.653 7        47.084               
G13  27980078.702 6 147036252.070 6     -2847.805 6        39.112               
G15  24908153.477 7 130893228.985 7     -2093.012 7        46.152               
G18  25808585.570 7 135625035.206 7     -2636.580 7        44.248               
G23  23573994.791 6 123882214.022 6       985.926 6        40.776               
G24  23435619.293 7 123154971.916 7      -892.290 7        46.707               
G25  28132760.747 7 147838703.349 7      3627.815 7        43.499               
> 2025 08 06 07 09 17.0000000  0 10                                             
G32  28000846.974 6 147145534.267 6      2337.894 6        37.551               
G05  28476250.007 6 149643710.659 6     -3535.098 6        41.424               
G10  26527402.935 7 139402440.614 7      3081.638 7        44.283               
G12  27109526.439 7 142461545.960 7      3171.081 7        46.803               
G13  27980618.936 6 147039104.026 6     -2851.558 6        39.324               
G15  24908551.992 7 130895319.631 7     -2085.952 7        46.488               
G18  25809088.672 7 135627674.376 7     -2636.988 7        44.201               
G23  23573808.364 6 123881230.245 6       980.043 6        41.620               
G24  23435785.546 7 123155865.837 7      -893.240 7        46.447               
G25  28132068.501 7 147835074.602 7      3626.852 7        43.223               
> 2025 08 06 07 09 18.0000000  0 10                                             
G32  28000395.066 5 147143184.861 5      2349.769 5        35.848               
G05  28476926.314 6 149647249.041 6     -3538.216 6        40.968               
G10  26526818.851 7 139399356.098 7      3089.741 7        45.188               
G12  27108922.001 7 142458376.005 7      3168.621 7        46.890               
G13  27981164.281 6 147041955.976 6     -2852.000 6        38.360               
G15  24908953.955 7 130897410.561 7     -2093.144 7        46.474               
G18  25809590.738 7 135630313.978 7     -2638.019 7        44.209               
G23  23573621.686 6 123880247.033 6       984.876 6        41.579               
G24  23435955.999 7 123156760.402 7      -895.599 7        46.049               
G25  28131382.778 7 147831445.777 7      3629.555 7        42.880               
> 2025 08 06 07 09 19.0000000  0 10                                             
G32  27999952.629 5 147140835.494 5      2350.256 5        35.906               
G05  28477598.082 7 149650787.562 7     -3537.967 7        42.022               
G10  26526230.102 7 139396271.706 7      3084.431 7        44.927               
G12  27108319.154 7 142455206.193 7      3171.421 7        46.374               
G13  27981701.870 6 147044807.898 6     -2846.628 6        38.273               
G15  24909351.219 7 130899501.694 7     -2089.553 7        46.198               
G18  25810093.322 7 135632954.005 7     -2641.155 7        44.417               
G23  23573431.434 7 123879264.334 7       981.397 7        42.467               
G24  23436123.950 7 123157655.551 7      -892.753 7        45.783               
G25  28130688.530 7 147827816.832 7      3629.153 7        43.210               
> 2025 08 06 07 09 20.0000000  0 10                                             
G32  27999507.387 5 147138486.137 5      2349.175 5        35.777               
G05  28478268.724 7 149654326.146 7     -3538.431 7        42.313               
G10  26525640.799 7 139393187.431 7      3085.766 7        44.866               
G12  27107716.628 7 142452036.466 7      3169.300 7        46.568               
G13  27982239.746 6 147047659.735 6     -2845.532 6        37.585               
G15  24909750.681 7 130901593.003 7     -2087.812 7        46.329               
G18  25810595.585 7 135635594.347 7     -2634.928 7        44.579               
G23  23573250.546 7 123878282.119 7       985.364 7        42.830               
G24  23436290.972 7 123158551.238 7      -896.732 7        46.071               
G25  28129998.715 7 147824187.713 7      3625.192 7        42.626               
> 2025 08 06 07 09 21.0000000  0 10                                             
G32  27999057.373 6 147136136.797 6      2345.628 6        36.765               
G05  28478943.030 6 149657864.865 6     -3534.962 6        41.539               
G10  26525056.304 7 139390103.290 7      3085.889 7        44.960               
G12  27107113.584 7 142448866.894 7      3172.123 7        45.807               
G13  27982778.300 6 147050511.577 6     -2851.996 6        37.288               
G15  24910148.035 7 130903684.545 7     -2088.840 7        46.659               
G18  25811100.599 7 135638235.112 7     -2642.690 7        44.565               
G23  23573061.027 7 123877300.429 7       984.837 7        43.138               
G24  23436464.248 7 123159447.545 7      -895.541 7        45.968               
G25  28129307.487 7 147820558.468 7      3634.494 7        42.576               
> 2025 08 06 07 09 22.0000000  0 10                                             
G32  27998619.404 6 147133787.505 6      2342.430 6        37.017               
G05  28479614.029 6 149661403.723 6     -3533.708 6        41.402               
G10  26524468.967 7 139387019.303 7      3084.113 7        44.552               
G12  27106511.309 7 142445697.478 7      3169.936 7        46.430               
G13  27983333.348 6 147053363.373 6     -2850.448 6        37.491               
G15  24910541.797 7 130905776.300 7     -2091.065 7        47.152               
G18  25811598.698 7 135640876.272 7     -2641.693 7        43.716               
G23  23572878.120 7 123876319.298 7       980.560 7        42.907               
G24  23436636.576 7 123160344.450 7      -896.129 7        46.030               
G25  28128617.350 7 147816929.153 7      3624.043 7        42.592               
> 2025 08 06 07 09 23.0000000  0 10                                             
G32  27998178.235 6 147131438.272 6      2345.343 6        37.204               
G05  28480284.886 6 149664942.724 6     -3539.432 6        41.008               
G10  26523880.254 7 139383935.495 7      3080.954 7        44.853               
G12  27105908.087 7 142442528.203 7      3171.071 7        46.604               
G13  27983868.811 6 147056215.182 6     -2848.195 6        37.449               
G15  24910942.045 7 130907868.303 7     -2092.922 7        46.813               
G18  25812100.818 7 135643517.859 7     -2643.040 7        43.742               
G23  23572685.903 7 123875338.685 7       980.512 7        42.670               
G24  23436806.100 7 123161241.961 7      -900.925 7        46.133               
G25  28127924.639 7 147813299.715 7      3630.566 7        42.929               
> 2025 08 06 07 09 24.0000000  0 10                                             
G32  27997725.434 6 147129089.044 6      2353.246 6        36.611               
G05  28480958.369 6 149668481.845 6     -3536.631 6        41.012               
G10  26523296.741 7 139380851.797 7      3084.839 7        44.933               
G12  27105304.489 7 142439359.074 7      3166.598 7        46.567               
G13  27984400.808 6 147059066.958 6     -2865.776 6        37.282               
G15  24911339.345 7 130909960.532 7     -2091.833 7        46.458               
G18  25812598.863 7 135646159.839 7     -2642.731 7        43.617               
G23  23572501.959 7 123874358.612 7       974.986 7        42.369               
G24  23436976.767 7 123162140.068 7      -897.638 7        46.075               
G25  28127237.879 7 147809670.149 7      3627.574 7        43.304               
> 2025 08 06 07 09 25.0000000  0 10                                             
G32  27997281.836 6 147126739.848 6      2353.114 6        37.168               
G05  28481633.104 6 149672021.046 6     -3534.568 6        40.724               
G10  26522705.687 7 139377768.221 7      3084.896 7        44.712               
G12  27104704.054 7 142436190.029 7      3167.795 7        47.215               
G13  27984949.333 6 147061918.650 6     -2855.437 6        36.752               
G15  24911737.895 7 130912052.931 7     -2093.167 7        46.644               
G18  25813103.609 7 135648802.167 7     -2642.696 7        43.889               
G23  23572318.569 7 123873378.991 7       976.901 7        42.618               
G24  23437148.685 7 123163038.712 7      -897.379 7        45.651               
G25  28126544.222 7 147806040.436 7      3627.558 7        43.220               
> 2025 08 06 07 09 26.0000000  0 10                                             
G32  27996827.766 6 147124390.661 6      2353.404 6        37.402               
G05  28482307.963 6 149675560.339 6     -3539.028 6        40.554               
G10  26522118.869 7 139374684.770 7      3084.975 7        44.808               
G12  27104101.099 7 142433021.098 7      3169.277 7        46.454               
G13  27985479.060 6 147064770.261 6     -2842.846 6        37.245               
G15  24912137.322 7 130914145.522 7     -2094.228 7        46.455               
G18  25813605.514 7 135651444.851 7     -2641.054 7        43.742               
G23  23572131.320 7 123872399.877 7       979.245 7        42.142               
G24  23437318.905 7 123163937.913 7      -898.238 7        45.591               
G25  28125852.815 7 147802410.574 7      3628.124 7        43.367               
> 2025 08 06 07 09 27.0000000  0 10                                             
G32  27996386.294 6 147122041.516 6      2348.759 6        38.430               
G05  28482988.076 6 149679099.793 6     -3540.817 6        40.228               
G10  26521530.531 7 139371601.473 7      3085.614 7        44.973               
G12  27103497.001 7 142429852.327 7      3170.239 7        47.124               
G13  27986032.535 6 147067621.949 6     -2864.842 6        37.248               
G15  24912535.515 7 130916238.360 7     -2095.184 7        46.011               
G18  25814108.867 7 135654087.979 7     -2642.973 7        43.808               
G23  23571939.228 7 123871421.333 7       978.059 7        42.175               
G24  23437490.734 7 123164837.755 7      -897.472 7        45.310               
G25  28125160.766 7 147798780.631 7      3626.674 7        43.371               
> 2025 08 06 07 09 28.0000000  0 10                                             
G32  27995940.944 6 147119692.447 6      2344.947 6        37.816               
G05  28483660.469 6 149682639.327 6     -3538.506 6        40.480               
G10  26520946.571 7 139368518.319 7      3081.437 7        44.927               
G12  27102894.279 7 142426683.675 7      3168.163 7        47.346               
G13  27986576.379 6 147070473.502 6     -2855.108 6        37.159               
G15  24912933.851 7 130918331.410 7     -2094.633 7        46.227               
G18  25814611.612 7 135656731.475 7     -2644.696 7        43.701               
G23  23571753.783 6 123870443.286 6       977.922 6        41.841               
G24  23437662.955 7 123165738.165 7      -908.014 7        45.646               
G25  28124472.130 7 147795150.520 7      3632.564 7        42.610               
> 2025 08 06 07 09 29.0000000  0 10                                             
G32  27995500.223 6 147117343.353 6      2348.416 6        38.339               
G05  28484329.432 6 149686179.038 6     -3536.131 6        40.735               
G10  26520358.663 7 139365435.327 7      3084.582 7        44.639               
G12  27102289.449 7 142423515.202 7      3168.373 7        46.751               
G13  27987120.437 6 147073325.103 6     -2849.340 6        37.190               
G15  24913333.242 7 130920424.696 7     -2093.552 7        45.889               
G18  25815119.950 7 135659375.400 7     -2646.635 7        44.232               
G23  23571563.889 7 123869465.796 7       975.348 7        42.325               
G24  23437835.749 7 123166639.184 7      -903.237 7        45.316               
G25  28123777.185 7 147791520.337 7      3633.810 7        42.214               
> 2025 08 06 07 09 30.0000000  0 10                                             
G32  27995052.961 6 147114994.363 6      2341.972 6        37.373               
G05  28485000.342 6 149689718.891 6     -3543.137 6        40.106               
G10  26519772.541 7 139362352.480 7      3081.623 7        44.209               
G12  27101686.566 7 142420346.857 7      3169.521 7        46.820               
G13  27987662.154 5 147076176.624 5     -2841.129 5        35.998               
G15  24913732.597 7 130922518.188 7     -2094.686 7        46.284               
G18  25815623.552 7 135662019.711 7     -2644.159 7        44.049               
G23  23571384.788 6 123868488.815 6       976.327 6        41.799               
G24  23438010.025 7 123167540.803 7      -905.361 7        45.836               
G25  28123090.032 6 147787890.027 6      3632.678 6        41.888               
> 2025 08 06 07 09 31.0000000  0 10                                             
G32  27994609.738 6 147112645.379 6      2343.908 6        37.249               
G05  28485676.506 6 149693258.789 6     -3540.972 6        40.484               
G10  26519187.116 7 139359269.746 7      3079.703 7        44.694               
G12  27101084.433 7 142417178.641 7      3165.487 7        47.263               
G13  27988200.780 6 147079028.110 6     -2845.351 6        36.035               
G15  24914128.217 7 130924611.893 7     -2097.365 7        45.977               
G18  25816124.922 7 135664664.375 7     -2644.233 7        43.986               
G23  23571198.057 7 123867512.368 7       973.322 7        42.130               
G24  23438180.246 7 123168442.989 7      -900.780 7        45.502               
G25  28122398.233 7 147784259.582 7      3628.719 7        42.262               
> 2025 08 06 07 09 32.0000000  0 10                                             
G32  27994151.397 6 147110296.434 6      2345.389 6        37.231               
G05  28486354.689 6 149696798.854 6     -3537.556 6        40.500               
G10  26518603.406 7 139356187.179 7      3083.652 7        44.748               
G12  27100482.819 7 142414010.563 7      3169.254 7        47.584               
G13  27988750.878 6 147081879.630 6     -2848.746 6        36.980               
G15  24914523.730 7 130926705.829 7     -2089.891 7        46.143               
G18  25816631.187 7 135667309.472 7     -2646.943 7        44.526               
G23  23571014.613 7 123866536.417 7       970.217 7        42.367               
G24  23438350.412 7 123169345.781 7      -903.558 7        46.447               
G25  28121706.005 6 147780629.045 6      3630.608 6        41.566               
> 2025 08 06 07 09 33.0000000  0 10                                             
G32  27993715.751 6 147107947.517 6      2347.501 6        38.008               
G05  28487023.598 6 149700339.080 6     -3540.170 6        40.904               
G10  26518016.623 7 139353104.788 7      3081.399 7        44.454               
G12  27099880.007 7 142410842.660 7      3166.180 7        47.991               
G13  27989279.551 6 147084731.096 6     -2851.508 6        36.013               
G15  24914917.545 7 130928800.011 7     -2093.945 7        45.950               
G18  25817133.753 7 135669954.976 7     -2645.372 7        44.232               
G23  23570834.154 7 123865561.036 7       972.870 7        42.787               
G24  23438520.257 7 123170249.195 7      -903.582 7        46.150               
G25  28121015.850 7 147776998.370 7      3635.939 7        42.183               
> 2025 08 06 07 09 34.0000000  0 10                                             
G32  27993266.666 6 147105598.683 6      2347.280 6        37.346               
G05  28487694.777 6 149703879.377 6     -3544.498 6        40.319               
G10  26517429.179 7 139350022.508 7      3085.413 7        44.951               
G12  27099278.357 7 142407674.873 7      3166.343 7        47.746               
G13  27989823.967 5 147087582.495 5     -2849.750 5        35.588               
G15  24915320.670 7 130930894.409 7     -2093.576 7        45.724               
G18  25817636.569 7 135672600.857 7     -2645.774 7        44.582               
G23  23570642.598 7 123864586.129 7       969.983 7        42.546               
G24  23438689.531 7 123171153.186 7      -903.326 7        46.075               
G25  28120327.088 7 147773367.599 7      3630.807 7        42.002               
> 2025 08 06 07 09 35.0000000  0 10                                             
G32  27992819.315 6 147103249.828 6      2351.601 6        37.213               
G05  28488372.263 6 149707419.826 6     -3536.242 6        40.402               
G10  26516843.683 7 139346940.403 7      3084.476 7        44.852               
G12  27098674.581 7 142404507.238 7      3167.651 7        47.892               
G13  27990368.025 6 147090433.929 6     -2849.958 6        36.264               
G15  24915720.936 7 130932989.040 7     -2096.660 7        46.030               
G18  25818141.995 7 135675247.153 7     -2645.609 7        44.586               
G23  23570457.707 7 123863611.786 7       978.005 7        42.225               
G24  23438863.057 7 123172057.757 7      -906.024 7        46.165               
G25  28119638.112 6 147769736.708 6      3627.077 6        41.457               
> 2025 08 06 07 09 36.0000000  0 10                                             
G32  27992375.627 6 147100901.118 6      2339.358 6        37.518               
G05  28489047.337 6 149710960.433 6     -3533.421 6        40.970               
G10  26516261.046 7 139343858.464 7      3084.497 7        44.786               
G12  27098071.912 7 142401339.784 7      3168.714 7        47.757               
G13  27990910.457 6 147093285.362 6     -2852.753 6        36.399               
G15  24916121.614 7 130935083.914 7     -2094.840 7        46.226               
G18  25818644.239 7 135677893.861 7     -2645.395 7        44.693               
G23  23570267.438 7 123862637.992 7       973.381 7        42.409               
G24  23439034.760 7 123172962.987 7      -905.292 7        46.073               
G25  28118945.312 7 147766105.739 7      3629.356 7        42.659               
> 2025 08 06 07 09 37.0000000  0 10                                             
G32  27991914.535 6 147098552.403 6      2343.814 6        37.085               
G05  28489720.695 6 149714501.124 6     -3537.925 6        40.758               
G10  26515672.779 7 139340776.644 7      3083.512 7        44.970               
G12  27097468.583 8 142398172.443 8      3167.653 8        48.117               
G13  27991453.568 5 147096136.732 5     -2853.732 5        35.764               
G15  24916525.418 7 130937178.992 7     -2095.693 7        46.471               
G18  25819149.254 7 135680540.949 7     -2649.272 7        44.786               
G23  23570080.957 7 123861664.709 7       971.671 7        42.552               
G24  23439206.017 7 123173868.760 7      -902.816 7        46.231               
G25  28118251.422 7 147762474.633 7      3630.318 7        42.605               
> 2025 08 06 07 09 38.0000000  0 10                                             
G32  27991465.505 6 147096203.757 6      2358.210 6        36.530               
G05  28490388.907 6 149718041.981 6     -3535.308 6        40.622               
G10  26515083.352 7 139337695.006 7      3080.161 7        45.133               
G12  27096865.700 8 142395005.284 8      3169.436 8        48.108               
G13  27991997.930 5 147098988.106 5     -2857.996 5        35.618               
G15  24916923.129 7 130939274.310 7     -2094.693 7        47.263               
G18  25819651.999 7 135683188.471 7     -2648.130 7        43.930               
G23  23569901.194 7 123860692.005 7       970.521 7        42.864               
G24  23439380.401 7 123174775.180 7      -904.403 7        46.577               
G25  28117563.572 7 147758843.425 7      3630.403 7        42.504               
> 2025 08 06 07 09 39.0000000  0 10                                             
G32  27991022.764 6 147093855.140 6      2346.976 6        36.462               
G05  28491063.087 6 149721582.950 6     -3541.952 6        41.148               
G10  26514500.035 7 139334613.510 7      3084.679 7        45.018               
G12  27096262.674 7 142391838.258 7      3167.402 7        47.774               
G13  27992536.770 5 147101839.443 5     -2846.004 5        35.878               
G15  24917322.716 7 130941369.848 7     -2094.896 7        47.325               
G18  25820154.833 7 135685836.369 7     -2647.775 7        43.881               
G23  23569717.465 7 123859719.782 7       975.473 7        43.010               
G24  23439556.285 7 123175682.176 7      -904.760 7        46.766               
G25  28116875.525 7 147755212.111 7      3630.247 7        42.207               
> 2025 08 06 07 09 40.0000000  0 10                                             
G32  27990574.948 6 147091506.589 6      2346.801 6        36.852               
G05  28491738.822 6 149725124.080 6     -3545.059 6        41.167               
G10  26513914.861 7 139331532.193 7      3078.706 7        45.110               
G12  27095658.290 7 142388671.408 7      3166.924 7        47.519               
G13  27993085.278 5 147104690.834 5     -2865.274 5        35.782               
G15  24917718.032 7 130943465.637 7     -2096.233 7        46.710               
G18  25820656.970 7 135688484.708 7     -2646.968 7        43.608               
G23  23569536.702 7 123858748.144 7       973.244 7        43.250               
G24  23439729.025 7 123176589.803 7      -910.280 7        46.024               
G25  28116183.387 7 147751580.707 7      3628.048 7        42.631               
> 2025 08 06 07 09 41.0000000  0 10                                             
G32  27990127.669 6 147089158.094 6      2348.339 6        36.335               
G05  28492412.878 6 149728665.313 6     -3535.598 6        41.467               
G10  26513325.308 7 139328451.012 7      3080.225 7        44.680               
G12  27095057.104 7 142385504.706 7      3165.458 7        47.712               
G13  27993625.405 5 147107542.151 5     -2853.445 5        35.906               
G15  24918115.385 7 130945561.659 7     -2095.905 7        46.508               
G18  25821163.754 7 135691133.446 7     -2649.209 7        43.796               
G23  23569351.990 7 123857777.034 7       972.585 7        43.086               
G24  23439899.442 7 123177498.021 7      -905.782 7        45.988               
G25  28115490.551 6 147747949.186 6      3641.132 6        41.795               
> 2025 08 06 07 09 42.0000000  0 10                                             
G32  27989689.627 6 147086809.649 6      2346.116 6        37.297               
G05  28493091.811 7 149732206.698 7     -3543.102 7        42.210               
G10  26512738.507 7 139325370.010 7      3083.375 7        44.771               
G12  27094452.792 7 142382338.159 7      3166.424 7        47.318               
G13  27994173.287 6 147110393.469 6     -2852.000 6        36.127               
G15  24918511.899 7 130947657.922 7     -2093.230 7        46.305               
G18  25821668.250 7 135693782.587 7     -2649.959 7        44.371               
G23  23569167.099 7 123856806.458 7       971.187 7        43.470               
G24  23440073.308 7 123178406.861 7      -911.500 7        46.287               
G25  28114804.809 6 147744317.592 6      3627.588 6        41.606               
> 2025 08 06 07 09 43.0000000  0 10                                             
G32  27989237.648 6 147084461.230 6      2346.097 6        36.318               
G05  28493764.044 6 149735748.219 6     -3545.225 6        41.686               
G10  26512150.938 7 139322289.156 7      3081.951 7        44.839               
G12  27093855.145 7 142379171.757 7      3167.385 7        47.119               
G13  27994711.037 6 147113244.745 6     -2847.209 6        36.403               
G15  24918908.502 7 130949754.396 7     -2093.997 7        46.705               
G18  25822172.996 7 135696432.127 7     -2646.448 7        44.269               
G23  23568981.333 7 123855836.415 7       965.223 7        43.650               
G24  23440248.156 7 123179316.298 7      -911.603 7        46.024               
G25  28114110.902 6 147740685.856 6      3635.091 6        41.744               
> 2025 08 06 07 09 44.0000000  0 10                                             
G32  27988790.101 6 147082112.862 6      2336.215 6        36.800               
G05  28494438.671 6 149739289.860 6     -3545.172 6        41.938               
G10  26511565.710 7 139319208.450 7      3078.558 7        44.358               
G12  27093249.689 7 142376005.482 7      3166.841 7        47.023               
G13  27995247.876 5 147116096.024 5     -2849.443 5        35.468               
G15  24919311.341 7 130951851.094 7     -2098.881 7        46.716               
G18  25822677.331 7 135699082.065 7     -2649.647 7        44.032               
G23  23568798.265 7 123854866.894 7       970.835 7        43.459               
G24  23440421.950 7 123180226.300 7      -906.946 7        47.069               
G25  28113418.906 7 147737054.017 7      3627.712 7        42.036               
> 2025 08 06 07 09 45.0000000  0 10                                             
G32  27988341.910 6 147079764.561 6      2347.773 6        36.613               
G05  28495110.582 6 149742831.636 6     -3539.934 6        41.385               
G10  26510980.553 7 139316127.916 7      3077.776 7        44.609               
G12  27092647.628 7 142372839.408 7      3165.991 7        46.708               
G13  27995782.500 5 147118947.269 5     -2846.318 5        35.398               
G15  24919715.181 7 130953948.049 7     -2097.548 7        46.800               
G18  25823182.775 7 135701732.423 7     -2650.314 7        43.929               
G23  23568609.050 7 123853897.939 7       963.188 7        42.686               
G24  23440598.925 7 123181136.948 7      -909.250 7        46.223               
G25  28112731.217 6 147733422.093 6      3633.601 6        41.567               
> 2025 08 06 07 09 46.0000000  0 10                                             
G32  27987894.184 6 147077416.253 6      2346.853 6        37.209               
G05  28495786.996 6 149746373.502 6     -3543.427 6        41.632               
G10  26510395.735 7 139313047.457 7      3081.968 7        44.918               
G12  27092045.084 7 142369673.398 7      3166.985 7        47.152               
G13  27996336.064 5 147121798.479 5     -2847.303 5        35.796               
G15  24920114.983 7 130956045.158 7     -2097.072 7        46.313               
G18  25823681.892 7 135704383.114 7     -2650.388 7        44.236               
G23  23568422.604 7 123852929.441 7       968.723 7        42.963               
G24  23440770.343 7 123182048.116 7      -909.307 7        46.753               
G25  28112038.774 6 147729789.970 6      3633.795 6        41.847               
> 2025 08 06 07 09 47.0000000  0 10                                             
G32  27987450.246 6 147075068.055 6      2359.022 6        36.495               
G05  28496463.321 6 149749915.573 6     -3542.099 6        41.002               
G10  26509805.629 7 139309967.235 7      3083.080 7        44.757               
G12  27091443.184 7 142366507.619 7      3167.069 7        47.097               
G13  27996889.164 5 147124649.694 5     -2851.102 5        35.673               
G15  24920515.195 7 130958142.576 7     -2095.617 7        46.794               
G18  25824187.943 7 135707034.296 7     -2650.947 7        44.685               
G23  23568236.945 7 123851961.558 7       969.151 7        42.566               
G24  23440944.994 7 123182959.968 7      -914.291 7        46.731               
G25  28111349.477 7 147726157.846 7      3626.544 7        42.464               
> 2025 08 06 07 09 48.0000000  0 10                                             
G32  27987005.664 6 147072719.894 6      2348.759 6        37.487               
G05  28497136.250 6 149753457.731 6     -3545.597 6        41.250               
G10  26509223.831 7 139306887.142 7      3081.606 7        44.653               
G12  27090839.443 7 142363341.959 7      3165.804 7        47.329               
G13  27997420.356 6 147127500.870 6     -2848.746 6        36.355               
G15  24920913.603 7 130960240.195 7     -2094.449 7        46.471               
G18  25824694.226 7 135709685.839 7     -2655.062 7        44.316               
G23  23568053.663 7 123850994.181 7       966.521 7        43.373               
G24  23441120.164 7 123183872.384 7      -912.259 7        46.866               
G25  28110650.851 6 147722525.567 6      3638.260 6        41.836               
> 2025 08 06 07 09 49.0000000  0 10                                             
G32  27986557.670 6 147070371.455 6      2351.543 6        36.697               
G05  28497810.573 6 149756999.756 6     -3547.889 6        41.947               
G10  26508634.189 7 139303806.933 7      3079.256 7        45.149               
G12  27090236.882 7 142360176.189 7      3165.719 7        47.987               
G13  27997964.343 6 147130351.742 6     -2845.844 6        36.459               
G15  24921310.331 7 130962337.776 7     -2093.176 7        46.468               
G18  25825204.744 7 135712337.517 7     -2651.244 7        44.664               
G23  23567872.810 7 123850027.079 7       965.614 7        43.043               
G24  23441293.816 7 123184785.138 7      -910.157 7        47.074               
G25  28109962.697 6 147718892.916 6      3630.944 6        41.862               
> 2025 08 06 07 09 50.0000000  0 10                                             
G32  27986105.977 6 147068023.359 6      2339.497 6        36.022               
G05  28498486.040 7 149760542.123 7     -3539.417 7        42.331               
G10  26508053.124 7 139300727.097 7      3077.065 7        44.947               
G12  27089634.535 7 142357010.774 7      3164.275 7        47.714               
G13  27998514.566 6 147133202.853 6     -2848.988 6        37.209               
G15  24921708.542 7 130964435.804 7     -2095.987 7        46.795               
G18  25825708.972 7 135714989.802 7     -2653.626 7        44.420               
G23  23567690.796 7 123849060.690 7       964.715 7        43.486               
G24  23441464.411 7 123185698.700 7      -914.551 7        47.029               
G25  28109270.737 7 147715260.387 7      3630.660 7        42.532               
> 2025 08 06 07 09 51.0000000  0 10                                             
G32  27985655.570 6 147065675.263 6      2354.722 6        36.412               
G05  28499157.898 7 149764084.613 7     -3542.995 7        42.373               
G10  26507463.911 7 139297647.402 7      3079.481 7        44.652               
G12  27089033.439 7 142353845.509 7      3165.285 7        47.566               
G13  27999052.120 6 147136053.926 6     -2849.900 6        37.193               
G15  24922108.737 7 130966534.053 7     -2096.035 7        47.083               
G18  25826214.916 7 135717642.512 7     -2651.171 7        44.535               
G23  23567507.424 7 123848094.857 7       961.989 7        43.495               
G24  23441638.044 7 123186612.866 7      -916.839 7        46.980               
G25  28108581.654 7 147711627.728 7      3630.282 7        43.255               
> 2025 08 06 07 09 52.0000000  0 10                                             
G32  27985214.759 5 147063327.245 5      2357.129 5        35.419               
G05  28499832.436 7 149767627.284 7     -3547.968 7        42.633               
G10  26506879.826 7 139294567.926 7      3076.999 7        44.732               
G12  27088430.145 7 142350680.456 7      3163.795 7        47.517               
G13  27999597.983 6 147138905.011 6     -2853.524 6        37.081               
G15  24922505.072 7 130968632.605 7     -2099.199 7        46.903               
G18  25826711.942 7 135720295.679 7     -2653.903 7        44.481               
G23  23567324.303 7 123847129.627 7       958.961 7        43.429               
G24  23441811.445 7 123187527.696 7      -915.158 7        46.962               
G25  28107888.747 7 147707995.032 7      3627.230 7        42.302               
> 2025 08 06 07 09 53.0000000  0 10                                             
G32  27984767.462 5 147060979.266 5      2352.336 5        35.598               
G05  28500506.133 7 149771170.032 7     -3538.762 7        42.789               
G10  26506300.245 7 139291488.551 7      3082.246 7        44.521               
G12  27087829.656 7 142347515.512 7      3165.926 7        47.536               
G13  28000139.521 6 147141756.065 6     -2858.521 6        37.088               
G15  24922904.427 7 130970731.329 7     -2096.651 7        46.611               
G18  25827216.707 7 135722949.187 7     -2653.741 7        44.418               
G23  23567142.324 7 123846164.860 7       962.601 7        43.345               
G24  23441982.434 7 123188443.053 7      -918.698 7        46.192               
G25  28107198.824 7 147704362.153 7      3634.768 7        42.522               
> 2025 08 06 07 09 54.0000000  0 10                                             
G32  27984312.713 5 147058631.373 5      2345.513 5        34.796               
G05  28501179.688 7 149774712.940 7     -3543.619 7        43.199               
G10  26505709.066 7 139288409.363 7      3076.509 7        45.063               
G12  27087226.255 7 142344350.747 7      3164.076 7        47.076               
G13  28000688.851 6 147144607.069 6     -2851.681 6        37.422               
G15  24923302.942 7 130972830.305 7     -2098.198 7        47.118               
G18  25827721.739 7 135725603.136 7     -2655.761 7        45.037               
G23  23566957.434 7 123845200.665 7       966.050 7        43.204               
G24  23442156.943 7 123189359.058 7      -915.003 7        46.183               
G25  28106508.794 7 147700729.223 7      3632.930 7        43.005               
> 2025 08 06 07 09 55.0000000  0 10                                             
G32  27983865.362 5 147056283.457 5      2340.557 5        34.915               
G05  28501855.012 7 149778255.975 7     -3543.838 7        43.416               
G10  26505124.016 7 139285330.321 7      3079.499 7        45.293               
G12  27086623.212 7 142341186.140 7      3163.606 7        47.594               
G13  28001225.047 6 147147458.085 6     -2850.644 6        36.205               
G15  24923702.725 7 130974929.522 7     -2102.125 7        46.339               
G18  25828225.735 7 135728257.483 7     -2655.953 7        44.979               
G23  23566773.633 7 123844237.007 7       960.346 7        43.725               
G24  23442333.185 7 123190275.645 7      -917.203 7        46.068               
G25  28105817.102 7 147697096.172 7      3637.682 7        42.919               
> 2025 08 06 07 09 56.0000000  0 10                                             
G32  27983407.951 5 147053935.596 5      2346.652 5        34.756               
G05  28502530.354 7 149781799.132 7     -3543.359 7        43.404               
G10  26504535.696 7 139282251.452 7      3078.599 7        45.187               
G12  27086020.597 7 142338021.676 7      3165.287 7        47.621               
G13  28001777.968 6 147150309.061 6     -2845.525 6        36.952               
G15  24924105.672 7 130977028.945 7     -2099.516 7        46.908               
G18  25828731.481 7 135730912.214 7     -2651.519 7        44.724               
G23  23566585.972 7 123843273.876 7       965.765 7        43.088               
G24  23442503.477 7 123191192.848 7      -917.965 7        45.841               
G25  28105123.730 7 147693463.021 7      3633.790 7        42.722               
> 2025 08 06 07 09 57.0000000  0 10                                             
G32  27982981.453 5 147051587.869 5      2352.657 5        35.380               
G05  28503204.034 7 149785342.432 7     -3541.428 7        42.923               
G10  26503948.985 7 139279172.733 7      3077.611 7        45.054               
G12  27085419.786 8 142334857.367 8      3163.525 8        48.061               
G13  28002308.821 6 147153160.048 6     -2852.427 6        36.228               
G15  24924504.508 7 130979128.604 7     -2104.470 7        46.832               
G18  25829236.978 7 135733567.352 7     -2656.171 7        44.887               
G23  23566405.209 7 123842311.293 7       957.465 7        43.510               
G24  23442678.593 7 123192110.637 7      -916.287 7        46.567               
G25  28104432.592 7 147689829.769 7      3635.071 7        42.783               
> 2025 08 06 07 09 58.0000000  0 10                                             
G32  27982535.746 5 147049240.125 5      2350.212 5        35.717               
G05  28503878.393 7 149788885.861 7     -3544.180 7        43.168               
G10  26503359.629 7 139276094.194 7      3075.462 7        44.614               
G12  27084816.957 7 142331693.228 7      3165.385 7        47.483               
G13  28002840.621 5 147156011.024 5     -2861.757 5        35.271               
G15  24924903.935 7 130981228.499 7     -2099.856 7        46.344               
G18  25829744.709 7 135736222.908 7     -2655.518 7        44.443               
G23  23566223.106 7 123841349.243 7       961.436 7        43.008               
G24  23442857.730 7 123193029.048 7      -919.434 7        46.387               
G25  28103739.167 7 147686196.403 7      3641.475 7        42.760               
> 2025 08 06 07 09 59.0000000  0 10                                             
G32  27982082.784 6 147046892.469 6      2350.751 6        36.286               
G05  28504554.539 7 149792429.451 7     -3543.576 7        42.670               
G10  26502775.544 7 139273015.799 7      3080.466 7        44.786               
G12  27084213.520 7 142328529.253 7      3164.213 7        47.180               
G13  28003381.230 5 147158862.000 5     -2857.911 5        34.880               
G15  24925303.861 7 130983328.638 7     -2102.511 7        46.441               
G18  25830254.387 7 135738878.879 7     -2658.077 7        44.773               
G23  23566039.699 7 123840387.765 7       959.252 7        43.163               
G24  23443031.435 7 123193948.070 7      -921.087 7        46.059               
G25  28103047.225 7 147682562.944 7      3634.792 7        42.883               
> 2025 08 06 07 10 00.0000000  0 10                                             
G32  27981635.558 5 147044544.881 5      2348.121 5        35.461               
G05  28505225.878 7 149795973.179 7     -3542.633 7        42.762               
G10  26502192.496 7 139269937.605 7      3077.767 7        44.876               
G12  27083614.604 7 142325365.457 7      3165.005 7        46.751               
G13  28003929.202 5 147161712.974 5     -2856.394 5        34.486               
G15  24925706.575 7 130985429.032 7     -2097.089 7        47.181               
G18  25830758.508 7 135741535.281 7     -2655.739 7        44.843               
G23  23565859.900 7 123839426.826 7       962.751 7        43.393               
G24  23443208.106 7 123194867.721 7      -922.686 7        46.469               
G25  28102358.606 7 147678929.428 7      3630.593 7        42.548               
> 2025 08 06 07 10 01.0000000  0 11                                             
G32  27981179.380 6 147042197.326 6      2351.288 6        36.305               
G05  28505899.362 7 149799516.977 7     -3542.674 7        42.877               
G10  26501606.660 7 139266859.517 7      3079.737 7        44.835               
G12  27083008.898 7 142322201.745 7      3162.575 7        47.035               
G13  28004459.036 5 147164563.869 5     -2858.320 5        34.481               
G15  24926105.841 7 130987529.606 7     -2098.765 7        46.949               
G18  25831264.666 7 135744192.022 7     -2661.010 7        44.545               
G22  28746773.095 6 151062723.417 6     -1824.517 6        41.347               
G23  23565678.155 7 123838466.380 7       960.237 7        43.992               
G24  23443382.740 7 123195787.902 7      -919.102 7        46.293               
G25  28101663.680 7 147675295.720 7      3634.725 7        42.968               
> 2025 08 06 07 10 02.0000000  0 11                                             
G32  27980742.250 5 147039849.769 5      2347.485 5        35.800               
G05  28506577.527 7 149803060.905 7     -3544.126 7        43.001               
G10  26501018.179 7 139263781.548 7      3081.317 7        44.621               
G12  27082409.589 7 142319038.160 7      3163.873 7        46.626               
G13  28005005.810 5 147167414.718 5     -2854.343 5        34.020               
G15  24926506.786 7 130989630.398 7     -2104.670 7        47.220               
G18  25831772.718 7 135746849.139 7     -2657.018 7        45.505               
G22  28747114.268 6 151064547.808 6     -1830.294 6        41.220               
G23  23565489.351 7 123837506.446 7       954.024 7        43.919               
G24  23443558.303 7 123196708.671 7      -921.767 7        45.804               
G25  28100973.489 7 147671661.912 7      3632.522 7        42.866               
> 2025 08 06 07 10 03.0000000  0 11                                             
G32  27980306.729 5 147037502.228 5      2340.936 5        35.975               
G05  28507250.403 7 149806604.909 7     -3546.693 7        42.919               
G10  26500432.325 7 139260703.708 7      3079.595 7        44.344               
G12  27081806.277 7 142315874.715 7      3164.102 7        46.314               
G13  28005551.137 5 147170265.532 5     -2841.998 5        33.834               
G15  24926907.195 7 130991731.400 7     -2099.807 7        47.456               
G18  25832279.716 7 135749506.618 7     -2659.136 7        45.288               
G22  28747463.357 6 151066372.602 6     -1825.936 6        40.590               
G23  23565307.283 7 123836547.023 7       960.925 7        43.671               
G24  23443732.741 7 123197630.004 7      -922.904 7        46.712               
G25  28100284.048 7 147668027.949 7      3637.837 7        42.806               
> 2025 08 06 07 10 04.0000000  0 10                                             
G32  27979851.229 6 147035154.653 6      2354.957 6        36.092               
G05  28507925.709 7 149810149.023 7     -3549.445 7        42.493               
G10  26499847.204 7 139257625.984 7      3079.556 7        44.296               
G12  27081205.306 7 142312711.366 7      3165.007 7        45.991               
G15  24927307.908 7 130993832.597 7     -2100.036 7        47.301               
G18  25832783.961 7 135752164.482 7     -2659.225 7        45.266               
G22  28747804.852 6 151068197.847 6     -1823.517 6        40.640               
G23  23565125.198 7 123835588.078 7       962.399 7        43.181               
G24  23443909.590 7 123198551.907 7      -923.163 7        46.741               
G25  28099591.892 7 147664393.852 7      3633.586 7        42.969               
> 2025 08 06 07 10 05.0000000  0 10                                             
G32  27979403.146 5 147032807.177 5      2341.554 5        35.659               
G05  28508595.333 7 149813693.271 7     -3554.510 7        42.484               
G10  26499264.335 7 139254548.447 7      3079.491 7        44.070               
G12  27080601.958 7 142309548.208 7      3162.709 7        46.841               
G15  24927704.725 7 130995934.034 7     -2099.568 7        47.028               
G18  25833287.225 7 135754822.749 7     -2661.192 7        44.594               
G22  28748158.748 6 151070023.606 6     -1828.193 6        41.213               
G23  23564937.823 7 123834629.706 7       956.078 7        42.606               
G24  23444080.168 7 123199474.427 7      -925.954 7        46.455               
G25  28098898.770 7 147660759.672 7      3631.510 7        42.707               
> 2025 08 06 07 10 06.0000000  0 10                                             
G32  27978947.789 5 147030459.743 5      2345.670 5        35.579               
G05  28509270.210 7 149817237.617 7     -3547.182 7        42.897               
G10  26498674.639 7 139251471.032 7      3077.750 7        44.322               
G12  27079999.379 7 142306385.164 7      3162.256 7        46.093               
G15  24928104.223 7 130998035.673 7     -2101.619 7        46.935               
G18  25833793.829 7 135757481.397 7     -2659.554 7        44.880               
G22  28748507.784 6 151071849.786 6     -1826.308 6        40.849               
G23  23564756.202 7 123833671.838 7       957.536 7        43.565               
G24  23444258.233 7 123200397.515 7      -924.325 7        46.693               
G25  28098208.400 7 147657125.354 7      3640.108 7        43.035               
> 2025 08 06 07 10 07.0000000  0 10                                             
G32  27978495.596 5 147028112.361 5      2342.928 5        35.753               
G05  28509944.909 7 149820782.081 7     -3538.301 7        42.954               
G10  26498087.767 7 139248393.778 7      3079.300 7        44.180               
G12  27079396.460 7 142303222.272 7      3162.593 7        46.416               
G15  24928501.559 7 131000137.529 7     -2103.321 7        47.034               
G18  25834299.576 7 135760140.437 7     -2659.991 7        44.974               
G22  28748856.087 6 151073676.442 6     -1822.836 6        41.401               
G23  23564578.763 7 123832714.504 7       955.004 7        43.760               
G24  23444434.046 7 123201321.200 7      -925.085 7        46.910               
G25  28097517.370 7 147653490.933 7      3631.882 7        42.401               
> 2025 08 06 07 10 08.0000000  0 10                                             
G32  27978053.588 5 147025764.999 5      2355.257 5        35.055               
G05  28510622.663 7 149824326.711 7     -3546.764 7        42.173               
G10  26497503.378 7 139245316.704 7      3079.467 7        44.872               
G12  27078796.168 7 142300059.549 7      3162.723 7        46.896               
G15  24928901.646 7 131002239.638 7     -2101.525 7        46.590               
G18  25834801.410 7 135762799.914 7     -2661.666 7        44.831               
G22  28749200.530 6 151075503.602 6     -1829.090 6        41.608               
G23  23564396.821 7 123831757.733 7       957.642 7        43.202               
G24  23444609.645 7 123202245.511 7      -926.057 7        46.321               
G25  28096828.251 7 147649856.427 7      3634.451 7        42.189               
> 2025 08 06 07 10 09.0000000  0 10                                             
G32  27977603.396 5 147023417.721 5      2349.146 5        35.660               
G05  28511296.057 7 149827871.463 7     -3541.504 7        42.740               
G10  26496919.418 7 139242239.765 7      3076.663 7        44.374               
G12  27078194.161 7 142296896.979 7      3163.511 7        46.458               
G15  24929303.217 7 131004341.958 7     -2105.054 7        46.545               
G18  25835310.623 7 135765459.774 7     -2661.590 7        44.784               
G22  28749548.994 6 151077331.241 6     -1831.199 6        39.976               
G23  23564218.720 7 123830801.481 7       951.965 7        43.584               
G24  23444785.512 7 123203170.395 7      -924.027 7        46.185               
G25  28096135.665 7 147646221.796 7      3634.319 7        42.795               
> 2025 08 06 07 10 10.0000000  0 10                                             
G32  27977154.740 5 147021070.538 5      2351.767 5        35.754               
G05  28511971.810 7 149831416.383 7     -3542.882 7        42.287               
G10  26496335.673 7 139239163.015 7      3077.833 7        44.638               
G12  27077593.387 7 142293734.605 7      3163.160 7        46.394               
G15  24929703.804 7 131006444.550 7     -2101.343 7        47.076               
G18  25835813.904 7 135768120.075 7     -2659.690 7        44.932               
G22  28749904.980 6 151079159.381 6     -1824.741 6        39.316               
G23  23564033.722 7 123829845.791 7       952.957 7        43.977               
G24  23444964.953 7 123204095.943 7      -926.401 7        46.133               
G25  28095439.649 7 147642587.114 7      3638.198 7        42.499               
> 2025 08 06 07 10 11.0000000  0 10                                             
G32  27976714.358 5 147018723.324 5      2345.340 5        34.608               
G05  28512645.186 7 149834961.403 7     -3541.394 7        42.667               
G10  26495749.194 7 139236086.410 7      3077.739 7        44.430               
G12  27076990.021 7 142290572.364 7      3159.947 7        46.577               
G15  24930105.428 7 131008547.336 7     -2105.917 7        47.445               
G18  25836319.884 7 135770780.747 7     -2661.872 7        45.077               
G22  28750243.724 6 151080987.966 6     -1829.880 6        39.120               
G23  23563851.601 7 123828890.647 7       952.969 7        43.897               
G24  23445138.568 7 123205022.053 7      -931.102 7        46.083               
G25  28094748.654 7 147638952.288 7      3635.481 7        42.915               
> 2025 08 06 07 10 12.0000000  0 10                                             
G32  27976270.438 5 147016376.110 5      2353.393 5        35.094               
G05  28513316.793 7 149838506.520 7     -3551.454 7        42.173               
G10  26495164.448 7 139233009.928 7      3076.264 7        44.039               
G12  27076389.157 7 142287410.233 7      3163.949 7        47.121               
G15  24930506.052 7 131010650.312 7     -2103.134 7        47.477               
G18  25836822.289 7 135773441.784 7     -2662.053 7        45.231               
G22  28750596.244 6 151082817.014 6     -1828.565 6        39.574               
G23  23563670.373 7 123827935.973 7       955.936 7        43.476               
G24  23445316.222 7 123205948.734 7      -922.978 7        45.762               
G25  28094063.377 7 147635317.350 7      3634.368 7        43.164               
> 2025 08 06 07 10 13.0000000  0 10                                             
G32  27975815.796 5 147014028.978 5      2344.534 5        35.858               
G05  28513994.673 7 149842051.712 7     -3547.869 7        42.591               
G10  26494581.096 7 139229933.555 7      3077.600 7        43.927               
G12  27075787.793 7 142284248.211 7      3161.076 7        46.740               
G15  24930907.765 7 131012753.466 7     -2105.681 7        47.098               
G18  25837331.342 7 135776103.186 7     -2659.803 7        44.824               
G22  28750940.740 6 151084646.478 6     -1827.825 6        39.306               
G23  23563488.663 7 123826981.790 7       956.206 7        43.672               
G24  23445491.964 7 123206875.966 7      -926.028 7        46.098               
G25  28093368.558 7 147631682.230 7      3640.911 7        43.035               
> 2025 08 06 07 10 14.0000000  0 10                                             
G32  27975373.145 6 147011681.780 6      2343.681 6        36.093               
G05  28514668.889 7 149845597.006 7     -3545.823 7        42.201               
G10  26493991.240 7 139226857.304 7      3076.882 7        43.717               
G12  27075186.519 7 142281086.319 7      3160.359 7        46.511               
G15  24931307.764 7 131014856.813 7     -2104.507 7        46.958               
G18  25837836.928 7 135778764.948 7     -2664.415 7        44.721               
G22  28751288.114 6 151086476.394 6     -1830.673 6        39.754               
G23  23563304.148 7 123826028.136 7       957.884 7        43.854               
G24  23445672.584 7 123207803.773 7      -928.391 7        46.924               
G25  28092674.150 7 147628046.988 7      3634.047 7        43.229               
> 2025 08 06 07 10 15.0000000  0 10                                             
G32  27974928.832 5 147009334.656 5      2342.926 5        35.639               
G05  28515346.035 7 149849142.426 7     -3547.406 7        42.384               
G10  26493405.404 7 139223781.178 7      3076.263 7        43.252               
G12  27074585.708 7 142277924.550 7      3164.041 7        47.076               
G15  24931707.047 7 131016960.363 7     -2101.253 7        47.064               
G18  25838345.606 7 135781427.073 7     -2660.488 7        45.156               
G22  28751636.417 6 151088306.718 6     -1827.463 6        40.140               
G23  23563126.172 7 123825074.981 7       952.987 7        43.217               
G24  23445848.022 7 123208732.151 7      -928.695 7        46.655               
G25  28091982.154 7 147624411.612 7      3643.024 7        43.272               
> 2025 08 06 07 10 16.0000000  0 10                                             
G32  27974482.696 6 147006987.526 6      2352.152 6        36.479               
G05  28516017.035 7 149852687.937 7     -3545.386 7        42.849               
G10  26492820.372 7 139220705.207 7      3078.572 7        43.656               
G12  27073986.024 7 142274762.936 7      3160.925 7        47.612               
G15  24932104.865 7 131019064.154 7     -2107.091 7        46.448               
G18  25838854.497 7 135784089.586 7     -2661.403 7        45.621               
G22  28751984.417 6 151090137.548 6     -1837.261 6        40.270               
G23  23562943.783 7 123824122.336 7       950.284 7        43.761               
G24  23446022.888 7 123209661.102 7      -929.746 7        46.830               
G25  28091290.051 7 147620776.120 7      3639.113 7        43.090               
> 2025 08 06 07 10 17.0000000  0 10                                             
G32  27974039.187 6 147004640.490 6      2345.074 6        36.104               
G05  28516691.787 7 149856233.571 7     -3544.544 7        43.686               
G10  26492234.500 7 139217629.393 7      3075.157 7        44.302               
G12  27073384.249 7 142271601.464 7      3160.802 7        47.162               
G15  24932505.238 7 131021168.159 7     -2102.830 7        47.090               
G18  25839363.961 7 135786752.495 7     -2667.206 7        45.038               
G22  28752329.396 6 151091968.834 6     -1834.020 6        40.210               
G23  23562763.181 7 123823170.239 7       950.289 7        43.538               
G24  23446201.310 7 123210590.650 7      -927.258 7        47.201               
G25  28090600.718 7 147617140.523 7      3637.339 7        43.134               
> 2025 08 06 07 10 18.0000000  0 10                                             
G32  27973590.388 6 147002293.453 6      2350.435 6        36.379               
G05  28517366.718 7 149859779.313 7     -3544.043 7        43.388               
G10  26491651.202 7 139214553.705 7      3077.449 7        44.198               
G12  27072783.189 7 142268440.125 7      3161.178 7        47.489               
G15  24932905.808 7 131023272.366 7     -2107.487 7        46.981               
G18  25839866.063 7 135789415.788 7     -2664.194 7        45.817               
G22  28752677.842 6 151093800.552 6     -1835.997 6        40.565               
G23  23562582.597 7 123822218.649 7       948.635 7        43.949               
G24  23446382.592 7 123211520.785 7      -932.551 7        47.514               
G25  28089910.008 7 147613504.791 7      3636.196 7        42.999               
> 2025 08 06 07 10 19.0000000  0 10                                             
G32  27973148.845 5 146999946.443 5      2342.233 5        35.931               
G05  28518041.542 7 149863325.191 7     -3540.157 7        43.382               
G10  26491065.848 7 139211478.197 7      3073.062 7        43.844               
G12  27072181.699 7 142265278.948 7      3161.473 7        47.599               
G15  24933303.626 7 131025376.810 7     -2105.394 7        46.771               
G18  25840378.654 7 135792079.493 7     -2663.828 7        46.379               
G22  28753029.790 6 151095632.762 6     -1838.104 6        40.525               
G23  23562403.281 7 123821267.633 7       947.893 7        44.073               
G24  23446557.029 7 123212451.530 7      -928.661 7        47.604               
G25  28089219.639 7 147609868.988 7      3631.290 7        42.968               
> 2025 08 06 07 10 20.0000000  0 10                                             
G32  27972709.606 6 146997599.543 6      2351.236 6        36.629               
G05  28518718.206 7 149866871.223 7     -3546.562 7        43.007               
G10  26490481.889 7 139208402.884 7      3069.001 7        43.849               
G12  27071580.603 7 142262117.959 7      3158.979 7        47.404               
G15  24933703.428 7 131027481.513 7     -2104.314 7        46.592               
G18  25840885.830 7 135794743.618 7     -2663.024 7        46.013               
G22  28753378.129 6 151097465.463 6     -1827.754 6        40.352               
G23  23562221.660 7 123820317.140 7       954.934 7        43.916               
G24  23446733.986 7 123213382.897 7      -931.157 7        47.526               
G25  28088525.659 7 147606233.104 7      3636.363 7        42.824               
> 2025 08 06 07 10 21.0000000  0 10                                             
G32  27972265.472 6 146995252.717 6      2351.350 6        36.301               
G05  28519393.047 7 149870417.346 7     -3548.214 7        43.110               
G10  26489890.424 7 139205327.672 7      3076.323 7        43.513               
G12  27070977.577 7 142258957.080 7      3160.474 7        47.380               
G15  24934105.141 7 131029586.401 7     -2105.548 7        46.308               
G18  25841393.060 7 135797408.100 7     -2665.675 7        46.002               
G22  28753727.701 6 151099298.641 6     -1829.184 6        40.334               
G23  23562043.309 7 123819367.193 7       953.332 7        43.773               
G24  23446914.874 7 123214314.824 7      -929.583 7        46.610               
G25  28087836.987 7 147602597.074 7      3637.542 7        43.519               
> 2025 08 06 07 10 22.0000000  0 10                                             
G32  27971810.508 5 146992905.889 5      2346.100 5        35.850               
G05  28520064.047 7 149873963.634 7     -3542.637 7        43.256               
G10  26489309.484 7 139202252.655 7      3075.151 7        43.986               
G12  27070375.856 7 142255796.406 7      3159.831 7        46.635               
G15  24934503.620 7 131031691.578 7     -2102.303 7        46.701               
G18  25841897.556 7 135800073.032 7     -2667.634 7        45.856               
G22  28754078.166 6 151101132.295 6     -1836.882 6        40.309               
G23  23561863.118 7 123818417.783 7       951.350 7        44.104               
G24  23447089.115 7 123215247.395 7      -931.476 7        46.673               
G25  28087142.740 7 147598960.963 7      3636.258 7        43.380               
> 2025 08 06 07 10 23.0000000  0 10                                             
G32  27971364.462 5 146990559.108 5      2347.370 5        35.544               
G05  28520739.282 7 149877510.072 7     -3545.807 7        42.736               
G10  26488727.776 7 139199177.807 7      3072.208 7        44.145               
G12  27069776.600 7 142252635.887 7      3159.410 7        46.828               
G15  24934904.530 7 131033796.959 7     -2105.798 7        46.177               
G18  25842408.539 7 135802738.350 7     -2666.848 7        46.077               
G22  28754426.218 6 151102966.452 6     -1833.719 6        40.355               
G23  23561681.748 7 123817468.932 7       949.110 7        44.151               
G24  23447267.680 7 123216180.548 7      -935.132 7        46.955               
G25  28086449.458 7 147595324.759 7      3634.264 7        42.706               
> 2025 08 06 07 10 24.0000000  0 10                                             
G32  27970910.249 6 146988212.455 6      2353.341 6        36.951               
G05  28521418.948 7 149881056.596 7     -3551.616 7        42.825               
G10  26488142.619 7 139196103.099 7      3075.424 7        44.169               
G12  27069174.772 7 142249475.518 7      3159.814 7        46.826               
G15  24935304.188 7 131035902.571 7     -2102.663 7        46.525               
G18  25842911.927 7 135805404.073 7     -2665.999 7        45.831               
G22  28754778.345 6 151104801.072 6     -1835.850 6        39.733               
G23  23561501.110 7 123816520.617 7       943.636 7        44.442               
G24  23447443.744 7 123217114.302 7      -933.480 7        47.298               
G25  28085756.586 7 147591688.429 7      3633.681 7        43.043               
> 2025 08 06 07 10 25.0000000  0 10                                             
G32  27970473.852 6 146985865.762 6      2349.145 6        36.068               
G05  28522093.039 7 149884603.292 7     -3547.525 7        42.694               
G10  26487556.604 7 139193028.567 7      3073.629 7        43.952               
G12  27068570.495 7 142246315.313 7      3162.918 7        46.823               
G15  24935704.222 7 131038008.433 7     -2105.354 7        46.162               
G18  25843417.906 7 135808070.207 7     -2665.832 7        45.505               
G22  28755121.931 6 151106636.177 6     -1828.375 6        39.709               
G23  23561321.061 7 123815572.847 7       948.739 7        44.388               
G24  23447620.683 7 123218048.665 7      -932.589 7        46.856               
G25  28085065.502 7 147588052.029 7      3637.758 7        43.313               
> 2025 08 06 07 10 26.0000000  0 10                                             
G32  27970011.223 6 146983519.100 6      2347.738 6        36.224               
G05  28522765.057 7 149888150.071 7     -3548.530 7        42.977               
G10  26486973.485 7 139189954.165 7      3075.298 7        43.692               
G12  27067971.186 7 142243155.223 7      3156.590 7        46.326               
G15  24936104.292 7 131040114.462 7     -2105.315 7        45.247               
G18  25843923.171 7 135810736.691 7     -2666.443 7        46.199               
G22  28755477.900 6 151108471.703 6     -1841.479 6        40.088               
G23  23561139.727 7 123814625.578 7       947.158 7        43.546               
G24  23447798.819 7 123218983.580 7      -936.601 7        46.882               
G25  28084371.594 7 147584415.484 7      3636.809 7        42.687               
> 2025 08 06 07 10 27.0000000  0 10                                             
G32  27969572.878 5 146981172.534 5      2348.737 5        35.529               
G05  28523438.952 7 149891697.018 7     -3548.429 7        42.563               
G10  26486389.757 7 139186879.937 7      3075.422 7        44.643               
G12  27067368.785 7 142239995.318 7      3160.178 7        46.469               
G15  24936504.415 7 131042220.766 7     -2109.350 7        45.905               
G18  25844431.813 7 135813403.597 7     -2668.013 7        45.865               
G22  28755827.096 6 151110307.721 6     -1842.297 6        40.957               
G23  23560959.357 7 123813678.858 7       945.566 7        43.786               
G24  23447977.188 7 123219919.133 7      -934.340 7        46.877               
G25  28083681.528 7 147580778.863 7      3632.258 7        42.975               
> 2025 08 06 07 10 28.0000000  0 10                                             
G32  27969111.964 5 146978825.955 5      2362.958 5        35.064               
G05  28524112.864 7 149895244.058 7     -3545.630 7        42.613               
G10  26485802.242 7 139183805.838 7      3073.644 7        44.430               
G12  27066767.117 7 142236835.555 7      3157.858 7        46.352               
G15  24936908.094 7 131044327.285 7     -2107.423 7        45.507               
G18  25844937.863 7 135816070.887 7     -2664.182 7        45.677               
G22  28756172.040 6 151112144.232 6     -1840.985 6        41.300               
G23  23560776.396 7 123812732.657 7       945.440 7        44.046               
G24  23448155.127 7 123220855.255 7      -937.019 7        46.589               
G25  28082986.155 7 147577142.122 7      3636.913 7        42.767               
> 2025 08 06 07 10 29.0000000  0 10                                             
G32  27968676.603 5 146976479.488 5      2346.531 5        35.098               
G05  28524788.188 7 149898791.273 7     -3550.242 7        42.433               
G10  26485222.070 7 139180731.971 7      3074.443 7        43.779               
G12  27066165.682 7 142233675.975 7      3161.428 7        46.486               
G15  24937310.933 7 131046434.070 7     -2108.059 7        46.306               
G18  25845447.077 7 135818738.601 7     -2664.871 7        45.481               
G22  28756526.919 6 151113981.207 6     -1836.357 6        41.854               
G23  23560600.207 7 123811787.030 7       954.450 7        44.553               
G24  23448334.622 7 123221792.010 7      -933.163 7        46.604               
G25  28082295.928 7 147573505.299 7      3639.522 7        42.539               
> 2025 08 06 07 10 30.0000000  0 10                                             
G32  27968230.843 5 146974133.031 5      2344.008 5        35.350               
G05  28525465.460 7 149902338.563 7     -3542.902 7        43.004               
G10  26484639.504 7 139177658.190 7      3074.569 7        44.303               
G12  27065562.960 7 142230516.512 7      3160.153 7        46.769               
G15  24937715.256 7 131048541.031 7     -2106.102 7        46.791               
G18  25845955.772 7 135821406.687 7     -2668.207 7        45.286               
G22  28756875.311 6 151115818.643 6     -1838.236 6        41.686               
G23  23560414.280 7 123810841.914 7       942.349 7        43.663               
G24  23448511.060 7 123222729.351 7      -938.152 7        46.527               
G25  28081605.219 7 147569868.341 7      3639.625 7        42.353               
> 2025 08 06 07 10 31.0000000  0 10                                             
G32  27967771.645 6 146971786.637 6      2340.032 6        36.415               
G05  28526139.676 7 149905885.985 7     -3549.033 7        42.580               
G10  26484049.523 7 139174584.569 7      3070.901 7        44.113               
G12  27064963.525 7 142227357.209 7      3160.709 7        46.624               
G15  24938114.610 7 131050648.215 7     -2108.817 7        46.423               
G18  25846463.306 7 135824075.136 7     -2667.506 7        45.894               
G22  28757221.166 6 151117656.541 6     -1841.845 6        41.672               
G23  23560234.553 7 123809897.338 7       937.717 7        43.527               
G24  23448690.054 7 123223667.266 7      -940.184 7        47.161               
G25  28080909.846 7 147566231.261 7      3634.670 7        42.997               
> 2025 08 06 07 10 32.0000000  0 10                                             
G32  27967337.517 5 146969440.203 5      2338.839 5        35.572               
G05  28526818.377 7 149909433.509 7     -3548.558 7        43.140               
G10  26483465.188 7 139171511.088 7      3071.637 7        43.819               
G12  27064362.251 7 142224198.020 7      3158.846 7        46.771               
G15  24938514.215 7 131052755.593 7     -2106.705 7        46.537               
G18  25846972.252 7 135826743.981 7     -2670.331 7        46.424               
G22  28757577.045 7 151119494.873 7     -1835.396 7        42.119               
G23  23560053.772 7 123808953.261 7       934.658 7        43.401               
G24  23448867.476 7 123224605.748 7      -937.083 7        46.350               
G25  28080219.977 7 147562594.074 7      3637.000 7        42.337               
> 2025 08 06 07 10 33.0000000  0 10                                             
G32  27966889.487 5 146967093.848 5      2354.480 5        35.274               
G05  28527492.843 7 149912981.112 7     -3548.179 7        43.297               
G10  26482879.334 7 139168437.713 7      3072.093 7        43.307               
G12  27063760.261 7 142221038.957 7      3159.215 7        46.939               
G15  24938913.302 7 131054863.156 7     -2109.426 7        45.733               
G18  25847479.553 7 135829413.171 7     -2668.439 7        46.348               
G22  28757928.994 6 151121333.636 6     -1837.708 6        41.915               
G23  23559872.598 7 123808009.657 7       946.273 7        43.148               
G24  23449047.077 7 123225544.786 7      -942.080 7        45.926               
G25  28079527.606 7 147558956.714 7      3644.229 7        42.681               
