     3.02           OBSERVATION DATA    G                   RINEX VERSION / TYPE
G = GPS  R = GLONASS  E = GALILEO  S = GEO  M = MIXED       COMMENT             
GNSS-SDR            suhjw               20250805 074630 UTC PGM / RUN BY / DATE 
GPS OBSERVATION DATA FILE GENERATED BY GNSS-SDR             COMMENT             
GNSS-SDR VERSION 0.0.20                                     COMMENT             
See https://gnss-sdr.org                                    COMMENT             
DEFAULT MARKER NAME                                         MARKER NAME         
suhjw               CTTC                                    OBSERVER / AGENCY   
GNSS-SDR            Software Receiver   0.0.20              REC # / TYPE / VERS 
Antenna number      Antenna type                            ANT # / TYPE        
        0.0000        0.0000        0.0000                  APPROX POSITION XYZ 
        0.0000        0.0000        0.0000                  ANTENNA: DELTA H/E/N
G    4 C1C L1C D1C S1C                                      SYS / # / OBS TYPES 
DBHZ                                                        SIGNAL STRENGTH UNIT
  2025    08    05    07    46   48.1200000     GPS         TIME OF FIRST OBS   
    18    18   137     7                                    LEAP SECONDS        
                                                            END OF HEADER       
> 2025 08 05 07 46 49.0000000  0  5                                             
G12  23493420.767 7 123458747.709 7      2646.939 7        47.816               
G15  23295926.062 8 122420929.325 8     -2505.895 8        49.082               
G23  20924841.000 7 109960759.972 7      -188.726 7        45.826               
G24  21496166.020 7 112963118.014 7     -1940.848 7        44.120               
G25  24239854.680 7 127381288.644 7      3660.228 7        43.941               
> 2025 08 05 07 46 50.0000000  0  5                                             
G12  23492913.599 8 123456099.910 8      2647.692 8        48.084               
G15  23296405.997 8 122423435.830 8     -2504.102 8        49.150               
G23  20924871.181 7 109960945.753 7      -188.779 7        45.622               
G24  21496535.257 7 112965056.447 7     -1937.752 7        44.219               
G25  24239159.012 7 127377631.483 7      3657.673 7        44.214               
> 2025 08 05 07 46 51.0000000  0  5                                             
G12  23492413.204 8 123453452.462 8      2647.914 8        48.284               
G15  23296881.956 8 122425942.489 8     -2506.377 8        48.710               
G23  20924905.194 7 109961132.122 7      -185.773 7        45.827               
G24  21496907.218 7 112966995.297 7     -1938.067 7        44.117               
G25  24238462.969 7 127373974.402 7      3656.800 7        44.594               
> 2025 08 05 07 46 52.0000000  0  5                                             
G12  23491910.387 8 123450805.363 8      2649.352 8        48.168               
G15  23297356.548 8 122428449.304 8     -2506.514 8        48.971               
G23  20924942.317 7 109961319.095 7      -190.929 7        46.300               
G24  21497275.838 7 112968934.547 7     -1939.262 7        44.850               
G25  24237766.068 7 127370317.368 7      3652.804 7        44.636               
> 2025 08 05 07 46 53.0000000  0  5                                             
G12  23491404.676 7 123448158.646 7      2647.555 7        47.713               
G15  23297834.411 8 122430956.324 8     -2507.518 8        48.654               
G23  20924976.447 7 109961506.686 7      -187.097 7        45.857               
G24  21497645.522 7 112970874.223 7     -1940.871 7        44.556               
G25  24237071.508 7 127366660.417 7      3659.219 7        44.395               
> 2025 08 05 07 46 54.0000000  0  5                                             
G12  23490901.654 8 123445512.351 8      2645.449 8        48.059               
G15  23298311.183 8 122433463.582 8     -2508.088 8        49.095               
G23  20925013.954 7 109961694.955 7      -188.247 7        45.671               
G24  21498015.652 7 112972814.411 7     -1940.088 7        44.558               
G25  24236374.724 7 127363003.647 7      3647.922 7        44.778               
> 2025 08 05 07 46 55.0000000  0  5                                             
G12  23490398.052 7 123442866.481 7      2644.354 7        47.923               
G15  23298788.411 8 122435971.063 8     -2508.972 8        49.433               
G23  20925051.559 7 109961883.880 7      -191.530 7        45.600               
G24  21498380.537 7 112974755.056 7     -1941.826 7        44.250               
G25  24235682.380 7 127359346.977 7      3655.037 7        44.841               
> 2025 08 05 07 46 56.0000000  0  5                                             
G12  23489893.707 7 123440220.931 7      2646.215 7        47.576               
G15  23299263.200 8 122438478.690 8     -2506.273 8        48.692               
G23  20925090.049 7 109962073.382 7      -188.457 7        45.643               
G24  21498748.201 7 112976696.097 7     -1941.560 7        43.894               
G25  24234985.711 7 127355690.369 7      3656.977 7        44.532               
> 2025 08 05 07 46 57.0000000  0  5                                             
G12  23489390.310 7 123437575.770 7      2643.748 7        47.791               
G15  23299744.046 8 122440986.508 8     -2512.166 8        48.858               
G23  20925121.311 7 109962263.512 7      -191.636 7        46.130               
G24  21499120.788 7 112978637.564 7     -1940.206 7        44.116               
G25  24234288.453 7 127352033.855 7      3657.777 7        45.294               
> 2025 08 05 07 46 58.0000000  0  5                                             
G12  23488882.857 7 123434931.035 7      2646.251 7        46.798               
G15  23300219.353 8 122443494.574 8     -2508.579 8        49.233               
G23  20925158.818 7 109962454.312 7      -191.925 7        45.940               
G24  21499487.755 7 112980579.517 7     -1944.523 7        44.150               
G25  24233595.242 7 127348377.485 7      3654.865 7        44.826               
> 2025 08 05 07 46 59.0000000  0  5                                             
G12  23488381.532 7 123432286.657 7      2642.116 7        47.629               
G15  23300698.377 8 122446002.817 8     -2506.919 8        48.891               
G23  20925192.153 7 109962645.717 7      -191.220 7        45.470               
G24  21499857.894 7 112982521.909 7     -1943.173 7        44.241               
G25  24232901.736 7 127344721.208 7      3657.513 7        45.283               
> 2025 08 05 07 47 00.0000000  0  5                                             
G12  23487878.305 7 123429642.690 7      2641.986 7        47.140               
G15  23301172.183 8 122448511.272 8     -2509.102 8        49.300               
G23  20925225.318 7 109962837.790 7      -195.408 7        45.727               
G24  21500225.853 7 112984464.752 7     -1944.545 7        44.565               
G25  24232202.226 7 127341065.032 7      3656.392 7        45.574               
> 2025 08 05 07 47 01.0000000  0  5                                             
G12  23487376.775 7 123426999.088 7      2643.310 7        47.312               
G15  23301650.886 8 122451019.913 8     -2508.105 8        48.719               
G23  20925265.496 7 109963030.462 7      -194.290 7        45.705               
G24  21500601.961 7 112986408.003 7     -1942.044 7        43.929               
G25  24231508.712 7 127337408.967 7      3655.978 7        45.239               
> 2025 08 05 07 47 02.0000000  0  5                                             
G12  23486873.467 7 123424355.881 7      2644.438 7        47.494               
G15  23302127.024 8 122453528.760 8     -2510.017 8        48.398               
G23  20925303.486 7 109963223.792 7      -198.267 7        45.876               
G24  21500969.187 7 112988351.736 7     -1944.816 7        43.985               
G25  24230812.159 7 127333753.010 7      3653.178 7        44.768               
> 2025 08 05 07 47 03.0000000  0  5                                             
G12  23486369.757 7 123421713.040 7      2644.085 7        47.224               
G15  23302603.823 8 122456037.795 8     -2509.065 8        48.695               
G23  20925341.127 7 109963417.722 7      -193.041 7        45.999               
G24  21501335.779 7 112990295.887 7     -1943.879 7        43.810               
G25  24230115.643 7 127330097.119 7      3657.202 7        44.949               
> 2025 08 05 07 47 04.0000000  0  5                                             
G12  23485868.245 7 123419070.572 7      2643.022 7        47.114               
G15  23303082.025 8 122458547.017 8     -2512.381 8        48.802               
G23  20925377.857 7 109963612.259 7      -194.619 7        46.110               
G24  21501707.571 7 112992240.459 7     -1944.306 7        43.884               
G25  24229420.350 7 127326441.332 7      3655.773 7        45.036               
> 2025 08 05 07 47 05.0000000  0  5                                             
G12  23485362.373 7 123416428.490 7      2643.199 7        46.756               
G15  23303559.369 8 122461056.405 8     -2508.487 8        48.537               
G23  20925414.444 7 109963807.438 7      -196.818 7        46.230               
G24  21502077.513 7 112994185.478 7     -1943.333 7        43.199               
G25  24228723.244 7 127322785.636 7      3652.898 7        45.328               
> 2025 08 05 07 47 06.0000000  0  5                                             
G12  23484859.995 7 123413786.804 7      2641.908 7        46.766               
G15  23304037.553 8 122463566.010 8     -2513.357 8        48.715               
G23  20925450.360 7 109964003.244 7      -200.507 7        45.261               
G24  21502446.008 7 112996130.914 7     -1945.514 7        43.240               
G25  24228027.040 7 127319130.044 7      3650.331 7        44.412               
> 2025 08 05 07 47 07.0000000  0  5                                             
G12  23484359.582 7 123411145.431 7      2643.877 7        47.099               
G15  23304517.783 8 122466075.749 8     -2511.237 8        48.061               
G23  20925488.261 7 109964199.607 7      -196.879 7        45.510               
G24  21502818.783 7 112998076.748 7     -1945.907 7        43.047               
G25  24227332.346 7 127315474.478 7      3655.172 7        44.734               
> 2025 08 05 07 47 08.0000000  0  5                                             
G12  23483857.882 7 123408504.484 7      2639.797 7        46.659               
G15  23304994.037 8 122468585.732 8     -2508.579 8        48.555               
G23  20925530.020 7 109964396.661 7      -198.228 7        45.766               
G24  21503187.974 7 113000023.072 7     -1943.085 7        43.269               
G25  24226636.517 7 127311819.063 7      3660.058 7        44.054               
> 2025 08 05 07 47 09.0000000  0  5                                             
G12  23483355.378 7 123405863.943 7      2640.722 7        46.806               
G15  23305471.774 8 122471095.909 8     -2508.913 8        49.023               
G23  20925567.778 7 109964594.334 7      -193.962 7        45.635               
G24  21503559.909 7 113001969.833 7     -1946.026 7        44.014               
G25  24225939.196 7 127308163.765 7      3659.059 7        43.955               
> 2025 08 05 07 47 10.0000000  0  5                                             
G12  23482852.740 7 123403223.738 7      2640.822 7        47.372               
G15  23305949.583 8 122473606.258 8     -2513.127 8        49.226               
G23  20925607.152 7 109964792.613 7      -198.920 7        46.450               
G24  21503932.067 7 113003917.017 7     -1947.187 7        43.898               
G25  24225242.144 7 127304508.549 7      3655.269 7        43.888               
> 2025 08 05 07 47 11.0000000  0  5                                             
G12  23482348.709 7 123400583.966 7      2639.793 7        47.580               
G15  23306424.988 8 122476116.834 8     -2510.773 8        48.679               
G23  20925641.237 7 109964991.552 7      -201.699 7        46.113               
G24  21504300.160 7 113005864.645 7     -1949.630 7        44.159               
G25  24224545.448 7 127300853.457 7      3659.961 7        43.842               
> 2025 08 05 07 47 12.0000000  0  5                                             
G12  23481846.697 7 123397944.579 7      2642.023 7        46.830               
G15  23306903.780 8 122478627.607 8     -2510.692 8        49.217               
G23  20925677.627 7 109965191.109 7      -201.965 7        45.807               
G24  21504673.015 7 113007812.747 7     -1952.328 7        44.447               
G25  24223850.728 7 127297198.444 7      3652.589 7        44.373               
> 2025 08 05 07 47 13.0000000  0  5                                             
G12  23481343.612 7 123395305.574 7      2641.133 7        46.999               
G15  23307384.242 8 122481138.597 8     -2509.772 8        48.554               
G23  20925715.965 7 109965391.314 7      -197.831 7        46.216               
G24  21505041.207 7 113009761.271 7     -1949.832 7        44.870               
G25  24223158.508 7 127293543.555 7      3654.901 7        44.563               
> 2025 08 05 07 47 14.0000000  0  5                                             
G12  23480840.769 7 123392666.946 7      2644.724 7        46.977               
G15  23307861.032 8 122483649.747 8     -2510.742 8        49.016               
G23  20925754.035 7 109965592.127 7      -202.559 7        46.667               
G24  21505410.818 7 113011710.207 7     -1950.179 7        44.647               
G25  24222460.428 7 127289888.746 7      3656.200 7        44.277               
> 2025 08 05 07 47 15.0000000  0  5                                             
G12  23480339.436 7 123390028.682 7      2639.001 7        47.242               
G15  23308339.350 8 122486161.094 8     -2511.532 8        49.722               
G23  20925793.991 7 109965793.561 7      -203.275 7        46.726               
G24  21505782.244 7 113013659.587 7     -1951.031 7        44.770               
G25  24221764.367 7 127286234.046 7      3655.422 7        43.595               
> 2025 08 05 07 47 16.0000000  0  5                                             
G12  23479838.031 7 123387390.798 7      2639.920 7        47.265               
G15  23308817.650 8 122488672.631 8     -2509.431 8        49.385               
G23  20925835.509 7 109965995.617 7      -203.153 7        46.627               
G24  21506154.554 7 113015609.396 7     -1953.375 7        44.775               
G25  24221071.764 7 127282579.429 7      3658.700 7        44.069               
> 2025 08 05 07 47 17.0000000  0  5                                             
G12  23479334.651 7 123384753.397 7      2637.637 7        47.670               
G15  23309296.996 8 122491184.460 8     -2512.765 8        49.546               
G23  20925874.285 7 109966198.389 7      -203.255 7        46.032               
G24  21506528.142 7 113017559.728 7     -1950.370 7        44.557               
G25  24220374.568 7 127278925.016 7      3653.474 7        44.448               
> 2025 08 05 07 47 18.0000000  0  6                                             
G32  24616270.804 6 129359331.925 6      2279.894 6        40.817               
G12  23478835.123 7 123382116.317 7      2636.467 7        47.591               
G15  23309773.232 8 122493696.421 8     -2513.533 8        49.086               
G23  20925912.453 7 109966401.738 7      -206.984 7        45.735               
G24  21506899.576 7 113019510.447 7     -1953.529 7        44.381               
G25  24219681.518 7 127275270.636 7      3656.986 7        43.378               
> 2025 08 05 07 47 19.0000000  0  6                                             
G32  24615834.559 6 129357056.669 6      2272.657 6        40.423               
G12  23478336.354 7 123379479.647 7      2634.988 7        47.377               
G15  23310250.657 8 122496208.593 8     -2510.209 8        49.786               
G23  20925952.149 7 109966605.734 7      -204.836 7        46.010               
G24  21507270.573 7 113021461.628 7     -1948.583 7        44.470               
G25  24218982.125 7 127271616.374 7      3652.723 7        43.436               
> 2025 08 05 07 47 20.0000000  0  6                                             
G32  24615400.833 6 129354781.483 6      2272.651 6        40.417               
G12  23477831.876 7 123376843.394 7      2634.929 7        47.573               
G15  23310730.699 8 122498720.998 8     -2512.603 8        49.010               
G23  20925987.548 7 109966810.387 7      -206.043 7        46.274               
G24  21507640.024 7 113023413.280 7     -1951.219 7        44.957               
G25  24218289.164 7 127267962.253 7      3651.525 7        44.005               
> 2025 08 05 07 47 21.0000000  0  6                                             
G32  24614970.172 6 129352506.346 6      2277.851 6        40.777               
G12  23477331.918 7 123374207.498 7      2636.988 7        47.744               
G15  23311204.988 8 122501233.562 8     -2512.951 8        49.051               
G23  20926028.977 7 109967015.634 7      -206.178 7        45.434               
G24  21508012.414 7 113025365.334 7     -1952.875 7        45.222               
G25  24217593.639 7 127264308.198 7      3657.546 7        43.800               
> 2025 08 05 07 47 22.0000000  0  6                                             
G32  24614538.268 6 129350231.200 6      2268.896 6        40.831               
G12  23476831.603 8 123371572.007 8      2633.437 8        48.145               
G15  23311685.914 8 122503746.310 8     -2512.061 8        48.997               
G23  20926069.093 7 109967221.500 7      -203.914 7        45.873               
G24  21508386.243 7 113027317.822 7     -1949.799 7        44.689               
G25  24216896.131 7 127260654.237 7      3653.909 7        44.022               
> 2025 08 05 07 47 23.0000000  0  6                                             
G32  24614103.828 6 129347956.090 6      2277.231 6        41.054               
G12  23476331.038 7 123368936.918 7      2636.170 7        47.695               
G15  23312165.028 8 122506259.269 8     -2513.774 8        48.720               
G23  20926105.885 7 109967428.023 7      -208.520 7        45.671               
G24  21508755.801 7 113029270.766 7     -1952.753 7        44.142               
G25  24216203.250 7 127257000.385 7      3658.915 7        43.965               
> 2025 08 05 07 47 24.0000000  0  6                                             
G32  24613667.055 6 129345681.020 6      2278.020 6        40.313               
G12  23475829.884 7 123366302.192 7      2635.196 7        47.832               
G15  23312640.799 8 122508772.421 8     -2513.484 8        48.968               
G23  20926145.992 7 109967635.134 7      -205.636 7        46.323               
G24  21509134.446 7 113031224.121 7     -1952.812 7        43.947               
G25  24215508.708 7 127253346.631 7      3652.853 7        43.395               
> 2025 08 05 07 47 25.0000000  0  6                                             
G32  24613236.546 6 129343405.935 6      2279.572 6        40.586               
G12  23475326.612 7 123363667.791 7      2634.389 7        47.369               
G15  23313118.983 8 122511285.700 8     -2512.248 8        48.979               
G23  20926184.616 7 109967842.825 7      -206.999 7        45.482               
G24  21509506.765 7 113033177.862 7     -1951.987 7        44.884               
G25  24214812.612 7 127249692.915 7      3653.093 7        44.180               
> 2025 08 05 07 47 26.0000000  0  6                                             
G32  24612808.431 6 129341130.890 6      2270.864 6        41.067               
G12  23474826.502 7 123361033.773 7      2634.111 7        47.618               
G15  23313600.241 8 122513799.178 8     -2515.213 8        49.248               
G23  20926220.739 7 109968051.147 7      -209.529 7        45.690               
G24  21509877.431 7 113035132.024 7     -1952.256 7        44.701               
G25  24214120.786 7 127246039.301 7      3650.651 7        44.445               
> 2025 08 05 07 47 27.0000000  0  6                                             
G32  24612372.114 6 129338855.841 6      2276.676 6        41.119               
G12  23474324.830 7 123358400.106 7      2629.681 7        47.879               
G15  23314079.577 8 122516312.806 8     -2513.955 8        49.623               
G23  20926260.167 7 109968260.053 7      -209.928 7        45.222               
G24  21510243.782 7 113037086.594 7     -1957.029 7        44.664               
G25  24213421.892 7 127242385.728 7      3651.830 7        43.830               
> 2025 08 05 07 47 28.0000000  0  6                                             
G32  24611937.932 6 129336580.867 6      2267.892 6        40.984               
G12  23473824.801 7 123355766.859 7      2635.202 7        47.610               
G15  23314556.323 8 122518826.684 8     -2512.970 8        49.186               
G23  20926299.800 7 109968469.635 7      -208.374 7        45.457               
G24  21510617.208 7 113039041.648 7     -1953.184 7        44.341               
G25  24212725.090 7 127238732.319 7      3653.401 7        44.198               
> 2025 08 05 07 47 29.0000000  0  6                                             
G32  24611510.068 6 129334305.881 6      2275.309 6        40.668               
G12  23473321.019 7 123353133.960 7      2636.010 7        47.981               
G15  23315034.980 8 122521340.708 8     -2514.468 8        49.623               
G23  20926343.526 7 109968679.796 7      -209.966 7        45.686               
G24  21510987.830 7 113040997.084 7     -1953.576 7        44.447               
G25  24212031.227 7 127235078.977 7      3656.741 7        43.466               
> 2025 08 05 07 47 30.0000000  0  6                                             
G32  24611075.189 6 129332030.926 6      2282.179 6        40.294               
G12  23472819.570 7 123350501.434 7      2634.271 7        47.313               
G15  23315514.111 8 122523854.949 8     -2513.652 8        49.371               
G23  20926384.580 7 109968890.590 7      -212.523 7        45.527               
G24  21511357.665 7 113042952.965 7     -1955.379 7        44.383               
G25  24211335.157 7 127231425.722 7      3653.024 7        43.080               
> 2025 08 05 07 47 31.0000000  0  6                                             
G32  24610641.338 6 129329756.027 6      2276.386 6        40.503               
G12  23472319.916 7 123347869.299 7      2627.986 7        47.948               
G15  23315991.330 8 122526369.384 8     -2514.707 8        49.174               
G23  20926425.526 7 109969101.994 7      -212.401 7        46.134               
G24  21511731.145 7 113044909.266 7     -1955.889 7        44.725               
G25  24210642.670 7 127227772.572 7      3655.224 7        42.653               
> 2025 08 05 07 47 32.0000000  0  6                                             
G32  24610206.996 6 129327481.211 6      2275.247 6        40.718               
G12  23471821.371 7 123345237.593 7      2631.514 7        47.012               
G15  23316469.631 8 122528884.065 8     -2514.546 8        49.776               
G23  20926465.776 7 109969314.096 7      -211.753 7        46.112               
G24  21512101.838 7 113046866.077 7     -1955.008 7        44.129               
G25  24209947.118 7 127224119.581 7      3659.164 7        43.212               
> 2025 08 05 07 47 33.0000000  0  6                                             
G32  24609776.084 6 129325206.368 6      2278.138 6        41.046               
G12  23471317.893 7 123342606.233 7      2630.149 7        47.924               
G15  23316949.208 8 122531398.879 8     -2514.439 8        49.342               
G23  20926507.108 7 109969526.770 7      -213.252 7        45.747               
G24  21512475.721 7 113048823.270 7     -1959.481 7        44.559               
G25  24209249.440 7 127220466.642 7      3654.137 7        42.875               
> 2025 08 05 07 47 34.0000000  0  6                                             
G32  24609341.438 6 129322931.594 6      2271.481 6        40.866               
G12  23470816.086 7 123339975.270 7      2634.242 7        47.808               
G15  23317428.134 8 122533913.897 8     -2512.972 8        49.295               
G23  20926545.401 7 109969740.083 7      -211.214 7        45.496               
G24  21512842.777 7 113050780.904 7     -1957.140 7        44.987               
G25  24208556.640 7 127216813.799 7      3646.095 7        42.975               
> 2025 08 05 07 47 35.0000000  0  6                                             
G32  24608912.171 6 129320656.858 6      2274.991 6        40.041               
G12  23470314.878 8 123337344.713 8      2629.689 8        48.053               
G15  23317903.334 8 122536429.116 8     -2513.197 8        49.749               
G23  20926588.224 7 109969954.044 7      -212.348 7        46.021               
G24  21513217.196 7 113052738.996 7     -1959.930 7        43.567               
G25  24207860.927 7 127213161.094 7      3658.362 7        43.164               
> 2025 08 05 07 47 36.0000000  0  6                                             
G32  24608476.703 6 129318382.128 6      2281.260 6        39.952               
G12  23469816.323 7 123334714.497 7      2627.190 7        47.341               
G15  23318385.494 8 122538944.505 8     -2514.749 8        48.850               
G23  20926629.412 7 109970168.595 7      -212.560 7        45.944               
G24  21513593.687 7 113054697.461 7     -1958.356 7        44.400               
G25  24207165.304 7 127209508.446 7      3649.145 7        43.149               
> 2025 08 05 07 47 37.0000000  0  6                                             
G32  24608046.577 6 129316107.547 6      2276.737 6        40.545               
G12  23469314.874 7 123332084.765 7      2628.633 7        47.713               
G15  23318864.696 8 122541460.191 8     -2515.517 8        49.357               
G23  20926670.904 7 109970383.872 7      -213.932 7        46.722               
G24  21513966.087 7 113056656.484 7     -1959.250 7        44.540               
G25  24206470.565 7 127205855.993 7      3660.499 7        43.423               
> 2025 08 05 07 47 38.0000000  0  6                                             
G32  24607610.430 6 129313832.935 6      2276.883 6        40.886               
G12  23468815.863 7 123329455.364 7      2628.745 7        47.816               
G15  23319343.041 8 122543975.997 8     -2513.330 8        49.065               
G23  20926709.564 7 109970599.717 7      -215.480 7        46.298               
G24  21514340.353 7 113058615.873 7     -1957.254 7        44.491               
G25  24205776.845 7 127202203.589 7      3652.502 7        43.505               
> 2025 08 05 07 47 39.0000000  0  6                                             
G32  24607182.601 6 129311558.397 6      2266.456 6        40.729               
G12  23468314.253 8 123326826.409 8      2630.544 8        48.076               
G15  23319820.189 8 122546492.059 8     -2518.454 8        49.681               
G23  20926751.350 7 109970816.245 7      -218.254 7        46.507               
G24  21514715.531 7 113060575.767 7     -1961.152 7        44.994               
G25  24205077.014 7 127198551.350 7      3651.835 7        43.038               
> 2025 08 05 07 47 40.0000000  0  6                                             
G32  24606745.266 6 129309283.864 6      2270.380 6        39.949               
G12  23467814.984 8 123324197.775 8      2626.931 8        48.103               
G15  23320299.543 8 122549008.265 8     -2517.600 8        49.088               
G23  20926792.261 7 109971033.345 7      -218.075 7        46.327               
G24  21515087.698 7 113062536.035 7     -1959.122 7        45.389               
G25  24204384.000 7 127194899.166 7      3653.364 7        43.363               
> 2025 08 05 07 47 41.0000000  0  6                                             
G32  24606311.504 6 129307009.364 6      2278.021 6        40.662               
G12  23467315.777 8 123321569.538 8      2628.632 8        48.174               
G15  23320778.719 8 122551524.658 8     -2514.638 8        48.876               
G23  20926829.250 7 109971251.081 7      -219.909 7        45.728               
G24  21515459.035 7 113064496.741 7     -1961.478 7        45.925               
G25  24203689.797 7 127191247.075 7      3647.065 7        43.159               
> 2025 08 05 07 47 42.0000000  0  7                                             
G32  24605877.216 6 129304734.960 6      2278.296 6        40.790               
G10  22911444.209 6 120400465.483 6      2593.715 6        40.901               
G12  23466814.729 8 123318941.752 8      2628.729 8        48.563               
G15  23321259.360 8 122554041.318 8     -2518.347 8        49.557               
G23  20926873.976 7 109971469.484 7      -220.337 7        45.920               
G24  21515833.507 7 113066457.940 7     -1962.268 7        45.535               
G25  24202997.542 7 127187595.122 7      3650.796 7        43.258               
> 2025 08 05 07 47 43.0000000  0  7                                             
G32  24605444.178 6 129302460.548 6      2279.194 6        40.945               
G10  22910951.650 6 120397870.386 6      2592.559 6        40.885               
G12  23466318.274 8 123316314.305 8      2625.775 8        48.811               
G15  23321735.417 8 122556558.117 8     -2516.558 8        49.727               
G23  20926916.040 7 109971688.491 7      -221.761 7        46.533               
G24  21516207.809 7 113068419.515 7     -1961.108 7        44.834               
G25  24202302.107 7 127183943.262 7      3654.542 7        43.539               
> 2025 08 05 07 47 44.0000000  0  7                                             
G32  24605015.982 6 129300186.192 6      2267.077 6        40.414               
G10  22910449.182 6 120395275.643 6      2592.123 6        40.531               
G12  23465816.226 8 123313687.261 8      2625.054 8        48.600               
G15  23322218.542 8 122559075.140 8     -2515.716 8        49.337               
G23  20926960.141 7 109971908.134 7      -220.375 7        46.455               
G24  21516583.907 7 113070381.556 7     -1961.996 7        45.353               
G25  24201605.259 7 127180291.503 7      3657.817 7        43.578               
> 2025 08 05 07 47 45.0000000  0  7                                             
G32  24604579.656 6 129297911.872 6      2274.981 6        40.084               
G10  22909962.992 6 120392681.199 6      2593.906 6        40.423               
G12  23465316.430 8 123311060.585 8      2626.007 8        48.257               
G15  23322696.592 8 122561592.323 8     -2518.348 8        49.745               
G23  20927002.383 7 109972128.385 7      -219.962 7        46.766               
G24  21516952.751 7 113072344.007 7     -1964.524 7        45.742               
G25  24200907.992 7 127176639.834 7      3656.082 7        43.970               
> 2025 08 05 07 47 46.0000000  0  7                                             
G32  24604145.520 6 129295637.569 6      2276.372 6        40.837               
G10  22909467.904 6 120390087.136 6      2595.345 6        40.953               
G12  23464817.142 8 123308434.314 8      2623.729 8        48.813               
G15  23323174.249 8 122564109.726 8     -2519.185 8        49.657               
G23  20927042.937 7 109972349.275 7      -223.254 7        46.759               
G24  21517326.553 7 113074306.917 7     -1965.928 7        45.134               
G25  24200216.827 7 127172988.305 7      3647.765 7        44.354               
> 2025 08 05 07 47 47.0000000  0  7                                             
G32  24603717.726 6 129293363.293 6      2276.198 6        40.943               
G10  22908970.976 6 120387493.358 6      2597.612 6        40.716               
G12  23464318.525 8 123305808.414 8      2626.679 8        48.043               
G15  23323655.149 8 122566627.292 8     -2519.360 8        49.508               
G23  20927081.954 7 109972570.781 7      -224.256 7        46.017               
G24  21517701.079 7 113076270.232 7     -1965.353 7        45.587               
G25  24199523.277 7 127169336.844 7      3650.298 7        44.080               
> 2025 08 05 07 47 48.0000000  0  7                                             
G32  24603285.564 6 129291089.131 6      2271.384 6        41.002               
G10  22908476.977 6 120384900.004 6      2601.773 6        41.378               
G12  23463819.283 8 123303182.971 8      2625.975 8        48.292               
G15  23324134.378 8 122569145.119 8     -2520.335 8        49.816               
G23  20927122.615 7 109972792.997 7      -223.152 7        46.205               
G24  21518076.891 7 113078234.064 7     -1961.752 7        45.251               
G25  24198827.269 7 127165685.554 7      3658.195 7        44.394               
> 2025 08 05 07 47 49.0000000  0  7                                             
G32  24602847.335 6 129288815.046 6      2276.306 6        40.371               
G10  22907978.905 6 120382307.023 6      2588.996 6        41.121               
G12  23463319.468 7 123300557.940 7      2623.504 7        47.942               
G15  23324611.428 8 122571663.171 8     -2517.851 8        49.155               
G23  20927169.700 7 109973015.868 7      -225.861 7        45.743               
G24  21518449.353 7 113080198.353 7     -1962.622 7        45.338               
G25  24198131.584 7 127162034.406 7      3656.976 7        44.670               
> 2025 08 05 07 47 50.0000000  0  7                                             
G32  24602419.720 6 129286540.968 6      2269.039 6        40.193               
G10  22907480.190 6 120379714.355 6      2585.355 6        40.615               
G12  23462819.502 8 123297933.271 8      2623.558 8        48.225               
G15  23325089.638 8 122574181.401 8     -2520.247 8        48.936               
G23  20927212.237 7 109973239.328 7      -226.644 7        46.507               
G24  21518823.477 7 113082163.064 7     -1964.200 7        45.217               
G25  24197439.668 7 127158383.331 7      3648.285 7        44.695               
> 2025 08 05 07 47 51.0000000  0  7                                             
G32  24601984.994 6 129284266.959 6      2272.894 6        40.094               
G10  22906994.242 6 120377122.049 6      2589.484 6        40.779               
G12  23462321.832 8 123295309.035 8      2625.062 8        48.488               
G15  23325568.877 8 122576699.862 8     -2519.699 8        48.838               
G23  20927261.913 7 109973463.464 7      -225.488 7        46.574               
G24  21519194.447 7 113084128.224 7     -1961.574 7        44.691               
G25  24196743.634 7 127154732.422 7      3651.812 7        44.744               
> 2025 08 05 07 47 52.0000000  0  7                                             
G32  24601552.966 6 129281992.948 6      2269.930 6        40.654               
G10  22906491.934 6 120374530.049 6      2593.242 6        41.253               
G12  23461820.713 8 123292685.131 8      2623.219 8        48.057               
G15  23326049.544 8 122579218.462 8     -2518.566 8        49.157               
G23  20927300.841 7 109973688.169 7      -225.436 7        46.114               
G24  21519570.125 7 113086093.776 7     -1967.147 7        44.762               
G25  24196050.995 7 127151081.542 7      3649.080 7        44.546               
> 2025 08 05 07 47 53.0000000  0  7                                             
G32  24601122.787 6 129279718.948 6      2275.483 6        40.722               
G10  22906001.519 6 120371938.328 6      2594.780 6        40.834               
G12  23461319.406 7 123290061.587 7      2622.362 7        47.962               
G15  23326527.603 8 122581737.239 8     -2519.105 8        48.725               
G23  20927344.378 7 109973913.464 7      -222.295 7        46.729               
G24  21519943.293 7 113088059.737 7     -1964.733 7        44.597               
G25  24195352.665 7 127147430.741 7      3651.346 7        44.246               
> 2025 08 05 07 47 54.0000000  0  7                                             
G32  24600689.793 6 129277444.965 6      2271.338 6        40.928               
G10  22905508.093 6 120369346.990 6      2586.924 6        40.818               
G12  23460826.713 8 123287438.426 8      2622.103 8        48.717               
G15  23327008.262 8 122584256.209 8     -2519.104 8        48.834               
G23  20927383.145 7 109974139.425 7      -224.571 7        47.001               
G24  21520317.640 7 113090026.131 7     -1965.525 7        44.664               
G25  24194658.918 7 127143780.064 7      3649.014 7        44.408               
> 2025 08 05 07 47 55.0000000  0  7                                             
G32  24600265.771 6 129275171.055 6      2271.330 6        41.495               
G10  22905017.686 6 120366755.961 6      2601.395 6        40.878               
G12  23460325.889 8 123284815.678 8      2619.488 8        48.736               
G15  23327486.741 8 122586775.380 8     -2515.901 8        48.711               
G23  20927424.610 7 109974366.007 7      -228.042 7        46.446               
G24  21520689.959 7 113091992.979 7     -1969.482 7        44.463               
G25  24193968.879 7 127140129.487 7      3649.467 7        44.495               
> 2025 08 05 07 47 56.0000000  0  7                                             
G32  24599824.754 6 129272897.178 6      2274.270 6        41.512               
G10  22904523.126 6 120364165.294 6      2590.927 6        40.306               
G12  23459825.708 8 123282193.308 8      2622.549 8        49.024               
G15  23327965.032 8 122589294.749 8     -2518.344 8        48.220               
G23  20927469.006 7 109974593.220 7      -229.240 7        46.659               
G24  21521063.582 7 113093960.258 7     -1966.828 7        44.309               
G25  24193269.289 7 127136479.025 7      3652.789 7        44.460               
> 2025 08 05 07 47 57.0000000  0  7                                             
G32  24599396.157 6 129270623.318 6      2267.152 6        41.337               
G10  22904036.963 6 120361574.924 6      2590.408 6        41.177               
G12  23459326.555 8 123279571.330 8      2621.462 8        48.957               
G15  23328444.145 8 122591814.298 8     -2518.171 8        48.571               
G23  20927512.749 7 109974821.044 7      -225.838 7        46.569               
G24  21521439.582 7 113095927.963 7     -1970.546 7        44.773               
G25  24192574.085 7 127132828.643 7      3653.583 7        44.674               
> 2025 08 05 07 47 58.0000000  0  7                                             
G32  24598960.447 6 129268349.507 6      2261.514 6        41.999               
G10  22903538.855 6 120358984.924 6      2591.228 6        40.935               
G12  23458828.777 8 123276949.730 8      2620.795 8        48.775               
G15  23328926.037 8 122594334.041 8     -2521.287 8        48.580               
G23  20927557.985 7 109975049.495 7      -227.710 7        46.984               
G24  21521815.341 7 113097896.096 7     -1969.820 7        45.006               
G25  24191880.794 7 127129178.374 7      3644.248 7        44.699               
> 2025 08 05 07 47 59.0000000  0  7                                             
G32  24598527.445 7 129266075.798 7      2270.667 7        42.127               
G10  22903049.083 6 120356395.318 6      2588.356 6        41.473               
G12  23458329.374 8 123274328.592 8      2617.940 8        48.451               
G15  23329400.808 8 122596854.039 8     -2518.612 8        49.122               
G23  20927605.168 7 109975278.651 7      -228.337 7        46.083               
G24  21522191.636 7 113099864.726 7     -1972.181 7        44.176               
G25  24191185.564 7 127125528.266 7      3652.405 7        44.336               
> 2025 08 05 07 48 00.0000000  0  7                                             
G32  24598099.571 6 129263802.086 6      2274.764 6        41.349               
G10  22902558.337 6 120353806.011 6      2587.826 6        41.170               
G12  23457827.951 8 123271707.800 8      2621.748 8        48.204               
G15  23329883.138 8 122599374.213 8     -2520.968 8        48.973               
G23  20927645.132 7 109975508.392 7      -232.694 7        46.142               
G24  21522562.212 7 113101833.760 7     -1969.094 7        44.641               
G25  24190490.798 7 127121878.225 7      3655.241 7        44.697               
> 2025 08 05 07 48 01.0000000  0  7                                             
G32  24597668.258 6 129261528.373 6      2270.784 6        41.588               
G10  22902063.329 6 120351216.992 6      2581.302 6        41.354               
G12  23457328.762 8 123269087.355 8      2618.969 8        48.447               
G15  23330360.500 8 122601894.526 8     -2520.091 8        49.015               
G23  20927685.203 7 109975738.710 7      -232.988 7        45.705               
G24  21522940.205 7 113103803.194 7     -1967.673 7        45.214               
G25  24189796.855 7 127118228.271 7      3648.466 7        44.554               
> 2025 08 05 07 48 02.0000000  0  7                                             
G32  24597231.968 6 129259254.709 6      2271.802 6        41.923               
G10  22901570.752 6 120348628.342 6      2594.596 6        41.130               
G12  23456830.654 8 123266467.312 8      2618.593 8        48.689               
G15  23330841.221 8 122604415.042 8     -2521.873 8        49.393               
G23  20927727.544 7 109975969.690 7      -231.430 7        46.036               
G24  21523315.383 7 113105773.084 7     -1973.067 7        44.897               
G25  24189103.340 7 127114578.422 7      3652.469 7        44.568               
> 2025 08 05 07 48 03.0000000  0  7                                             
G32  24596800.315 7 129256981.097 7      2275.861 7        42.145               
G10  22901079.041 6 120346040.062 6      2588.166 6        41.055               
G12  23456330.018 8 123263847.698 8      2618.809 8        48.565               
G15  23331321.710 8 122606935.798 8     -2520.317 8        48.659               
G23  20927772.074 7 109976201.329 7      -230.954 7        45.877               
G24  21523690.695 7 113107743.410 7     -1970.067 7        44.998               
G25  24188405.644 7 127110928.731 7      3646.788 7        44.317               
> 2025 08 05 07 48 04.0000000  0  7                                             
G32  24596369.064 7 129254707.540 7      2275.146 7        42.572               
G10  22900579.906 6 120343452.088 6      2586.257 6        41.237               
G12  23455832.705 8 123261228.461 8      2617.950 8        48.355               
G15  23331802.119 8 122609456.723 8     -2520.646 8        49.175               
G23  20927817.925 7 109976433.581 7      -233.941 7        45.862               
G24  21524067.919 7 113109714.177 7     -1970.267 7        44.939               
G25  24187710.575 7 127107279.114 7      3649.479 7        43.706               
> 2025 08 05 07 48 05.0000000  0  7                                             
G32  24595939.743 7 129252434.045 7      2273.444 7        42.664               
G10  22900091.036 6 120340864.479 6      2585.922 6        40.971               
G12  23455336.026 8 123258609.637 8      2617.042 8        48.099               
G15  23332283.850 8 122611977.858 8     -2519.932 8        48.752               
G23  20927867.012 7 109976666.481 7      -231.133 7        45.565               
G24  21524441.462 7 113111685.388 7     -1971.462 7        44.154               
G25  24187017.007 7 127103629.633 7      3654.603 7        43.519               
> 2025 08 05 07 48 06.0000000  0  7                                             
G32  24595503.989 7 129250160.580 7      2268.242 7        42.621               
G10  22899602.694 6 120338277.232 6      2586.061 6        40.882               
G12  23454836.882 8 123255991.204 8      2616.344 8        48.599               
G15  23332764.062 8 122614499.206 8     -2520.046 8        49.201               
G23  20927911.371 7 109976900.007 7      -232.700 7        45.680               
G24  21524815.997 7 113113657.036 7     -1972.648 7        44.804               
G25  24186323.322 7 127099980.253 7      3645.930 7        43.982               
> 2025 08 05 07 48 07.0000000  0  7                                             
G32  24595074.533 7 129247887.091 7      2276.684 7        42.785               
G10  22899106.971 6 120335690.262 6      2585.679 6        40.946               
G12  23454337.005 7 123253373.100 7      2618.814 7        47.795               
G15  23333243.157 8 122617020.677 8     -2522.924 8        49.359               
G23  20927955.526 7 109977134.112 7      -238.040 7        45.951               
G24  21525187.511 7 113115629.073 7     -1976.501 7        44.990               
G25  24185627.127 7 127096330.926 7      3645.358 7        43.842               
> 2025 08 05 07 48 08.0000000  0  7                                             
G32  24594637.582 7 129245613.659 7      2272.304 7        42.590               
G10  22898616.672 6 120333103.633 6      2589.980 6        40.710               
G12  23453841.604 8 123250755.415 8      2621.022 8        48.174               
G15  23333722.369 8 122619542.356 8     -2524.065 8        49.733               
G23  20927993.792 7 109977368.864 7      -234.672 7        45.998               
G24  21525563.976 7 113117601.558 7     -1975.173 7        44.644               
G25  24184935.239 7 127092681.729 7      3651.106 7        43.760               
> 2025 08 05 07 48 09.0000000  0  7                                             
G32  24594204.169 7 129243340.268 7      2275.429 7        42.443               
G10  22898122.486 6 120330517.372 6      2582.236 6        41.283               
G12  23453343.514 8 123248138.115 8      2618.122 8        48.476               
G15  23334202.384 8 122622064.236 8     -2522.155 8        49.920               
G23  20928036.499 7 109977604.243 7      -235.814 7        45.997               
G24  21525939.735 7 113119574.474 7     -1972.401 7        45.344               
G25  24184236.337 7 127089032.625 7      3647.845 7        43.533               
> 2025 08 05 07 48 10.0000000  0  7                                             
G32  24593775.080 7 129241066.893 7      2265.899 7        43.007               
G10  22897627.979 6 120327931.402 6      2585.477 6        41.326               
G12  23452843.861 8 123245521.191 8      2615.085 8        48.160               
G15  23334680.997 8 122624586.294 8     -2521.701 8        48.934               
G23  20928080.466 7 109977840.242 7      -233.734 7        45.977               
G24  21526317.173 7 113121547.792 7     -1973.277 7        45.108               
G25  24183545.931 7 127085383.616 7      3647.589 7        43.027               
> 2025 08 05 07 48 11.0000000  0  7                                             
G32  24593342.355 7 129238793.545 7      2272.636 7        42.563               
G10  22897134.427 6 120325345.788 6      2585.828 6        41.095               
G12  23452345.610 7 123242904.636 7      2620.422 7        47.688               
G15  23335158.145 8 122627108.539 8     -2521.239 8        48.572               
G23  20928130.097 7 109978076.855 7      -236.924 7        45.626               
G24  21526692.012 7 113123521.536 7     -1974.854 7        45.058               
G25  24182853.364 7 127081734.677 7      3650.416 7        42.994               
> 2025 08 05 07 48 12.0000000  0  7                                             
G32  24592908.236 7 129236520.195 7      2276.460 7        42.694               
G10  22896641.716 6 120322760.452 6      2585.300 6        41.180               
G12  23451847.493 7 123240288.440 7      2614.365 7        47.925               
G15  23335642.011 8 122629630.923 8     -2522.475 8        49.103               
G23  20928175.896 7 109978314.047 7      -239.841 7        45.437               
G24  21527070.192 7 113125495.681 7     -1972.679 7        44.544               
G25  24182156.784 7 127078085.836 7      3649.223 7        43.651               
> 2025 08 05 07 48 13.0000000  0  7                                             
G32  24592477.512 7 129234246.883 7      2277.368 7        42.540               
G10  22896152.096 6 120320175.471 6      2581.287 6        40.735               
G12  23451351.708 7 123237672.639 7      2613.792 7        47.984               
G15  23336120.454 8 122632153.527 8     -2525.343 8        49.040               
G23  20928226.510 7 109978551.882 7      -237.490 7        45.523               
G24  21527443.806 7 113127470.272 7     -1971.485 7        44.441               
G25  24181462.671 7 127074437.101 7      3645.105 7        43.918               
> 2025 08 05 07 48 14.0000000  0  7                                             
G32  24592043.938 7 129231973.549 7      2269.834 7        42.963               
G10  22895657.240 6 120317590.744 6      2587.965 6        41.260               
G12  23450851.125 7 123235057.140 7      2618.639 7        47.668               
G15  23336599.898 8 122634676.235 8     -2524.112 8        48.219               
G23  20928271.012 7 109978790.257 7      -236.949 7        45.805               
G24  21527818.618 7 113129445.201 7     -1974.221 7        43.901               
G25  24180769.800 7 127070788.388 7      3650.117 7        44.208               
> 2025 08 05 07 48 15.0000000  0  7                                             
G32  24591611.213 7 129229700.306 7      2268.815 7        42.601               
G10  22895166.664 6 120315006.426 6      2576.368 6        41.144               
G12  23450354.974 7 123232442.112 7      2614.175 7        47.178               
G15  23337079.261 8 122637199.199 8     -2523.131 8        48.272               
G23  20928316.007 7 109979029.311 7      -238.448 7        45.641               
G24  21528196.932 7 113131420.626 7     -1978.441 7        44.442               
G25  24180076.240 7 127067139.847 7      3651.403 7        43.729               
> 2025 08 05 07 48 16.0000000  0  7                                             
G32  24591179.301 7 129227427.048 7      2270.903 7        42.091               
G10  22894671.102 6 120312422.402 6      2588.118 6        41.111               
G12  23449856.723 7 123229827.430 7      2610.885 7        47.963               
G15  23337559.634 8 122639722.331 8     -2520.970 8        48.675               
G23  20928358.213 7 109979268.978 7      -240.229 7        46.129               
G24  21528571.618 7 113133396.440 7     -1975.894 7        45.185               
G25  24179379.402 7 127063491.363 7      3642.740 7        44.193               
> 2025 08 05 07 48 17.0000000  0  7                                             
G32  24590743.163 6 129225153.769 6      2267.973 6        41.667               
G10  22894182.188 6 120309838.649 6      2586.041 6        41.237               
G12  23449361.161 8 123227213.076 8      2613.984 8        48.670               
G15  23338042.035 8 122642245.592 8     -2524.302 8        48.822               
G23  20928399.339 7 109979509.211 7      -240.801 7        45.819               
G24  21528950.290 7 113135372.640 7     -1977.578 7        44.996               
G25  24178686.048 7 127059842.949 7      3649.633 7        44.222               
> 2025 08 05 07 48 18.0000000  0  7                                             
G32  24590308.445 7 129222880.582 7      2266.113 7        42.340               
G10  22893691.094 6 120307255.301 6      2580.798 6        41.416               
G12  23448864.349 8 123224599.167 8      2613.450 8        48.450               
G15  23338521.318 8 122644769.088 8     -2522.069 8        48.874               
G23  20928446.727 7 109979750.119 7      -243.135 7        45.790               
G24  21529322.939 7 113137349.319 7     -1978.323 7        44.991               
G25  24177992.712 7 127056194.680 7      3647.899 7        44.146               
> 2025 08 05 07 48 19.0000000  0  7                                             
G32  24589878.114 6 129220607.448 6      2270.406 6        41.352               
G10  22893204.163 6 120304672.283 6      2585.672 6        41.396               
G12  23448366.947 8 123221985.644 8      2613.762 8        48.587               
G15  23339002.013 8 122647292.780 8     -2522.454 8        48.928               
G23  20928493.750 7 109979991.649 7      -240.628 7        45.431               
G24  21529699.913 7 113139326.410 7     -1982.199 7        45.199               
G25  24177298.894 7 127052546.523 7      3649.048 7        43.934               
> 2025 08 05 07 48 20.0000000  0  7                                             
G32  24589441.512 7 129218334.326 7      2273.936 7        42.058               
G10  22892711.621 6 120302089.610 6      2583.266 6        41.517               
G12  23447867.025 7 123219372.514 7      2613.232 7        47.752               
G15  23339482.154 8 122649816.652 8     -2522.118 8        48.632               
G23  20928540.388 7 109980233.816 7      -240.863 7        45.840               
G24  21530075.082 7 113141303.936 7     -1974.637 7        44.794               
G25  24176602.136 7 127048898.475 7      3648.425 7        43.256               
> 2025 08 05 07 48 21.0000000  0  7                                             
G32  24589007.670 6 129216061.232 6      2279.093 6        41.828               
G10  22892223.368 6 120299507.279 6      2579.736 6        41.729               
G12  23447370.695 8 123216759.775 8      2612.652 8        48.146               
G15  23339961.365 8 122652340.715 8     -2523.740 8        49.041               
G23  20928585.212 7 109980476.600 7      -240.501 7        45.925               
G24  21530447.866 7 113143281.891 7     -1975.597 7        44.647               
G25  24175906.039 7 127045250.504 7      3646.074 7        43.539               
> 2025 08 05 07 48 22.0000000  0  7                                             
G32  24588583.280 7 129213788.197 7      2270.040 7        42.428               
G10  22891736.446 6 120296925.269 6      2583.001 6        41.903               
G12  23446873.561 8 123214147.433 8      2608.603 8        48.285               
G15  23340445.303 8 122654864.983 8     -2521.398 8        48.830               
G23  20928628.375 7 109980720.020 7      -242.809 7        45.087               
G24  21530826.555 7 113145260.295 7     -1976.199 7        44.826               
G25  24175215.991 7 127041602.680 7      3646.141 7        44.424               
> 2025 08 05 07 48 23.0000000  0  7                                             
G32  24588145.632 7 129211515.214 7      2274.514 7        42.543               
G10  22891240.321 6 120294343.631 6      2583.125 6        41.440               
G12  23446375.408 7 123211535.497 7      2612.461 7        47.332               
G15  23340921.325 8 122657389.471 8     -2524.670 8        48.653               
G23  20928674.334 7 109980964.088 7      -244.519 7        45.220               
G24  21531204.128 7 113147239.140 7     -1979.512 7        44.961               
G25  24174521.324 7 127037954.968 7      3647.675 7        43.720               
> 2025 08 05 07 48 24.0000000  0  7                                             
G32  24587716.901 7 129209242.292 7      2273.583 7        42.680               
G10  22890746.207 6 120291762.341 6      2585.075 6        41.935               
G12  23445877.149 8 123208923.955 8      2612.788 8        48.136               
G15  23341401.608 8 122659914.146 8     -2523.547 8        48.754               
G23  20928721.562 7 109981208.805 7      -244.880 7        45.194               
G24  21531583.371 7 113149218.430 7     -1983.680 7        44.672               
G25  24173826.666 7 127034307.385 7      3647.537 7        43.539               
> 2025 08 05 07 48 25.0000000  0  7                                             
G32  24587280.557 7 129206969.388 7      2274.127 7        42.622               
G10  22890254.344 7 120289181.413 7      2582.107 7        42.291               
G12  23445379.800 7 123206312.828 7      2611.942 7        47.873               
G15  23341882.008 8 122662439.016 8     -2523.490 8        48.677               
G23  20928770.139 7 109981454.148 7      -244.052 7        45.922               
G24  21531954.028 7 113151198.156 7     -1978.897 7        44.986               
G25  24173131.096 7 127030659.898 7      3647.759 7        43.540               
> 2025 08 05 07 48 26.0000000  0  7                                             
G32  24586851.790 7 129204696.546 7      2273.201 7        42.235               
G10  22889768.789 7 120286600.821 7      2580.993 7        42.351               
G12  23444881.987 7 123203702.096 7      2609.415 7        47.773               
G15  23342361.595 8 122664964.120 8     -2524.985 8        48.964               
G23  20928820.476 7 109981700.128 7      -248.302 7        45.385               
G24  21532337.265 7 113153178.323 7     -1980.032 7        44.738               
G25  24172438.019 7 127027012.560 7      3642.354 7        43.552               
> 2025 08 05 07 48 27.0000000  0  7                                             
G32  24586421.870 7 129202423.763 7      2271.351 7        42.152               
G10  22889274.345 6 120284020.577 6      2585.350 6        41.741               
G12  23444385.568 7 123201091.763 7      2614.074 7        47.408               
G15  23342842.209 8 122667489.413 8     -2527.803 8        48.614               
G23  20928868.633 7 109981946.749 7      -242.342 7        45.483               
G24  21532712.514 7 113155158.925 7     -1982.512 7        44.829               
G25  24171738.831 7 127023365.308 7      3647.085 7        43.471               
> 2025 08 05 07 48 28.0000000  0  7                                             
G32  24585988.234 7 129200151.017 7      2269.037 7        43.018               
G10  22888779.355 6 120281440.683 6      2575.575 6        41.860               
G12  23443888.987 7 123198481.842 7      2609.590 7        47.979               
G15  23343323.493 8 122670014.913 8     -2523.296 8        48.992               
G23  20928916.683 7 109982194.009 7      -246.537 7        45.822               
G24  21533087.362 7 113157139.989 7     -1983.091 7        44.346               
G25  24171050.356 7 127019718.184 7      3651.079 7        43.873               
> 2025 08 05 07 48 29.0000000  0  7                                             
G32  24585550.067 7 129197878.275 7      2269.977 7        42.251               
G10  22888288.582 7 120278861.122 7      2579.049 7        42.156               
G12  23443392.997 7 123195872.290 7      2612.348 7        47.837               
G15  23343804.483 7 122672540.577 7     -2525.811 7        47.975               
G23  20928964.786 7 109982441.866 7      -250.599 7        44.618               
G24  21533465.068 7 113159121.435 7     -1982.851 7        44.836               
G25  24170353.303 7 127016071.138 7      3641.631 7        44.063               
> 2025 08 05 07 48 30.0000000  0  7                                             
G32  24585117.816 7 129195605.575 7      2269.250 7        42.041               
G10  22887802.277 7 120276281.881 7      2580.449 7        42.131               
G12  23442897.364 7 123193263.122 7      2608.146 7        47.799               
G15  23344285.088 8 122675066.440 8     -2529.726 8        48.464               
G23  20929007.734 7 109982690.347 7      -249.198 7        44.714               
G24  21533839.576 7 113161103.313 7     -1982.334 7        45.154               
G25  24169662.487 7 127012424.193 7      3643.670 7        44.114               
> 2025 08 05 07 48 31.0000000  0  7                                             
G32  24584683.965 7 129193332.880 7      2267.536 7        42.209               
G10  22887310.387 7 120273702.974 7      2582.729 7        42.488               
G12  23442401.936 7 123190654.342 7      2608.091 7        47.562               
G15  23344768.132 8 122677592.488 8     -2527.611 8        48.324               
G23  20929058.250 7 109982939.444 7      -250.076 7        44.723               
G24  21534220.151 7 113163085.608 7     -1982.480 7        44.244               
G25  24168967.864 7 127008777.355 7      3647.397 7        43.821               
> 2025 08 05 07 48 32.0000000  0  7                                             
G32  24584245.557 7 129191060.231 7      2283.407 7        42.209               
G10  22886818.399 6 120271124.403 6      2585.071 6        41.926               
G12  23441903.417 7 123188045.932 7      2607.058 7        47.326               
G15  23345248.523 8 122680118.710 8     -2524.405 8        48.784               
G23  20929105.666 7 109983189.181 7      -250.517 7        45.241               
G24  21534596.177 7 113165068.336 7     -1984.413 7        44.442               
G25  24168272.321 7 127005130.642 7      3645.590 7        43.392               
> 2025 08 05 07 48 33.0000000  0  7                                             
G32  24583817.120 7 129188787.708 7      2270.974 7        42.109               
G10  22886329.253 7 120268546.228 7      2579.744 7        42.684               
G12  23441404.318 7 123185437.986 7      2607.028 7        46.891               
G15  23345726.627 8 122682645.201 8     -2526.122 8        48.757               
G23  20929150.061 7 109983439.594 7      -249.675 7        45.016               
G24  21534980.513 7 113167051.559 7     -1987.544 7        44.551               
G25  24167575.858 7 127001484.046 7      3649.505 7        43.638               
> 2025 08 05 07 48 34.0000000  0  7                                             
G32  24583386.352 7 129186515.217 7      2274.279 7        42.919               
G10  22885831.547 7 120265968.432 7      2575.492 7        42.306               
G12  23440911.142 7 123182830.466 7      2611.998 7        47.120               
G15  23346208.286 8 122685171.908 8     -2527.868 8        48.433               
G23  20929197.271 7 109983690.671 7      -252.618 7        45.101               
G24  21535350.643 7 113169035.233 7     -1984.882 7        44.909               
G25  24166882.960 7 126997837.622 7      3648.917 7        44.171               
> 2025 08 05 07 48 35.0000000  0  7                                             
G32  24582949.731 7 129184242.820 7      2275.687 7        42.479               
G10  22885353.792 7 120263391.011 7      2583.400 7        42.290               
G12  23440415.223 7 123180223.384 7      2603.132 7        47.617               
G15  23346688.748 8 122687698.845 8     -2526.086 8        48.321               
G23  20929242.676 7 109983942.419 7      -253.333 7        45.162               
G24  21535731.379 7 113171019.389 7     -1982.156 7        44.636               
G25  24166187.525 7 126994191.346 7      3651.400 7        43.455               
> 2025 08 05 07 48 36.0000000  0  7                                             
G32  24582516.184 7 129181970.458 7      2273.547 7        42.668               
G10  22884860.428 6 120260813.954 6      2577.241 6        41.981               
G12  23439918.276 7 123177616.692 7      2605.726 7        47.270               
G15  23347171.820 8 122690225.979 8     -2526.245 8        48.620               
G23  20929292.763 7 109984194.797 7      -250.561 7        45.077               
G24  21536109.228 7 113173003.971 7     -1984.607 7        44.841               
G25  24165494.912 7 126990545.183 7      3647.220 7        42.673               
> 2025 08 05 07 48 37.0000000  0  7                                             
G32  24582085.880 7 129179698.103 7      2271.510 7        42.224               
G10  22884366.930 7 120258237.212 7      2574.469 7        42.379               
G12  23439423.858 7 123175010.380 7      2604.385 7        47.428               
G15  23347650.960 8 122692753.305 8     -2528.461 8        48.943               
G23  20929341.260 7 109984447.799 7      -252.701 7        44.769               
G24  21536486.747 7 113174988.975 7     -1982.278 7        45.076               
G25  24164797.877 7 126986899.094 7      3647.171 7        42.106               
> 2025 08 05 07 48 38.0000000  0  7                                             
G32  24581657.774 7 129177425.797 7      2270.082 7        42.340               
G10  22883873.352 7 120255660.788 7      2577.519 7        42.158               
G12  23438930.316 7 123172404.449 7      2605.766 7        47.257               
G15  23348130.421 8 122695280.790 8     -2529.018 8        48.732               
G23  20929388.916 7 109984701.401 7      -249.850 7        45.423               
G24  21536866.401 7 113176974.382 7     -1983.007 7        45.270               
G25  24164104.211 7 126983253.120 7      3649.505 7        42.021               
> 2025 08 05 07 48 39.0000000  0  7                                             
G32  24581224.513 7 129175153.585 7      2273.385 7        42.581               
G10  22883386.278 7 120253084.788 7      2572.619 7        42.369               
G12  23438434.665 7 123169798.973 7      2606.688 7        47.412               
G15  23348615.512 8 122697808.548 8     -2525.956 8        48.844               
G23  20929443.435 7 109984955.708 7      -253.837 7        46.121               
G24  21537246.681 7 113178960.305 7     -1987.894 7        45.092               
G25  24163412.233 6 126979607.297 6      3649.044 6        41.523               
> 2025 08 05 07 48 40.0000000  0  7                                             
G32  24580793.137 7 129172881.341 7      2271.142 7        42.818               
G10  22882895.720 7 120250509.047 7      2575.348 7        42.901               
G12  23437941.131 7 123167193.823 7      2610.379 7        47.628               
G15  23349095.545 8 122700336.421 8     -2525.800 8        48.859               
G23  20929493.155 7 109985210.562 7      -255.050 7        45.355               
G24  21537624.396 7 113180946.561 7     -1988.605 7        45.180               
G25  24162718.039 7 126975961.557 7      3645.918 7        42.425               
> 2025 08 05 07 48 41.0000000  0  7                                             
G32  24580361.600 7 129170609.122 7      2271.793 7        42.741               
G10  22882402.374 6 120247933.661 6      2572.931 6        41.968               
G12  23437442.577 7 123164589.081 7      2602.946 7        47.956               
G15  23349576.284 8 122702864.497 8     -2529.148 8        48.074               
G23  20929537.935 7 109985466.054 7      -253.531 7        45.821               
G24  21538002.522 7 113182933.245 7     -1985.383 7        45.462               
G25  24162022.380 6 126972315.885 6      3642.496 6        41.832               
> 2025 08 05 07 48 42.0000000  0  7                                             
G32  24579931.332 7 129168337.005 7      2271.623 7        43.150               
G10  22881916.024 7 120245358.655 7      2571.001 7        42.104               
G12  23436946.970 7 123161984.806 7      2604.868 7        47.968               
G15  23350057.390 8 122705392.819 8     -2526.742 8        48.628               
G23  20929586.771 7 109985722.240 7      -255.419 7        45.228               
G24  21538380.819 7 113184920.443 7     -1988.600 7        45.097               
G25  24161330.697 7 126968670.418 7      3645.784 7        42.480               
> 2025 08 05 07 48 43.0000000  0  7                                             
G32  24579494.059 7 129166064.920 7      2270.682 7        42.971               
G10  22881427.896 7 120242783.984 7      2576.628 7        42.299               
G12  23436452.150 7 123159380.904 7      2603.416 7        47.827               
G15  23350538.942 8 122707921.311 8     -2530.343 8        48.429               
G23  20929630.693 7 109985979.029 7      -258.703 7        45.800               
G24  21538759.606 7 113186908.043 7     -1988.332 7        45.677               
G25  24160641.400 7 126965025.030 7      3638.925 7        43.026               
> 2025 08 05 07 48 44.0000000  0  7                                             
G32  24579065.032 7 129163792.832 7      2269.682 7        42.767               
G10  22880936.051 7 120240209.619 7      2580.142 7        42.616               
G12  23435956.571 7 123156777.373 7      2601.995 7        47.773               
G15  23351019.985 8 122710449.975 8     -2527.941 8        48.462               
G23  20929682.558 7 109986236.420 7      -260.822 7        45.709               
G24  21539137.554 7 113188896.041 7     -1991.761 7        45.126               
G25  24159943.114 7 126961379.705 7      3641.678 7        43.035               
> 2025 08 05 07 48 45.0000000  0  7                                             
G32  24578630.485 7 129161520.864 7      2265.905 7        43.168               
G10  22880447.271 7 120237635.685 7      2570.597 7        42.782               
G12  23435460.956 7 123154174.307 7      2600.839 7        47.251               
G15  23351501.913 8 122712978.900 8     -2531.887 8        49.087               
G23  20929732.207 7 109986494.517 7      -262.122 7        45.834               
G24  21539515.707 7 113190884.551 7     -1988.990 7        44.736               
G25  24159251.949 7 126957734.590 7      3643.337 7        42.671               
> 2025 08 05 07 48 46.0000000  0  7                                             
G32  24578196.696 7 129159248.873 7      2272.153 7        43.590               
G10  22879958.669 7 120235062.025 7      2573.227 7        42.890               
G12  23434964.429 7 123151571.572 7      2604.141 7        46.986               
G15  23351983.125 8 122715507.973 8     -2527.537 8        49.101               
G23  20929784.402 7 109986753.183 7      -257.462 7        45.030               
G24  21539893.146 7 113192873.425 7     -1987.546 7        45.330               
G25  24158559.498 7 126954089.504 7      3644.245 7        42.959               
> 2025 08 05 07 48 47.0000000  0  7                                             
G32  24577769.323 7 129156976.928 7      2274.175 7        43.676               
G10  22879464.188 7 120232488.711 7      2575.562 7        42.625               
G12  23434468.957 7 123148969.233 7      2600.709 7        47.337               
G15  23352463.257 8 122718037.235 8     -2529.158 8        48.809               
G23  20929832.711 7 109987012.476 7      -258.298 7        45.856               
G24  21540268.493 7 113194862.727 7     -1989.334 7        45.166               
G25  24157865.831 7 126950444.545 7      3645.172 7        43.725               
> 2025 08 05 07 48 48.0000000  0  7                                             
G32  24577335.829 7 129154704.982 7      2269.064 7        42.985               
G10  22878977.445 7 120229915.735 7      2573.648 7        43.319               
G12  23433975.414 7 123146367.263 7      2600.517 7        47.549               
G15  23352944.023 8 122720566.678 8     -2526.406 8        49.120               
G23  20929883.299 7 109987272.383 7      -264.537 7        45.473               
G24  21540646.012 7 113196852.436 7     -1990.792 7        44.969               
G25  24157172.066 7 126946799.680 7      3648.215 7        43.580               
> 2025 08 05 07 48 49.0000000  0  7                                             
G32  24576899.271 7 129152433.067 7      2278.336 7        43.133               
G10  22878486.664 7 120227343.079 7      2569.022 7        43.180               
G12  23433478.915 7 123143765.673 7      2604.433 7        47.250               
G15  23353425.844 8 122723096.300 8     -2527.680 8        48.312               
G23  20929931.518 7 109987532.903 7      -262.087 7        45.372               
G24  21541028.114 7 113198842.580 7     -1989.557 7        44.604               
G25  24156476.935 7 126943154.900 7      3647.781 7        43.703               
> 2025 08 05 07 48 50.0000000  0  7                                             
G32  24576466.332 7 129150161.278 7      2269.310 7        42.956               
G10  22878001.814 7 120224770.839 7      2576.398 7        43.408               
G12  23432985.569 7 123141164.551 7      2598.466 7        47.366               
G15  23353906.726 8 122725626.182 8     -2529.385 8        48.138               
G23  20929979.773 7 109987794.132 7      -261.725 7        45.240               
G24  21541403.998 7 113200833.212 7     -1989.591 7        44.484               
G25  24155784.760 7 126939510.334 7      3646.976 7        44.281               
> 2025 08 05 07 48 51.0000000  0  7                                             
G32  24576034.553 7 129147889.450 7      2271.607 7        42.571               
G10  22877508.710 7 120222198.888 7      2571.395 7        42.885               
G12  23432489.775 7 123138563.769 7      2601.005 7        47.751               
G15  23354386.849 8 122728156.201 8     -2530.707 8        48.540               
G23  20930024.285 7 109988055.930 7      -261.657 7        45.383               
G24  21541782.321 7 113202824.229 7     -1987.505 7        44.665               
G25  24155091.531 7 126935865.809 7      3642.065 7        44.109               
> 2025 08 05 07 48 52.0000000  0  7                                             
G32  24575603.517 7 129145617.621 7      2271.879 7        43.269               
G10  22877017.419 7 120219627.223 7      2571.036 7        42.942               
G12  23431996.036 7 123135963.335 7      2602.781 7        47.707               
G15  23354870.492 8 122730686.376 8     -2528.405 8        48.013               
G23  20930077.213 7 109988318.323 7      -262.795 7        45.478               
G24  21542158.509 7 113204815.607 7     -1992.742 7        45.119               
G25  24154399.795 7 126932221.341 7      3647.544 7        44.116               
> 2025 08 05 07 48 53.0000000  0  7                                             
G32  24575170.282 7 129143345.854 7      2270.137 7        42.929               
G10  22876528.076 7 120217055.918 7      2574.513 7        42.761               
G12  23431499.902 7 123133363.314 7      2602.418 7        47.125               
G15  23355353.366 8 122733216.752 8     -2532.838 8        48.488               
G23  20930129.927 7 109988581.338 7      -263.680 7        45.391               
G24  21542537.573 7 113206807.429 7     -1984.991 7        44.705               
G25  24153704.332 7 126928577.010 7      3638.275 7        44.320               
> 2025 08 05 07 48 54.0000000  0  7                                             
G32  24574739.049 7 129141074.081 7      2269.317 7        43.477               
G10  22876036.847 7 120214484.932 7      2573.881 7        43.092               
G12  23431004.618 7 123130763.660 7      2599.122 7        47.211               
G15  23355834.838 8 122735747.289 8     -2531.881 8        48.361               
G23  20930183.534 7 109988844.964 7      -263.501 7        45.809               
G24  21542913.868 7 113208799.680 7     -1992.067 7        44.755               
G25  24153012.131 7 126924932.727 7      3638.987 7        44.217               
> 2025 08 05 07 48 55.0000000  0  7                                             
G32  24574308.522 7 129138802.339 7      2267.642 7        42.995               
G10  22875551.784 7 120211914.259 7      2570.336 7        43.250               
G12  23430509.860 7 123128164.361 7      2597.663 7        47.468               
G15  23356315.470 8 122738277.988 8     -2530.950 8        48.362               
G23  20930232.835 7 109989109.192 7      -266.532 7        46.077               
G24  21543295.300 7 113210792.309 7     -1991.403 7        45.042               
G25  24152316.955 7 126921288.567 7      3641.925 7        44.034               
> 2025 08 05 07 48 56.0000000  0  7                                             
G32  24573874.376 7 129136530.638 7      2271.104 7        43.541               
G10  22875065.014 7 120209343.968 7      2569.516 7        43.035               
G12  23430014.317 7 123125565.496 7      2600.077 7        47.725               
G15  23356795.816 8 122740808.911 8     -2531.833 8        48.684               
G23  20930277.632 7 109989374.073 7      -266.125 7        46.186               
G24  21543675.312 7 113212785.403 7     -1997.182 7        44.942               
G25  24151624.682 7 126917644.529 7      3642.221 7        43.928               
> 2025 08 05 07 48 57.0000000  0  7                                             
G32  24573438.631 7 129134258.973 7      2276.204 7        43.131               
G10  22874576.108 7 120206774.002 7      2572.687 7        43.097               
G12  23429523.008 7 123122967.023 7      2596.721 7        47.639               
G15  23357275.993 8 122743340.022 8     -2531.996 8        48.727               
G23  20930328.443 7 109989639.574 7      -265.570 7        45.910               
G24  21544055.511 7 113214778.917 7     -1996.077 7        45.105               
G25  24150926.736 7 126914000.590 7      3645.301 7        43.803               
> 2025 08 05 07 48 58.0000000  0  7                                             
G32  24573011.436 7 129131987.360 7      2268.585 7        43.200               
G10  22874084.755 7 120204204.389 7      2568.785 7        43.147               
G12  23429028.643 7 123120368.943 7      2598.520 7        47.425               
G15  23357756.374 7 122745871.318 7     -2531.222 7        47.981               
G23  20930374.107 7 109989905.724 7      -264.560 7        45.987               
G24  21544435.889 7 113216772.844 7     -1991.374 7        44.875               
G25  24150236.866 7 126910356.801 7      3636.225 7        44.255               
> 2025 08 05 07 48 59.0000000  0  7                                             
G32  24572578.211 7 129129715.777 7      2271.237 7        42.853               
G10  22873595.117 7 120201635.118 7      2567.469 7        43.553               
G12  23428531.259 7 123117771.263 7      2596.894 7        47.385               
G15  23358236.470 7 122748402.836 7     -2531.795 7        47.991               
G23  20930429.010 7 109990172.503 7      -265.257 7        44.959               
G24  21544817.446 7 113218767.220 7     -1994.647 7        44.398               
G25  24149544.308 7 126906713.092 7      3644.493 7        44.244               
> 2025 08 05 07 49 00.0000000  0  7                                             
G32  24572144.235 7 129127444.223 7      2272.870 7        43.079               
G10  22873103.647 7 120199066.204 7      2568.560 7        43.530               
G12  23428036.993 7 123115173.983 7      2595.655 7        47.165               
G15  23358718.309 8 122750934.528 8     -2533.773 8        48.461               
G23  20930482.367 7 109990439.906 7      -267.288 7        45.316               
G24  21545199.102 7 113220762.024 7     -1991.703 7        44.561               
G25  24148847.871 7 126903069.508 7      3639.626 7        44.197               
> 2025 08 05 07 49 01.0000000  0  7                                             
G32  24571712.912 7 129125172.701 7      2271.163 7        43.299               
G10  22872617.762 7 120196497.588 7      2563.634 7        43.709               
G12  23427544.112 7 123112577.075 7      2596.773 7        46.799               
G15  23359201.630 8 122753466.393 8     -2532.577 8        48.282               
G23  20930535.902 7 109990707.911 7      -269.814 7        45.346               
G24  21545577.076 7 113222757.237 7     -1997.594 7        45.415               
G25  24148157.582 7 126899426.003 7      3645.837 7        44.315               
> 2025 08 05 07 49 02.0000000  0  7                                             
G32  24571280.259 7 129122901.296 7      2271.159 7        42.667               
G10  22872129.946 7 120193929.403 7      2570.558 7        43.741               
G12  23427049.086 7 123109980.628 7      2597.610 7        46.900               
G15  23359684.326 8 122755998.532 8     -2531.858 8        48.301               
G23  20930583.210 7 109990976.617 7      -268.053 7        46.304               
G24  21545957.901 7 113224752.951 7     -1997.450 7        45.326               
G25  24147463.585 7 126895782.695 7      3646.565 7        44.126               
> 2025 08 05 07 49 03.0000000  0  7                                             
G32  24570849.365 7 129120629.921 7      2271.729 7        43.563               
G10  22871641.550 7 120191361.590 7      2567.454 7        44.017               
G12  23426551.362 7 123107384.600 7      2596.286 7        46.797               
G15  23360168.487 8 122758530.872 8     -2532.744 8        48.816               
G23  20930633.101 7 109991245.981 7      -268.084 7        46.115               
G24  21546338.323 7 113226749.104 7     -1995.883 7        45.853               
G25  24146767.042 7 126892139.506 7      3642.649 7        43.372               
> 2025 08 05 07 49 04.0000000  0  7                                             
G32  24570417.319 7 129118358.556 7      2265.138 7        43.350               
G10  22871153.020 7 120188794.072 7      2564.277 7        43.488               
G12  23426056.355 7 123104788.933 7      2594.647 7        46.591               
G15  23360651.567 8 122761063.374 8     -2534.112 8        49.080               
G23  20930687.181 7 109991515.944 7      -269.272 7        45.042               
G24  21546717.754 7 113228745.649 7     -1997.139 7        45.436               
G25  24146078.262 7 126888496.396 7      3639.315 7        43.125               
> 2025 08 05 07 49 05.0000000  0  7                                             
G32  24569986.952 7 129116087.267 7      2275.269 7        42.714               
G10  22870665.812 7 120186226.935 7      2566.453 7        43.654               
G12  23425567.092 7 123102193.705 7      2593.331 7        46.372               
G15  23361130.805 8 122763596.094 8     -2533.193 8        49.265               
G23  20930734.981 7 109991786.570 7      -272.170 7        45.308               
G24  21547100.187 7 113230742.672 7     -1994.756 7        44.755               
G25  24145381.558 7 126884853.452 7      3638.232 7        43.383               
> 2025 08 05 07 49 06.0000000  0  7                                             
G32  24569555.478 7 129113816.004 7      2275.615 7        42.989               
G10  22870178.435 7 120183660.117 7      2566.404 7        44.185               
G12  23425072.576 7 123099598.832 7      2595.725 7        46.430               
G15  23361616.030 8 122766128.986 8     -2531.157 8        49.421               
G23  20930791.376 7 109992057.798 7      -273.888 7        45.146               
G24  21547479.886 7 113232740.079 7     -1999.316 7        45.491               
G25  24144688.794 7 126881210.583 7      3642.510 7        43.624               
> 2025 08 05 07 49 07.0000000  0  7                                             
G32  24569119.474 7 129111544.814 7      2272.588 7        43.048               
G10  22869692.746 7 120181093.659 7      2567.035 7        44.282               
G12  23424578.238 7 123097004.396 7      2596.398 7        47.153               
G15  23362097.135 8 122768662.101 8     -2533.756 8        49.393               
G23  20930843.973 7 109992329.680 7      -272.433 7        46.053               
G24  21547859.353 7 113234737.944 7     -1998.664 7        45.680               
G25  24143995.190 7 126877567.834 7      3644.107 7        43.696               
> 2025 08 05 07 49 08.0000000  0  7                                             
G32  24568689.536 7 129109273.631 7      2269.332 7        43.348               
G10  22869200.338 7 120178527.558 7      2563.557 7        44.005               
G12  23424085.634 7 123094410.346 7      2593.962 7        47.764               
G15  23362578.277 8 122771195.391 8     -2534.587 8        48.815               
G23  20930897.964 7 109992602.169 7      -272.978 7        46.583               
G24  21548237.238 7 113236736.229 7     -1999.061 7        45.444               
G25  24143306.652 7 126873925.225 7      3637.575 7        43.698               
> 2025 08 05 07 49 09.0000000  0  7                                             
G32  24568258.339 7 129107002.503 7      2269.275 7        43.187               
G10  22868713.487 7 120175961.801 7      2564.183 7        43.756               
G12  23423593.458 7 123091816.683 7      2590.164 7        47.349               
G15  23363061.804 8 122773728.880 8     -2532.921 8        48.746               
G23  20930947.971 7 109992875.306 7      -274.422 7        46.965               
G24  21548616.106 7 113238734.954 7     -2001.200 7        44.828               
G25  24142611.484 7 126870282.710 7      3642.193 7        43.907               
> 2025 08 05 07 49 10.0000000  0  7                                             
G32  24567824.086 7 129104731.438 7      2276.196 7        43.325               
G10  22868224.019 7 120173396.436 7      2569.516 7        43.843               
G12  23423100.104 7 123089223.481 7      2594.520 7        47.384               
G15  23363540.640 8 122776262.625 8     -2532.059 8        48.682               
G23  20931002.025 7 109993149.122 7      -272.574 7        45.788               
G24  21548998.824 7 113240734.162 7     -2000.641 7        44.899               
G25  24141918.059 7 126866640.361 7      3645.278 7        43.512               
> 2025 08 05 07 49 11.0000000  0  7                                             
G32  24567394.997 7 129102460.325 7      2270.300 7        43.662               
G10  22867737.481 7 120170831.300 7      2567.747 7        44.054               
G12  23422605.507 7 123086630.582 7      2590.927 7        47.309               
G15  23364023.907 8 122778796.451 8     -2532.726 8        48.318               
G23  20931050.861 7 109993423.466 7      -277.376 7        45.661               
G24  21549377.943 7 113242733.684 7     -2002.039 7        45.060               
G25  24141228.895 7 126862998.040 7      3639.643 7        43.726               
> 2025 08 05 07 49 12.0000000  0  7                                             
G32  24566963.585 7 129100189.288 7      2270.235 7        43.942               
G10  22867251.301 7 120168266.556 7      2564.874 7        44.030               
G12  23422112.358 7 123084038.112 7      2591.691 7        46.966               
G15  23364504.924 8 122781330.518 8     -2534.730 8        48.744               
G23  20931102.279 7 109993698.487 7      -275.122 7        45.595               
G24  21549757.275 7 113244733.686 7     -1999.008 7        45.216               
G25  24140532.450 7 126859355.875 7      3638.140 7        43.586               
> 2025 08 05 07 49 13.0000000  0  7                                             
G32  24566532.021 7 129097918.297 7      2273.433 7        44.801               
G10  22866762.002 7 120165702.172 7      2566.448 7        43.358               
G12  23421618.913 7 123081446.033 7      2592.792 7        47.169               
G15  23364989.290 8 122783864.776 8     -2533.396 8        48.412               
G23  20931155.269 7 109993974.141 7      -275.604 7        45.376               
G24  21550137.144 7 113246734.110 7     -1998.721 7        44.864               
G25  24139841.133 7 126855713.814 7      3639.643 7        43.531               
> 2025 08 05 07 49 14.0000000  0  7                                             
G32  24566100.770 7 129095647.329 7      2271.121 7        43.668               
G10  22866270.569 7 120163138.109 7      2559.369 7        43.769               
G12  23421127.185 7 123078854.340 7      2592.550 7        47.472               
G15  23365472.397 8 122786399.203 8     -2532.223 8        48.704               
G23  20931211.030 7 109994250.393 7      -275.652 7        45.793               
G24  21550518.192 7 113248734.930 7     -1999.969 7        44.997               
G25  24139147.029 7 126852071.829 7      3642.954 7        43.896               
> 2025 08 05 07 49 15.0000000  0  7                                             
G32  24565663.372 7 129093376.375 7      2270.762 7        43.913               
G10  22865781.333 7 120160574.375 7      2562.662 7        43.983               
G12  23420636.930 7 123076263.044 7      2590.998 7        46.692               
G15  23365955.701 8 122788933.822 8     -2536.183 8        48.788               
G23  20931257.051 7 109994527.277 7      -280.630 7        45.692               
G24  21550902.947 7 113250736.175 7     -2000.913 7        45.394               
G25  24138453.595 7 126848429.968 7      3643.581 7        43.528               
> 2025 08 05 07 49 16.0000000  0  7                                             
G32  24565234.766 7 129091105.480 7      2272.728 7        43.424               
G10  22865296.582 7 120158010.993 7      2562.026 7        44.344               
G12  23420141.172 7 123073672.123 7      2589.282 7        47.123               
G15  23366436.976 8 122791468.637 8     -2529.716 8        48.993               
G23  20931313.928 7 109994804.789 7      -277.006 7        45.626               
G24  21551279.251 7 113252737.852 7     -2005.707 7        45.628               
G25  24137761.974 7 126844788.240 7      3641.520 7        43.440               
> 2025 08 05 07 49 17.0000000  0  7                                             
G32  24564798.717 7 129088834.529 7      2268.704 7        43.206               
G10  22864806.122 7 120155447.878 7      2560.474 7        44.021               
G12  23419648.541 7 123071081.557 7      2590.364 7        47.033               
G15  23366920.851 8 122794003.564 8     -2536.108 8        48.696               
G23  20931365.847 7 109995082.849 7      -276.012 7        45.112               
G24  21551660.174 7 113254739.877 7     -2000.721 7        45.510               
G25  24137066.494 7 126841146.517 7      3633.877 7        42.998               
> 2025 08 05 07 49 18.0000000  0  8                                             
G32  24564367.216 7 129086563.620 7      2271.634 7        43.145               
G10  22864315.045 7 120152885.138 7      2560.695 7        43.751               
G12  23419151.979 7 123068491.376 7      2584.702 7        46.263               
G15  23367402.645 8 122796538.697 8     -2537.116 8        49.602               
G23  20931417.953 7 109995361.559 7      -280.919 7        45.565               
G24  21552036.942 7 113256742.325 7     -2005.215 7        45.405               
G25  24136376.785 7 126837504.918 7      3643.264 7        42.831               
G28  26192392.420 7 137641985.904 7      3324.994 7        42.005               
> 2025 08 05 07 49 19.0000000  0  8                                             
G32  24563942.702 7 129084292.752 7      2270.264 7        42.982               
G10  22863831.402 7 120150322.696 7      2563.797 7        43.838               
G12  23418661.027 7 123065901.579 7      2587.029 7        46.552               
G15  23367884.385 8 122799074.018 8     -2534.263 8        49.361               
G23  20931472.266 7 109995640.889 7      -283.007 7        45.683               
G24  21552418.562 7 113258745.196 7     -2004.782 7        45.008               
G25  24135680.733 7 126833863.422 7      3637.493 7        43.542               
G28  26191764.395 7 137638661.739 7      3325.366 7        42.206               
> 2025 08 05 07 49 20.0000000  0  8                                             
G32  24563503.302 7 129082021.928 7      2271.541 7        42.184               
G10  22863342.095 7 120147760.643 7      2566.624 7        44.114               
G12  23418164.670 7 123063312.197 7      2587.391 7        45.434               
G15  23368367.063 8 122801609.532 8     -2536.934 8        49.134               
G23  20931524.148 7 109995920.852 7      -280.096 7        45.602               
G24  21552798.431 7 113260748.519 7     -2002.904 7        45.057               
G25  24134988.604 7 126830222.078 7      3645.064 7        43.148               
G28  26191130.858 7 137635337.736 7      3324.066 7        42.031               
> 2025 08 05 07 49 21.0000000  0  8                                             
G32  24563067.816 7 129079751.180 7      2268.618 7        42.579               
G10  22862854.038 7 120145198.933 7      2560.061 7        43.876               
G12  23417671.566 7 123060723.238 7      2589.481 7        45.824               
G15  23368850.456 8 122804145.265 8     -2538.628 8        49.352               
G23  20931576.889 7 109996201.473 7      -281.628 7        46.006               
G24  21553181.578 7 113262752.280 7     -2006.862 7        45.080               
G25  24134294.732 7 126826580.851 7      3647.868 7        44.001               
G28  26190501.154 6 137632013.898 6      3325.208 6        41.651               
> 2025 08 05 07 49 22.0000000  0  8                                             
G32  24562639.773 7 129077480.414 7      2269.962 7        42.875               
G10  22862373.353 7 120142637.563 7      2556.524 7        43.662               
G12  23417180.820 7 123058134.651 7      2589.548 7        46.294               
G15  23369335.117 8 122806681.164 8     -2537.985 8        48.533               
G23  20931630.996 7 109996482.689 7      -280.746 7        46.023               
G24  21553563.976 7 113264756.437 7     -2007.079 7        44.779               
G25  24133602.343 7 126822939.699 7      3646.222 7        43.808               
G28  26189864.266 6 137628690.167 6      3325.113 6        41.816               
> 2025 08 05 07 49 23.0000000  0  8                                             
G32  24562209.344 7 129075209.683 7      2269.181 7        42.765               
G10  22861882.723 7 120140076.534 7      2559.352 7        43.770               
G12  23416690.914 7 123055546.461 7      2589.269 7        46.035               
G15  23369816.562 8 122809217.258 8     -2535.987 8        48.698               
G23  20931688.749 7 109996764.534 7      -280.823 7        45.983               
G24  21553944.854 7 113266761.024 7     -2007.524 7        44.329               
G25  24132909.248 7 126819298.697 7      3647.706 7        43.000               
G28  26189232.453 7 137625366.585 7      3324.575 7        42.067               
> 2025 08 05 07 49 24.0000000  0  8                                             
G32  24561774.850 7 129072939.051 7      2271.113 7        42.380               
G10  22861392.799 7 120137515.887 7      2558.841 7        44.311               
G12  23416198.274 7 123052958.717 7      2587.657 7        45.644               
G15  23370299.017 8 122811753.569 8     -2534.382 8        49.064               
G23  20931744.920 7 109997047.058 7      -285.078 7        46.338               
G24  21554327.581 7 113268766.065 7     -2007.422 7        45.066               
G25  24132216.216 7 126815657.813 7      3643.088 7        43.350               
G28  26188599.621 7 137622043.173 7      3323.411 7        42.474               
> 2025 08 05 07 49 25.0000000  0  8                                             
G32  24561344.287 7 129070668.397 7      2271.832 7        43.345               
G10  22860909.728 7 120134955.545 7      2559.155 7        44.426               
G12  23415704.723 7 123050371.315 7      2589.299 7        46.089               
G15  23370779.265 8 122814290.033 8     -2537.443 8        48.753               
G23  20931799.215 7 109997330.152 7      -280.682 7        46.106               
G24  21554712.579 7 113270771.507 7     -2006.540 7        45.170               
G25  24131523.407 7 126812017.028 7      3641.801 7        43.624               
G28  26187968.613 7 137618719.863 7      3318.395 7        42.314               
> 2025 08 05 07 49 26.0000000  0  8                                             
G32  24560908.113 7 129068397.790 7      2270.376 7        42.852               
G10  22860424.182 7 120132395.550 7      2564.474 7        44.755               
G12  23415208.946 7 123047784.338 7      2582.988 7        46.150               
G15  23371262.434 8 122816826.699 8     -2537.090 8        48.914               
G23  20931853.626 7 109997613.893 7      -286.560 7        46.157               
G24  21555091.044 7 113272777.362 7     -2004.651 7        45.061               
G25  24130829.419 7 126808376.341 7      3638.699 7        44.070               
G28  26187331.546 7 137615396.695 7      3324.057 7        42.551               
> 2025 08 05 07 49 27.0000000  0  8                                             
G32  24560479.363 7 129066127.229 7      2273.203 7        42.928               
G10  22859935.482 7 120129835.903 7      2557.769 7        44.537               
G12  23414718.201 7 123045197.760 7      2582.070 7        45.842               
G15  23371744.281 8 122819363.561 8     -2535.941 8        48.803               
G23  20931910.012 7 109997898.273 7      -286.518 7        46.527               
G24  21555473.701 7 113274783.670 7     -2005.030 7        44.552               
G25  24130138.549 7 126804735.802 7      3640.646 7        43.842               
G28  26186701.243 7 137612073.674 7      3319.640 7        42.745               
> 2025 08 05 07 49 28.0000000  0  8                                             
G32  24560049.890 7 129063856.686 7      2269.296 7        43.278               
G10  22859449.462 7 120127276.602 7      2561.253 7        44.806               
G12  23414225.998 7 123042611.561 7      2585.266 7        46.218               
G15  23372224.976 8 122821900.594 8     -2535.504 8        48.796               
G23  20931960.447 7 109998183.265 7      -283.800 7        45.782               
G24  21555858.465 7 113276790.368 7     -2008.878 7        44.506               
G25  24129446.624 7 126801095.351 7      3640.558 7        43.712               
G28  26186070.619 7 137608750.783 7      3318.936 7        43.090               
> 2025 08 05 07 49 29.0000000  0  8                                             
G32  24559616.727 7 129061586.206 7      2265.187 7        43.134               
G10  22858958.698 7 120124717.659 7      2562.352 7        43.954               
G12  23413734.341 7 123040025.784 7      2585.904 7        46.142               
G15  23372709.959 8 122824437.856 8     -2537.819 8        48.375               
G23  20932013.224 7 109998468.907 7      -286.615 7        45.435               
G24  21556240.219 7 113278797.529 7     -2008.743 7        44.443               
G25  24128753.976 7 126797455.039 7      3644.367 7        43.609               
G28  26185437.716 7 137605428.041 7      3325.972 7        43.088               
> 2025 08 05 07 49 30.0000000  0  8                                             
G32  24559182.483 7 129059315.763 7      2272.486 7        42.882               
G10  22858473.349 7 120122159.057 7      2562.587 7        44.449               
G12  23413238.154 7 123037440.399 7      2586.532 7        46.625               
G15  23373189.733 8 122826975.299 8     -2536.853 8        48.208               
G23  20932064.123 7 109998755.173 7      -285.225 7        45.293               
G24  21556619.534 7 113280805.102 7     -2008.468 7        44.871               
G25  24128058.585 7 126793814.856 7      3633.901 7        43.615               
G28  26184806.251 7 137602105.448 7      3323.237 7        42.632               
> 2025 08 05 07 49 31.0000000  0  8                                             
G32  24558754.547 7 129057045.292 7      2268.062 7        43.002               
G10  22857988.402 7 120119600.750 7      2558.072 7        44.055               
G12  23412751.277 7 123034855.346 7      2587.072 7        46.107               
G15  23373672.778 8 122829512.866 8     -2535.245 8        48.380               
G23  20932118.803 7 109999042.003 7      -283.259 7        45.579               
G24  21557001.198 7 113282813.041 7     -2008.503 7        44.200               
G25  24127367.179 7 126790174.680 7      3638.706 7        43.238               
G28  26184176.574 7 137598782.934 7      3322.945 7        43.235               
> 2025 08 05 07 49 32.0000000  0  8                                             
G32  24558321.402 7 129054774.857 7      2266.420 7        43.283               
G10  22857499.639 7 120117042.780 7      2557.852 7        44.476               
G12  23412258.619 7 123032270.693 7      2584.779 7        46.602               
G15  23374156.608 8 122832050.625 8     -2537.978 8        48.474               
G23  20932172.544 7 109999329.482 7      -289.276 7        45.673               
G24  21557383.158 7 113284821.411 7     -2009.571 7        44.733               
G25  24126674.621 7 126786534.650 7      3637.551 7        43.968               
G28  26183540.517 7 137595460.554 7      3325.877 7        43.040               
> 2025 08 05 07 49 33.0000000  0  8                                             
G32  24557889.266 7 129052504.486 7      2269.812 7        42.501               
G10  22857014.129 7 120114485.177 7      2563.738 7        44.610               
G12  23411769.195 7 123029686.470 7      2587.334 7        46.619               
G15  23374638.920 8 122834588.603 8     -2536.060 8        48.485               
G23  20932226.258 7 109999617.600 7      -287.018 7        45.675               
G24  21557767.788 7 113286830.224 7     -2009.134 7        44.807               
G25  24125982.518 7 126782894.761 7      3641.137 7        43.919               
G28  26182914.163 7 137592138.344 7      3318.290 7        43.593               
> 2025 08 05 07 49 34.0000000  0  8                                             
G32  24557456.952 7 129050234.171 7      2270.838 7        43.225               
G10  22856529.199 7 120111927.954 7      2555.821 7        44.686               
G12  23411278.521 7 123027102.666 7      2583.606 7        47.401               
G15  23375121.661 8 122837126.794 8     -2539.652 8        48.597               
G23  20932283.153 7 109999906.375 7      -293.051 7        45.127               
G24  21558149.515 7 113288839.479 7     -2007.937 7        44.339               
G25  24125286.778 7 126779255.004 7      3639.270 7        43.524               
G28  26182286.281 7 137588816.279 7      3323.857 7        43.250               
> 2025 08 05 07 49 35.0000000  0  8                                             
G32  24557020.439 7 129047963.854 7      2275.556 7        43.140               
G10  22856043.921 7 120109371.031 7      2560.816 7        44.113               
G12  23410790.848 7 123024519.235 7      2582.169 7        47.455               
G15  23375606.367 8 122839665.143 8     -2536.067 8        48.544               
G23  20932342.898 7 110000195.746 7      -287.930 7        44.993               
G24  21558532.725 7 113290849.129 7     -2009.608 7        44.687               
G25  24124595.792 7 126775615.326 7      3636.547 7        44.057               
G28  26181651.082 7 137585494.353 7      3319.055 7        43.369               
> 2025 08 05 07 49 36.0000000  0  8                                             
G32  24556589.304 7 129045693.624 7      2267.536 7        42.789               
G10  22855554.158 7 120106814.505 7      2551.340 7        44.629               
G12  23410300.746 7 123021936.237 7      2581.451 7        47.513               
G15  23376089.420 8 122842203.721 8     -2540.397 8        48.656               
G23  20932394.826 7 110000485.774 7      -292.302 7        45.613               
G24  21558911.754 7 113292859.242 7     -2008.478 7        44.684               
G25  24123903.278 7 126771975.805 7      3632.874 7        43.374               
G28  26181017.080 7 137582172.580 7      3321.062 7        43.196               
> 2025 08 05 07 49 37.0000000  0  8                                             
G32  24556163.914 7 129043423.395 7      2268.718 7        42.369               
G10  22855062.751 7 120104258.301 7      2551.807 7        44.214               
G12  23409807.409 7 123019353.616 7      2580.123 7        47.196               
G15  23376571.768 8 122844742.462 8     -2538.785 8        48.494               
G23  20932448.504 7 110000776.419 7      -290.542 7        45.800               
G24  21559299.816 7 113294869.741 7     -2012.001 7        43.866               
G25  24123207.146 7 126768336.362 7      3642.405 7        42.713               
G28  26180385.509 7 137578850.941 7      3319.632 7        43.050               
> 2025 08 05 07 49 38.0000000  0  8                                             
G32  24555724.345 7 129041153.241 7      2273.954 7        42.518               
G10  22854579.814 7 120101702.464 7      2553.781 7        44.483               
G12  23409314.411 7 123016771.421 7      2581.515 7        47.032               
G15  23377057.305 8 122847281.423 8     -2539.767 8        48.518               
G23  20932504.479 7 110001067.722 7      -292.291 7        46.083               
G24  21559678.916 7 113296880.721 7     -2010.366 7        44.443               
G25  24122521.913 7 126764697.068 7      3639.569 7        42.679               
G28  26179756.063 7 137575529.462 7      3322.869 7        43.348               
> 2025 08 05 07 49 39.0000000  0  8                                             
G32  24555291.468 7 129038883.172 7      2269.347 7        42.285               
G10  22854091.614 7 120099147.013 7      2559.751 7        44.127               
G12  23408821.888 7 123014189.675 7      2586.152 7        46.785               
G15  23377540.724 8 122849820.625 8     -2539.625 8        48.800               
G23  20932557.782 7 110001359.707 7      -290.882 7        45.690               
G24  21560064.002 7 113298892.149 7     -2012.428 7        45.003               
G25  24121821.921 7 126761057.949 7      3639.345 7        42.648               
G28  26179115.673 7 137572208.176 7      3320.474 7        43.668               
> 2025 08 05 07 49 40.0000000  0  8                                             
G32  24554860.056 7 129036613.087 7      2267.444 7        42.874               
G10  22853608.248 7 120096591.873 7      2559.447 7        44.183               
G12  23408327.630 7 123011608.268 7      2580.381 7        46.372               
G15  23378022.455 8 122852359.971 8     -2542.298 8        49.125               
G23  20932617.322 7 110001652.265 7      -293.887 7        45.740               
G24  21560450.545 7 113300903.954 7     -2009.602 7        45.125               
G25  24121133.383 6 126757418.882 6      3636.610 6        41.979               
G28  26178485.513 7 137568886.973 7      3320.875 7        43.459               
> 2025 08 05 07 49 41.0000000  0  8                                             
G32  24554428.608 7 129034343.004 7      2274.399 7        42.449               
G10  22853120.451 7 120094037.048 7      2560.667 7        44.345               
G12  23407835.062 7 123009027.240 7      2583.153 7        46.719               
G15  23378506.393 8 122854899.480 8     -2536.966 8        48.819               
G23  20932677.040 7 110001945.417 7      -295.593 7        45.680               
G24  21560828.252 7 113302916.156 7     -2012.083 7        45.103               
G25  24120440.547 6 126753779.897 6      3630.132 6        41.819               
G28  26177857.667 7 137565565.890 7      3323.369 7        43.615               
> 2025 08 05 07 49 42.0000000  0  8                                             
G32  24553994.177 6 129032073.008 6      2266.099 6        41.619               
G10  22852638.166 7 120091482.608 7      2550.464 7        44.382               
G12  23407343.655 7 123006446.658 7      2582.044 7        46.291               
G15  23378989.304 8 122857439.246 8     -2539.714 8        48.933               
G23  20932734.936 7 110002239.254 7      -295.173 7        46.512               
G24  21561215.304 7 113304928.834 7     -2012.687 7        45.394               
G25  24119746.068 7 126750141.085 7      3639.652 7        42.022               
G28  26177228.535 7 137562244.989 7      3318.125 7        43.429               
> 2025 08 05 07 49 43.0000000  0  8                                             
G32  24553563.247 6 129029803.035 6      2276.057 6        41.595               
G10  22852152.146 7 120088928.511 7      2553.646 7        44.747               
G12  23406852.060 7 123003866.451 7      2582.042 7        45.964               
G15  23379473.849 8 122859979.191 8     -2540.530 8        49.100               
G23  20932793.099 7 110002533.705 7      -296.754 7        45.897               
G24  21561598.112 7 113306941.923 7     -2014.665 7        45.521               
G25  24119055.287 6 126746502.394 6      3637.703 6        41.644               
G28  26176588.824 7 137558924.225 7      3320.195 7        43.839               
> 2025 08 05 07 49 44.0000000  0  8                                             
G32  24553132.381 7 129027533.098 7      2274.190 7        42.079               
G10  22851667.226 7 120086374.758 7      2554.343 7        44.630               
G12  23406360.349 7 123001286.638 7      2576.850 7        45.687               
G15  23379960.020 8 122862519.324 8     -2540.203 8        48.933               
G23  20932842.436 7 110002828.768 7      -295.344 7        46.080               
G24  21561979.285 7 113308955.421 7     -2013.207 7        45.506               
G25  24118361.236 6 126742863.795 6      3642.321 6        41.622               
G28  26175962.166 7 137555603.580 7      3323.588 7        43.252               
> 2025 08 05 07 49 45.0000000  0  8                                             
G32  24552695.420 7 129025263.203 7      2270.656 7        42.052               
G10  22851180.465 7 120083821.365 7      2550.289 7        45.109               
G12  23405871.453 7 122998707.238 7      2576.990 7        46.498               
G15  23380442.189 8 122865059.649 8     -2541.212 8        48.413               
G23  20932895.453 7 110003124.478 7      -295.101 7        46.099               
G24  21562359.225 7 113310969.346 7     -2010.255 7        46.083               
G25  24117671.278 6 126739225.312 6      3638.199 6        41.915               
G28  26175327.878 7 137552283.087 7      3326.271 7        42.840               
> 2025 08 05 07 49 46.0000000  0  8                                             
G32  24552269.003 7 129022993.342 7      2269.333 7        42.490               
G10  22850697.679 7 120081268.323 7      2556.465 7        45.271               
G12  23405381.877 7 122996128.245 7      2580.305 7        46.605               
G15  23380925.412 8 122867600.184 8     -2538.142 8        48.055               
G23  20932954.144 7 110003420.836 7      -297.442 7        46.174               
G24  21562743.034 7 113312983.713 7     -2016.232 7        45.336               
G25  24116978.353 6 126735586.975 6      3635.360 6        41.829               
G28  26174689.221 7 137548962.744 7      3321.001 7        43.006               
> 2025 08 05 07 49 47.0000000  0  8                                             
G32  24551837.922 7 129020723.485 7      2270.421 7        42.862               
G10  22850210.007 7 120078715.563 7      2555.987 7        45.512               
G12  23404894.205 7 122993549.609 7      2577.907 7        46.495               
G15  23381410.145 8 122870140.850 8     -2538.977 8        48.013               
G23  20933008.635 7 110003717.758 7      -296.950 7        46.232               
G24  21563129.701 7 113314998.447 7     -2012.973 7        45.795               
G25  24116283.802 6 126731948.663 6      3639.308 6        41.997               
G28  26174058.999 7 137545642.492 7      3321.209 7        42.318               
> 2025 08 05 07 49 48.0000000  0  8                                             
G32  24551409.003 7 129018453.712 7      2267.688 7        42.420               
G10  22849721.807 7 120076163.240 7      2545.993 7        44.835               
G12  23404401.154 7 122990971.434 7      2577.571 7        46.460               
G15  23381893.386 8 122872681.789 8     -2541.668 8        48.113               
G23  20933070.185 7 110004015.368 7      -296.967 7        46.394               
G24  21563511.053 7 113317013.660 7     -2017.882 7        44.943               
G25  24115595.130 7 126728310.562 7      3642.752 7        42.176               
G28  26173431.403 6 137542322.452 6      3321.322 6        41.879               
> 2025 08 05 07 49 49.0000000  0  8                                             
G32  24550975.983 7 129016183.959 7      2270.437 7        42.157               
G10  22849234.126 7 120073611.207 7      2548.173 7        44.973               
G12  23403911.927 7 122988393.644 7      2577.314 7        46.507               
G15  23382374.554 8 122875222.883 8     -2541.545 8        48.669               
G23  20933130.502 7 110004313.594 7      -298.729 7        46.704               
G24  21563896.452 7 113319029.290 7     -2014.808 7        45.002               
G25  24114904.572 7 126724672.559 7      3639.253 7        42.784               
G28  26172792.228 6 137539002.518 6      3324.672 6        41.972               
> 2025 08 05 07 49 50.0000000  0  8                                             
G32  24550545.286 7 129013914.303 7      2265.004 7        42.109               
G10  22848750.411 7 120071059.592 7      2552.857 7        44.417               
G12  23403420.421 7 122985816.300 7      2576.316 7        46.054               
G15  23382860.127 8 122877764.225 8     -2543.065 8        48.619               
G23  20933186.736 7 110004612.492 7      -298.722 7        46.624               
G24  21564277.786 7 113321045.377 7     -2017.354 7        45.297               
G25  24114212.755 7 126721034.716 7      3641.428 7        43.100               
G28  26172165.740 7 137535682.779 7      3318.698 7        42.057               
> 2025 08 05 07 49 51.0000000  0  8                                             
G32  24550111.488 7 129011644.639 7      2269.051 7        42.268               
G10  22848266.465 7 120068508.293 7      2557.947 7        44.781               
G12  23402931.266 7 122983239.333 7      2576.130 7        46.302               
G15  23383344.789 8 122880305.733 8     -2540.848 8        48.969               
G23  20933240.280 7 110004912.001 7      -299.492 7        46.196               
G24  21564666.339 7 113323061.872 7     -2014.588 7        45.060               
G25  24113521.581 7 126717396.975 7      3645.317 7        43.743               
G28  26171533.659 7 137532363.159 7      3320.090 7        42.042               
> 2025 08 05 07 49 52.0000000  0  8                                             
G32  24549674.412 7 129009375.029 7      2266.452 7        42.060               
G10  22847779.257 7 120065957.339 7      2551.779 7        44.652               
G12  23402436.231 7 122980662.754 7      2575.366 7        46.185               
G15  23383827.038 8 122882847.421 8     -2542.386 8        49.053               
G23  20933292.967 7 110005212.134 7      -297.278 7        45.315               
G24  21565046.038 7 113325078.774 7     -2015.348 7        44.680               
G25  24112825.699 7 126713759.328 7      3638.138 7        44.385               
G28  26170900.211 7 137529043.664 7      3316.043 7        42.908               
> 2025 08 05 07 49 53.0000000  0  8                                             
G32  24549241.437 6 129007105.410 6      2273.995 6        41.109               
G10  22847294.336 7 120063406.735 7      2551.100 7        44.429               
G12  23401947.031 7 122978086.582 7      2573.947 7        46.387               
G15  23384309.180 8 122885389.297 8     -2542.414 8        48.625               
G23  20933345.520 7 110005512.905 7      -301.947 7        45.016               
G24  21565432.313 7 113327096.104 7     -2019.336 7        45.098               
G25  24112132.113 7 126710121.812 7      3634.017 7        44.195               
G28  26170269.899 7 137525724.314 7      3318.397 7        42.625               
> 2025 08 05 07 49 54.0000000  0  8                                             
G32  24548812.687 6 129004835.886 6      2272.735 6        41.027               
G10  22846813.079 7 120060856.497 7      2550.027 7        44.531               
G12  23401455.758 7 122975510.823 7      2574.348 7        45.519               
G15  23384795.959 8 122887931.385 8     -2542.109 8        49.325               
G23  20933404.577 7 110005814.309 7      -299.631 7        45.307               
G24  21565817.801 7 113329113.872 7     -2020.676 7        45.107               
G25  24111438.607 7 126706484.418 7      3639.568 7        43.914               
G28  26169639.078 7 137522405.137 7      3322.059 7        42.648               
> 2025 08 05 07 49 55.0000000  0  8                                             
G32  24548376.674 6 129002566.378 6      2270.336 6        41.495               
G10  22846326.353 7 120058306.604 7      2548.912 7        45.314               
G12  23400966.218 7 122972935.473 7      2574.924 7        46.040               
G15  23385281.567 8 122890473.663 8     -2539.979 8        48.814               
G23  20933465.645 7 110006116.358 7      -302.200 7        45.606               
G24  21566203.951 7 113331132.067 7     -2016.601 7        44.953               
G25  24110748.729 7 126702847.141 7      3635.855 7        43.850               
G28  26169003.450 7 137519086.084 7      3316.393 7        42.861               
> 2025 08 05 07 49 56.0000000  0  8                                             
G32  24547945.209 6 129000296.961 6      2273.016 6        40.944               
G10  22845842.389 7 120055757.133 7      2549.891 7        45.148               
G12  23400476.268 7 122970360.568 7      2573.939 7        45.955               
G15  23385765.675 8 122893016.180 8     -2542.610 8        49.034               
G23  20933526.935 7 110006419.083 7      -301.771 7        45.227               
G24  21566590.127 7 113333150.730 7     -2017.185 7        45.569               
G25  24110058.913 7 126699210.050 7      3632.046 7        43.577               
G28  26168368.296 7 137515767.235 7      3320.655 7        42.942               
> 2025 08 05 07 49 57.0000000  0  8                                             
G32  24547513.681 6 128998027.583 6      2262.484 6        40.396               
G10  22845354.386 7 120053207.961 7      2549.836 7        45.297               
G12  23399984.378 7 122967786.054 7      2575.588 7        45.189               
G15  23386248.826 8 122895558.861 8     -2541.939 8        49.325               
G23  20933582.213 7 110006722.414 7      -304.192 7        45.231               
G24  21566971.121 7 113335169.809 7     -2021.615 7        45.454               
G25  24109365.005 7 126695573.062 7      3643.034 7        42.563               
G28  26167743.997 7 137512448.502 7      3320.090 7        42.217               
> 2025 08 05 07 49 58.0000000  0  8                                             
G32  24547083.734 6 128995758.256 6      2265.963 6        40.353               
G10  22844868.491 7 120050659.180 7      2551.192 7        44.068               
G12  23399497.027 7 122965211.974 7      2574.645 7        44.789               
G15  23386731.263 8 122898101.780 8     -2542.202 8        49.031               
G23  20933639.832 7 110007026.416 7      -305.994 7        44.850               
G24  21567357.762 7 113337189.338 7     -2017.381 7        45.880               
G25  24108674.993 7 126691936.205 7      3633.231 7        43.218               
G28  26167112.881 7 137509129.947 7      3315.964 7        42.876               
> 2025 08 05 07 49 59.0000000  0  8                                             
G32  24546648.275 6 128993488.935 6      2265.714 6        40.495               
G10  22844383.883 7 120048110.725 7      2547.694 7        44.430               
G12  23399008.167 7 122962638.249 7      2574.139 7        45.414               
G15  23387216.327 8 122900644.835 8     -2543.327 8        48.530               
G23  20933693.805 7 110007331.002 7      -306.001 7        44.710               
G24  21567741.044 7 113339209.240 7     -2020.759 7        45.884               
G25  24107980.746 7 126688299.415 7      3641.520 7        42.765               
G28  26166479.513 7 137505811.477 7      3319.953 7        43.428               
> 2025 08 05 07 50 00.0000000  0  8                                             
G32  24546216.658 6 128991219.657 6      2280.315 6        40.300               
G10  22843900.053 7 120045562.626 7      2545.537 7        44.653               
G12  23398517.242 7 122960064.961 7      2575.219 7        45.757               
G15  23387698.165 8 122903188.115 8     -2543.606 8        48.788               
G23  20933748.592 7 110007636.246 7      -306.056 7        44.952               
G24  21568123.379 7 113341229.593 7     -2019.612 7        45.532               
G25  24107288.017 7 126684662.804 7      3645.335 7        42.903               
G28  26165850.524 7 137502493.203 7      3319.215 7        43.127               
> 2025 08 05 07 50 01.0000000  0  8                                             
G32  24545790.464 6 128988950.442 6      2268.610 6        40.459               
G10  22843411.737 7 120043014.886 7      2546.951 7        44.651               
G12  23398027.372 7 122957492.067 7      2572.004 7        45.612               
G15  23388181.308 8 122905731.593 8     -2544.796 8        48.321               
G23  20933807.148 7 110007942.131 7      -303.917 7        44.291               
G24  21568509.850 7 113343250.385 7     -2018.471 7        45.214               
G25  24106599.971 7 126681026.308 7      3640.254 7        43.225               
G28  26165217.326 7 137499175.049 7      3315.828 7        42.690               
> 2025 08 05 07 50 02.0000000  0  8                                             
G32  24545356.380 6 128986681.298 6      2267.729 6        40.285               
G10  22842925.101 7 120040467.506 7      2548.897 7        45.144               
G12  23397540.101 7 122954919.602 7      2574.291 7        45.227               
G15  23388664.799 8 122908275.268 8     -2543.629 8        48.035               
G23  20933868.537 7 110008248.666 7      -307.067 7        45.100               
G24  21568898.957 7 113345271.612 7     -2021.264 7        45.300               
G25  24105905.571 7 126677389.945 7      3638.706 7        43.023               
G28  26164587.488 7 137495857.060 7      3320.456 7        42.678               
> 2025 08 05 07 50 03.0000000  0  8                                             
G32  24544920.233 6 128984412.141 6      2267.436 6        40.485               
G10  22842442.316 7 120037920.458 7      2546.976 7        44.928               
G12  23397052.429 7 122952347.517 7      2571.271 7        46.138               
G15  23389147.379 8 122910819.135 8     -2540.608 8        48.165               
G23  20933934.653 7 110008555.812 7      -310.098 7        45.453               
G24  21569281.077 7 113347293.242 7     -2023.549 7        46.215               
G25  24105211.163 7 126673753.671 7      3640.770 7        43.237               
G28  26163958.784 7 137492539.215 7      3321.709 7        42.579               
> 2025 08 05 07 50 04.0000000  0  8                                             
G32  24544497.524 6 128982143.017 6      2265.931 6        40.462               
G10  22841956.797 7 120035373.750 7      2546.789 7        45.197               
G12  23396561.308 7 122949775.818 7      2570.979 7        46.410               
G15  23389632.362 7 122913363.151 7     -2544.129 7        47.989               
G23  20933993.353 7 110008863.545 7      -310.181 7        46.639               
G24  21569665.538 7 113349315.254 7     -2018.466 7        46.160               
G25  24104524.886 7 126670117.499 7      3636.087 7        43.102               
G28  26163322.012 7 137489221.477 7      3316.656 7        42.918               
> 2025 08 05 07 50 05.0000000  0  8                                             
G32  24544064.057 6 128979873.886 6      2266.986 6        40.655               
G10  22841469.249 7 120032827.366 7      2549.365 7        45.115               
G12  23396071.857 7 122947204.475 7      2571.320 7        46.814               
G15  23390114.897 8 122915907.330 8     -2543.797 8        48.075               
G23  20934055.528 7 110009171.891 7      -307.934 7        45.772               
G24  21570051.634 7 113351337.680 7     -2024.224 7        45.042               
G25  24103823.544 7 126666481.412 7      3635.545 7        43.349               
G28  26162696.605 7 137485903.845 7      3314.386 7        42.124               
> 2025 08 05 07 50 06.0000000  0  8                                             
G32  24543626.739 6 128977604.782 6      2264.038 6        40.619               
G10  22840985.705 7 120030281.291 7      2547.959 7        45.082               
G12  23395581.219 7 122944633.522 7      2571.787 7        46.474               
G15  23390599.621 8 122918451.698 8     -2546.563 8        48.088               
G23  20934109.805 7 110009480.844 7      -312.655 7        46.198               
G24  21570436.666 7 113353360.494 7     -2024.019 7        45.648               
G25  24103133.478 7 126662845.416 7      3635.246 7        42.661               
G28  26162060.013 7 137482586.338 7      3319.674 7        42.411               
> 2025 08 05 07 50 07.0000000  0  8                                             
G32  24543193.058 6 128975335.703 6      2267.537 6        40.769               
G10  22840500.587 7 120027735.561 7      2540.334 7        44.104               
G12  23395098.013 7 122942062.984 7      2565.470 7        46.556               
G15  23391084.416 7 122920996.235 7     -2545.237 7        47.959               
G23  20934164.386 7 110009790.422 7      -309.729 7        45.208               
G24  21570821.503 7 113355383.730 7     -2027.801 7        45.679               
G25  24102448.005 7 126659209.539 7      3633.718 7        42.925               
G28  26161426.055 7 137479268.961 7      3317.365 7        42.281               
> 2025 08 05 07 50 08.0000000  0  8                                             
G32  24542770.063 6 128973066.665 6      2272.913 6        40.697               
G10  22840017.927 7 120025190.205 7      2548.074 7        44.282               
G12  23394608.554 7 122939492.859 7      2567.586 7        47.705               
G15  23391569.927 8 122923540.980 8     -2544.112 8        48.326               
G23  20934221.701 7 110010100.656 7      -312.465 7        45.396               
G24  21571204.347 7 113357407.393 7     -2023.680 7        46.128               
G25  24101755.357 7 126655573.779 7      3636.228 7        42.626               
G28  26160799.273 7 137475951.760 7      3313.452 7        42.459               
> 2025 08 05 07 50 09.0000000  0  8                                             
G32  24542338.025 6 128970797.670 6      2264.359 6        40.300               
G10  22839528.137 7 120022645.176 7      2547.845 7        44.058               
G12  23394119.300 7 122936923.106 7      2570.613 7        47.365               
G15  23392049.469 8 122926085.907 8     -2545.483 8        48.246               
G23  20934284.323 7 110010411.500 7      -311.910 7        45.337               
G24  21571591.667 7 113359431.469 7     -2022.721 7        46.098               
G25  24101059.796 7 126651938.163 7      3631.219 7        42.776               
G28  26160165.780 6 137472634.673 6      3314.273 6        41.705               
> 2025 08 05 07 50 10.0000000  0  8                                             
G32  24541902.557 6 128968528.734 6      2263.051 6        40.253               
G10  22839044.307 7 120020100.525 7      2549.933 7        44.178               
G12  23393632.119 7 122934353.802 7      2566.933 7        47.578               
G15  23392533.308 8 122928631.060 8     -2545.291 8        48.233               
G23  20934344.997 7 110010722.995 7      -313.310 7        45.201               
G24  21571972.509 7 113361456.007 7     -2026.833 7        45.959               
G25  24100368.926 7 126648302.673 7      3636.229 7        42.749               
G28  26159537.871 6 137469317.759 6      3322.685 6        41.866               
> 2025 08 05 07 50 11.0000000  0  8                                             
G32  24541469.091 6 128966259.813 6      2270.766 6        39.895               
G10  22838564.023 7 120017556.217 7      2544.014 7        44.588               
G12  23393141.266 7 122931784.871 7      2568.766 7        47.469               
G15  23393019.855 8 122931176.385 8     -2543.960 8        48.002               
G23  20934406.797 7 110011035.113 7      -310.437 7        45.842               
G24  21572354.584 7 113363480.940 7     -2024.551 7        45.293               
G25  24099677.645 7 126644667.280 7      3638.650 7        42.500               
G28  26158905.102 6 137466000.962 6      3312.873 6        41.497               
> 2025 08 05 07 50 12.0000000  0  8                                             
G32  24541040.708 6 128963990.959 6      2267.163 6        40.825               
G10  22838081.667 7 120015012.285 7      2542.343 7        44.425               
G12  23392651.467 7 122929216.390 7      2568.044 7        46.754               
G15  23393505.732 8 122933721.929 8     -2545.944 8        48.099               
G23  20934465.354 7 110011347.893 7      -313.918 7        44.966               
G24  21572739.072 7 113365506.316 7     -2027.443 7        46.028               
G25  24098981.834 7 126641032.037 7      3632.358 7        42.993               
G28  26158275.747 7 137462684.339 7      3318.207 7        42.256               
> 2025 08 05 07 50 13.0000000  0  8                                             
G32  24540607.616 6 128961722.150 6      2271.110 6        40.713               
G10  22837596.237 7 120012468.685 7      2544.262 7        44.493               
G12  23392163.848 7 122926648.279 7      2565.877 7        46.999               
G15  23393988.963 8 122936267.650 8     -2545.707 8        48.267               
G23  20934525.983 7 110011661.275 7      -313.307 7        45.677               
G24  21573126.625 7 113367532.107 7     -2026.362 7        45.971               
G25  24098293.993 7 126637396.921 7      3639.377 7        43.456               
G28  26157645.533 6 137459367.869 6      3315.091 6        41.532               
> 2025 08 05 07 50 14.0000000  0  8                                             
G32  24540177.714 6 128959453.338 6      2267.731 6        40.994               
G10  22837114.372 7 120009925.435 7      2540.838 7        45.394               
G12  23391671.414 7 122924080.558 7      2565.255 7        46.831               
G15  23394474.045 8 122938813.549 8     -2547.035 8        48.398               
G23  20934584.505 7 110011975.282 7      -314.778 7        45.639               
G24  21573510.031 7 113369558.309 7     -2030.847 7        45.147               
G25  24097601.559 7 126633761.904 7      3635.560 7        43.602               
G28  26157010.236 7 137456051.512 7      3317.613 7        42.577               
> 2025 08 05 07 50 15.0000000  0  8                                             
G32  24539743.193 6 128957184.502 6      2274.847 6        41.299               
G10  22836633.070 7 120007382.459 7      2542.728 7        44.842               
G12  23391182.428 7 122921513.200 7      2564.960 7        47.143               
G15  23394962.164 8 122941359.589 8     -2547.382 8        48.252               
G23  20934643.222 7 110012289.874 7      -313.215 7        45.091               
G24  21573894.519 7 113371584.869 7     -2030.216 7        45.157               
G25  24096907.562 7 126630126.930 7      3638.415 7        42.882               
G28  26156378.405 6 137452735.228 6      3314.331 6        41.816               
> 2025 08 05 07 50 16.0000000  0  8                                             
G32  24539311.084 6 128954915.779 6      2277.666 6        41.355               
G10  22836148.515 7 120004839.940 7      2544.588 7        44.700               
G12  23390694.059 7 122918946.312 7      2564.740 7        46.758               
G15  23395444.503 8 122943905.900 8     -2545.973 8        48.301               
G23  20934704.647 7 110012605.161 7      -314.916 7        44.869               
G24  21574276.880 7 113373611.926 7     -2030.436 7        45.460               
G25  24096216.782 7 126626492.172 7      3632.552 7        43.270               
G28  26155747.718 6 137449419.178 6      3320.591 6        41.102               
> 2025 08 05 07 50 17.0000000  0  8                                             
G32  24538876.188 6 128952647.106 6      2261.174 6        40.939               
G10  22835667.445 7 120002297.723 7      2545.234 7        45.415               
G12  23390205.189 7 122916379.818 7      2564.199 7        46.716               
G15  23395929.450 8 122946452.366 8     -2545.103 8        48.582               
G23  20934762.989 7 110012921.068 7      -318.882 7        45.908               
G24  21574665.675 7 113375639.371 7     -2030.525 7        45.402               
G25  24095526.135 7 126622857.526 7      3631.099 7        42.934               
G28  26155121.641 6 137446103.252 6      3316.311 6        41.555               
> 2025 08 05 07 50 18.0000000  0  8                                             
G32  24538445.098 6 128950378.468 6      2267.320 6        41.206               
G10  22835181.685 7 119999755.872 7      2542.903 7        45.437               
G12  23389717.132 7 122913813.723 7      2563.406 7        46.018               
G15  23396416.408 8 122948999.043 8     -2547.362 8        48.583               
G23  20934824.137 7 110013237.616 7      -319.335 7        45.540               
G24  21575053.557 7 113377667.268 7     -2026.547 7        45.322               
G25  24094831.977 7 126619222.998 7      3636.798 7        43.072               
G28  26154490.382 7 137442787.470 7      3313.118 7        42.067               
> 2025 08 05 07 50 19.0000000  0  8                                             
G32  24538016.938 6 128948109.866 6      2266.140 6        41.362               
G10  22834705.100 7 119997214.384 7      2542.135 7        45.557               
G12  23389229.442 7 122911248.049 7      2567.567 7        46.716               
G15  23396901.855 8 122951545.916 8     -2544.703 8        48.691               
G23  20934882.506 7 110013554.779 7      -317.059 7        45.211               
G24  21575445.318 7 113379695.575 7     -2028.675 7        45.397               
G25  24094146.495 7 126615588.606 7      3631.761 7        43.227               
G28  26153855.415 7 137439471.819 7      3315.964 7        42.418               
> 2025 08 05 07 50 20.0000000  0  8                                             
G32  24537579.112 6 128945841.333 6      2273.286 6        40.870               
G10  22834219.751 7 119994673.264 7      2542.398 7        45.825               
G12  23388742.386 7 122908682.814 7      2563.252 7        47.074               
G15  23397387.964 8 122954092.996 8     -2547.578 8        48.763               
G23  20934944.655 7 110013872.613 7      -316.837 7        45.032               
G24  21575827.715 7 113381724.344 7     -2026.195 7        45.129               
G25  24093449.353 7 126611954.345 7      3635.283 7        42.915               
G28  26153224.406 7 137436156.385 7      3314.895 7        42.550               
> 2025 08 05 07 50 21.0000000  0  8                                             
G32  24537151.184 6 128943572.808 6      2270.219 6        41.015               
G10  22833736.832 7 119992132.509 7      2541.267 7        45.546               
G12  23388252.837 7 122906117.970 7      2568.299 7        47.059               
G15  23397870.714 8 122956640.264 8     -2545.545 8        48.100               
G23  20934999.343 7 110014191.086 7      -320.187 7        44.668               
G24  21576217.671 7 113383753.524 7     -2028.693 7        45.333               
G25  24092758.152 7 126608320.201 7      3630.093 7        43.760               
G28  26152594.541 6 137432841.053 6      3317.605 6        41.928               
> 2025 08 05 07 50 22.0000000  0  8                                             
G32  24536717.601 6 128941304.341 6      2268.918 6        41.670               
G10  22833250.544 7 119989592.071 7      2540.206 7        45.580               
G12  23387765.906 7 122903553.524 7      2564.542 7        47.242               
G15  23398354.777 8 122959187.711 8     -2549.375 8        48.324               
G23  20935058.632 7 110014510.150 7      -320.570 7        44.922               
G24  21576607.376 7 113385783.120 7     -2027.439 7        45.854               
G25  24092067.568 7 126604686.173 7      3630.514 7        44.340               
G28  26151966.784 6 137429525.865 6      3316.628 6        41.884               
> 2025 08 05 07 50 23.0000000  0  8                                             
G32  24536294.713 6 128939035.872 6      2266.677 6        41.079               
G10  22832763.926 7 119987051.991 7      2539.191 7        45.405               
G12  23387281.316 7 122900989.484 7      2561.955 7        46.897               
G15  23398837.714 8 122961735.356 8     -2546.168 8        48.357               
G23  20935120.638 7 110014829.869 7      -321.934 7        45.045               
G24  21576994.839 7 113387813.136 7     -2034.115 7        45.801               
G25  24091377.225 7 126601052.275 7      3630.822 7        43.373               
G28  26151335.239 7 137426210.802 7      3315.670 7        42.034               
> 2025 08 05 07 50 24.0000000  0  8                                             
G32  24535863.239 6 128936767.437 6      2278.305 6        41.181               
G10  22832279.640 7 119984512.243 7      2542.149 7        45.877               
G12  23386795.574 7 122898425.826 7      2561.221 7        47.278               
G15  23399320.901 7 122964283.169 7     -2548.443 7        47.625               
G23  20935182.697 7 110015150.190 7      -320.040 7        44.731               
G24  21577381.150 7 113389843.544 7     -2029.042 7        46.198               
G25  24090687.615 7 126597418.454 7      3638.230 7        43.687               
G28  26150703.837 7 137422895.875 7      3312.658 7        42.102               
> 2025 08 05 07 50 25.0000000  0  8                                             
G32  24535423.973 6 128934498.988 6      2263.637 6        41.053               
G10  22831798.471 7 119981972.810 7      2538.750 7        46.058               
G12  23386307.616 7 122895862.539 7      2562.834 7        47.959               
G15  23399806.412 7 122966831.130 7     -2549.823 7        47.753               
G23  20935248.196 7 110015471.100 7      -319.678 7        44.426               
G24  21577773.410 7 113391874.333 7     -2029.517 7        46.452               
G25  24089997.611 7 126593784.735 7      3635.082 7        44.168               
G28  26150069.094 7 137419581.043 7      3317.453 7        42.082               
> 2025 08 05 07 50 26.0000000  0  8                                             
G32  24534995.823 6 128932230.623 6      2268.094 6        40.774               
G10  22831317.393 7 119979433.741 7      2535.165 7        45.247               
G12  23385817.826 7 122893299.672 7      2561.295 7        47.653               
G15  23400289.956 7 122969379.306 7     -2547.995 7        47.827               
G23  20935307.583 7 110015792.662 7      -322.191 7        45.146               
G24  21578157.576 7 113393905.561 7     -2033.216 7        46.576               
G25  24089303.328 7 126590151.134 7      3627.599 7        43.671               
G28  26149435.914 6 137416266.381 6      3318.989 6        41.978               
> 2025 08 05 07 50 27.0000000  0  8                                             
G32  24534563.392 6 128929962.317 6      2258.444 6        40.551               
G10  22830832.847 7 119976895.032 7      2536.141 7        45.481               
G12  23385330.850 7 122890737.223 7      2561.561 7        47.680               
G15  23400774.752 7 122971927.693 7     -2548.963 7        47.898               
G23  20935371.322 7 110016114.862 7      -320.422 7        45.058               
G24  21578537.802 7 113395937.226 7     -2031.800 7        46.605               
G25  24088612.574 7 126586517.667 7      3636.264 7        43.394               
G28  26148811.213 7 137412951.889 7      3312.434 7        42.506               
> 2025 08 05 07 50 28.0000000  0  8                                             
G32  24534134.902 6 128927694.049 6      2267.154 6        40.692               
G10  22830345.890 7 119974356.738 7      2540.954 7        45.468               
G12  23384843.267 7 122888175.231 7      2560.045 7        47.662               
G15  23401260.986 7 122974476.294 7     -2546.398 7        47.952               
G23  20935434.480 7 110016437.738 7      -320.015 7        45.127               
G24  21578929.349 7 113397969.346 7     -2032.289 7        45.940               
G25  24087919.435 7 126582884.388 7      3633.007 7        43.648               
G28  26148179.945 7 137409637.535 7      3314.456 7        42.650               
> 2025 08 05 07 50 29.0000000  0  8                                             
G32  24533707.073 6 128925425.861 6      2263.835 6        41.303               
G10  22829868.822 7 119971818.768 7      2534.711 7        45.419               
G12  23384357.292 7 122885613.637 7      2561.496 7        47.568               
G15  23401747.800 7 122977025.090 7     -2545.470 7        46.940               
G23  20935492.581 7 110016761.238 7      -327.469 7        44.712               
G24  21579313.390 7 113400001.884 7     -2033.759 7        46.327               
G25  24087232.496 7 126579251.214 7      3630.636 7        43.367               
G28  26147547.677 7 137406323.374 7      3310.634 7        42.651               
> 2025 08 05 07 50 30.0000000  0  8                                             
G32  24533274.089 6 128923157.664 6      2271.299 6        41.592               
G10  22829383.911 7 119969281.157 7      2539.760 7        46.081               
G12  23383869.271 7 122883052.428 7      2561.260 7        47.966               
G15  23402234.338 7 122979574.067 7     -2548.780 7        47.082               
G23  20935551.790 7 110017085.366 7      -324.475 7        44.333               
G24  21579700.888 7 113402034.826 7     -2031.668 7        46.356               
G25  24086538.526 7 126575618.146 7      3634.482 7        43.188               
G28  26146915.524 7 137403009.338 7      3312.864 7        42.414               
> 2025 08 05 07 50 31.0000000  0  8                                             
G32  24532842.462 6 128920889.494 6      2258.776 6        41.800               
G10  22828903.109 7 119966743.860 7      2534.151 7        46.096               
G12  23383381.661 7 122880491.634 7      2562.845 7        47.625               
G15  23402717.534 7 122982123.227 7     -2549.184 7        47.034               
G23  20935610.142 7 110017410.100 7      -324.070 7        44.180               
G24  21580087.815 7 113404068.162 7     -2033.050 7        46.719               
G25  24085845.056 7 126571985.169 7      3633.663 7        43.176               
G28  26146286.106 7 137399695.392 7      3314.512 7        42.748               
> 2025 08 05 07 50 32.0000000  0  8                                             
G32  24532412.462 6 128918621.323 6      2265.879 6        41.899               
G10  22828416.714 7 119964206.891 7      2541.170 7        46.248               
G12  23382893.024 7 122877931.218 7      2561.309 7        47.692               
G15  23403204.331 7 122984672.534 7     -2549.945 7        47.866               
G23  20935672.308 7 110017735.434 7      -328.851 7        43.603               
G24  21580473.402 7 113406101.895 7     -2033.527 7        46.292               
G25  24085152.515 7 126568352.322 7      3638.656 7        42.127               
G28  26145658.099 7 137396381.576 7      3316.050 7        42.607               
> 2025 08 05 07 50 33.0000000  0  8                                             
G32  24531981.846 6 128916353.276 6      2265.274 6        41.330               
G10  22827936.850 7 119961670.344 7      2534.270 7        45.681               
G12  23382405.745 7 122875371.278 7      2557.346 7        47.634               
G15  23403686.241 7 122987222.100 7     -2549.167 7        47.772               
G23  20935733.250 7 110018061.467 7      -326.994 7        43.181               
G24  21580859.721 7 113408136.110 7     -2033.472 7        45.973               
G25  24084460.778 7 126564719.647 7      3629.360 7        42.484               
G28  26145027.465 7 137393067.991 7      3311.849 7        42.984               
> 2025 08 05 07 50 34.0000000  0  8                                             
G32  24531556.063 6 128914085.229 6      2265.780 6        41.633               
G10  22827451.832 7 119959134.160 7      2536.767 7        45.741               
G12  23381918.108 7 122872811.712 7      2556.121 7        47.656               
G15  23404173.949 8 122989771.848 8     -2550.335 8        48.096               
G23  20935797.087 7 110018388.120 7      -329.019 7        44.459               
G24  21581243.682 7 113410170.743 7     -2035.046 7        46.040               
G25  24083769.122 7 126561087.065 7      3631.003 7        42.666               
G28  26144397.171 7 137389754.487 7      3312.422 7        42.444               
> 2025 08 05 07 50 35.0000000  0  8                                             
G32  24531120.282 6 128911817.277 6      2265.993 6        41.091               
G10  22826972.906 7 119956598.320 7      2536.435 7        46.320               
G12  23381432.875 7 122870252.596 7      2561.096 7        47.269               
G15  23404658.450 7 122992321.821 7     -2550.868 7        47.991               
G23  20935864.865 7 110018715.437 7      -328.317 7        44.473               
G24  21581625.793 7 113412205.817 7     -2038.263 7        46.121               
G25  24083080.003 7 126557454.641 7      3635.244 7        42.478               
G28  26143764.903 7 137386441.199 7      3313.822 7        42.319               
> 2025 08 05 07 50 36.0000000  0  8                                             
G32  24530693.936 6 128909549.322 6      2272.469 6        40.996               
G10  22826487.941 7 119954062.836 7      2535.614 7        45.944               
G12  23380946.051 7 122867693.875 7      2558.685 7        47.143               
G15  23405143.120 7 122994871.977 7     -2553.095 7        47.167               
G23  20935925.128 7 110019043.380 7      -329.401 7        44.783               
G24  21582016.910 7 113414241.302 7     -2034.093 7        45.528               
G25  24082388.811 7 126553822.349 7      3629.900 7        42.475               
G28  26143131.705 6 137383128.018 6      3316.986 6        41.795               
> 2025 08 05 07 50 37.0000000  0  8                                             
G32  24530252.991 6 128907281.443 6      2264.440 6        41.395               
G10  22826003.663 7 119951527.733 7      2533.832 7        45.995               
G12  23380460.290 7 122865135.568 7      2559.065 7        47.448               
G15  23405628.854 7 122997422.326 7     -2548.073 7        47.561               
G23  20935992.726 7 110019371.949 7      -328.832 7        44.580               
G24  21582404.722 7 113416277.215 7     -2033.950 7        46.212               
G25  24081698.522 7 126550190.172 7      3634.904 7        42.515               
G28  26142503.627 6 137379815.011 6      3317.180 6        41.804               
> 2025 08 05 07 50 38.0000000  0  8                                             
G32  24529830.460 7 128905013.566 7      2270.126 7        42.074               
G10  22825524.532 7 119948992.932 7      2533.979 7        46.028               
G12  23379971.769 7 122862577.629 7      2558.347 7        47.652               
G15  23406112.720 7 122999972.819 7     -2550.135 7        47.444               
G23  20936056.394 7 110019701.129 7      -331.233 7        44.871               
G24  21582787.548 7 113418313.525 7     -2037.870 7        45.601               
G25  24081008.447 7 126546558.082 7      3634.627 7        43.471               
G28  26141868.696 6 137376502.117 6      3311.086 6        41.365               
> 2025 08 05 07 50 39.0000000  0  8                                             
G32  24529392.821 7 128902745.715 7      2268.580 7        42.168               
G10  22825039.058 7 119946458.500 7      2533.423 7        45.949               
G12  23379483.847 7 122860020.089 7      2554.131 7        47.332               
G15  23406596.864 7 123002523.524 7     -2550.635 7        47.702               
G23  20936113.601 7 110020030.927 7      -331.012 7        44.255               
G24  21583178.459 7 113420350.239 7     -2034.616 7        45.730               
G25  24080312.699 7 126542926.123 7      3631.516 7        42.825               
G28  26141241.001 6 137373189.354 6      3314.621 6        41.326               
> 2025 08 05 07 50 40.0000000  0  8                                             
G32  24528959.470 7 128900477.879 7      2273.552 7        42.318               
G10  22824561.839 7 119943924.388 7      2533.249 7        46.535               
G12  23378997.005 7 122857462.959 7      2556.764 7        47.020               
G15  23407079.023 7 123005074.399 7     -2551.046 7        47.122               
G23  20936173.293 7 110020361.362 7      -332.186 7        44.115               
G24  21583563.233 7 113422387.353 7     -2032.334 7        45.865               
G25  24079624.063 7 126539294.260 7      3632.416 7        42.742               
G28  26140610.949 6 137369876.729 6      3313.054 6        41.305               
> 2025 08 05 07 50 41.0000000  0  8                                             
G32  24528524.234 6 128898210.102 6      2269.081 6        41.983               
G10  22824077.383 7 119941390.643 7      2534.949 7        46.582               
G12  23378511.316 7 122854906.228 7      2553.141 7        47.389               
G15  23407565.427 7 123007625.475 7     -2556.855 7        47.454               
G23  20936237.255 7 110020692.415 7      -333.902 7        44.222               
G24  21583949.570 7 113424424.909 7     -2035.547 7        46.119               
G25  24078932.380 7 126535662.558 7      3636.754 7        42.384               
G28  26139979.877 6 137366564.249 6      3309.853 6        40.680               
> 2025 08 05 07 50 42.0000000  0  8                                             
G32  24528088.677 6 128895942.353 6      2265.851 6        41.617               
G10  22823598.788 7 119938857.224 7      2531.943 7        46.414               
G12  23378024.850 8 122852349.878 8      2556.421 8        48.299               
G15  23408047.122 7 123010176.714 7     -2548.682 7        47.709               
G23  20936303.889 7 110021024.089 7      -329.999 7        44.098               
G24  21584338.856 7 113426462.846 7     -2039.681 7        45.874               
G25  24078245.003 7 126532030.924 7      3631.578 7        43.994               
G28  26139352.755 6 137363251.882 6      3315.152 6        41.179               
> 2025 08 05 07 50 43.0000000  0  8                                             
G32  24527659.838 6 128893674.607 6      2268.500 6        41.579               
G10  22823115.136 7 119936324.154 7      2532.897 7        46.365               
G12  23377539.759 7 122849793.934 7      2555.594 7        47.703               
G15  23408539.503 7 123012728.149 7     -2551.275 7        47.175               
G23  20936367.100 7 110021356.383 7      -332.320 7        44.428               
G24  21584725.130 7 113428501.212 7     -2040.189 7        45.857               
G25  24077550.970 7 126528399.430 7      3630.740 7        43.243               
G28  26138720.620 6 137359939.655 6      3314.979 6        41.510               
> 2025 08 05 07 50 44.0000000  0  8                                             
G32  24527232.402 6 128891406.891 6      2267.179 6        41.380               
G10  22822630.966 7 119933791.436 7      2531.598 7        46.920               
G12  23377054.196 8 122847238.376 8      2558.032 8        48.022               
G15  23409025.416 7 123015279.733 7     -2551.337 7        47.120               
G23  20936427.650 7 110021689.288 7      -334.043 7        44.111               
G24  21585117.481 7 113430539.949 7     -2034.649 7        44.897               
G25  24076861.190 7 126524768.022 7      3635.018 7        42.747               
G28  26138089.942 6 137356627.570 6      3313.875 6        41.681               
> 2025 08 05 07 50 45.0000000  0  8                                             
G32  24526800.410 6 128889139.218 6      2266.732 6        41.086               
G10  22822151.701 7 119931259.042 7      2529.824 7        46.908               
G12  23376569.552 7 122844683.239 7      2553.935 7        47.992               
G15  23409512.445 7 123017831.532 7     -2553.389 7        47.221               
G23  20936494.426 7 110022022.819 7      -331.370 7        44.363               
G24  21585505.203 7 113432579.132 7     -2039.931 7        45.089               
G25  24076170.776 7 126521136.765 7      3633.503 7        42.979               
G28  26137459.121 7 137353315.606 7      3307.183 7        42.047               
> 2025 08 05 07 50 46.0000000  0  8                                             
G32  24526365.379 6 128886871.584 6      2268.758 6        41.594               
G10  22821670.291 7 119928727.051 7      2530.593 7        47.176               
G12  23376081.862 8 122842128.526 8      2556.622 8        48.137               
G15  23409996.383 7 123020383.552 7     -2553.873 7        47.640               
G23  20936560.309 7 110022357.006 7      -333.407 7        44.410               
G24  21585896.507 7 113434618.750 7     -2040.888 7        45.363               
G25  24075476.895 7 126517505.645 7      3631.484 7        42.906               
G28  26136830.006 6 137350003.812 6      3306.490 6        41.517               
> 2025 08 05 07 50 47.0000000  0  8                                             
G32  24525936.353 6 128884604.017 6      2264.327 6        41.409               
G10  22821193.975 7 119926195.413 7      2533.532 7        47.054               
G12  23375595.002 7 122839574.248 7      2553.168 7        47.910               
G15  23410483.421 7 123022935.758 7     -2551.622 7        47.614               
G23  20936622.895 7 110022691.846 7      -336.517 7        44.080               
G24  21586284.399 7 113436658.795 7     -2040.187 7        45.878               
G25  24074786.802 7 126513874.662 7      3629.214 7        42.755               
G28  26136198.149 6 137346692.199 6      3314.963 6        41.248               
> 2025 08 05 07 50 48.0000000  0  8                                             
G32  24525500.572 6 128882336.490 6      2263.254 6        41.153               
G10  22820711.046 8 119923664.130 8      2530.736 8        48.076               
G12  23375105.659 7 122837020.340 7      2556.134 7        47.458               
G15  23410968.440 7 123025488.155 7     -2551.556 7        47.830               
G23  20936687.662 7 110023027.308 7      -339.763 7        44.378               
G24  21586674.864 7 113438699.253 7     -2043.212 7        45.895               
G25  24074097.585 7 126510243.800 7      3629.531 7        42.936               
G28  26135567.980 6 137343380.693 6      3308.091 6        41.161               
> 2025 08 05 07 50 49.0000000  0  8                                             
G32  24525065.024 6 128880068.968 6      2265.297 6        40.384               
G10  22820229.181 7 119921133.179 7      2528.030 7        47.479               
G12  23374619.488 7 122834466.843 7      2554.887 7        47.824               
G15  23411456.604 7 123028040.722 7     -2553.882 7        47.209               
G23  20936751.392 7 110023363.389 7      -339.072 7        44.581               
G24  21587064.766 7 113440740.110 7     -2042.180 7        46.193               
G25  24073402.801 7 126506613.028 7      3633.542 7        43.017               
G28  26134940.027 6 137340069.341 6      3314.126 6        41.053               
> 2025 08 05 07 50 50.0000000  0  8                                             
G32  24524637.927 6 128877801.526 6      2264.016 6        41.025               
G10  22819748.880 7 119918602.619 7      2531.234 7        47.517               
G12  23374133.602 7 122831913.795 7      2551.975 7        47.431               
G15  23411938.826 7 123030593.516 7     -2555.357 7        47.638               
G23  20936816.855 7 110023700.138 7      -337.153 7        44.468               
G24  21587452.810 7 113442781.419 7     -2043.366 7        46.088               
G25  24072711.958 7 126502982.409 7      3630.446 7        42.787               
G28  26134309.402 6 137336758.162 6      3314.449 6        41.304               
> 2025 08 05 07 50 51.0000000  0  8                                             
G32  24524201.932 6 128875534.062 6      2264.584 6        40.694               
G10  22819265.809 7 119916072.367 7      2528.053 7        47.483               
G12  23373649.092 7 122829361.076 7      2551.378 7        46.935               
G15  23412427.142 7 123033146.457 7     -2552.669 7        47.853               
G23  20936877.002 7 110024037.455 7      -337.615 7        44.243               
G24  21587839.603 7 113444823.110 7     -2040.159 7        46.082               
G25  24072023.965 7 126499351.901 7      3621.612 7        43.012               
G28  26133674.542 6 137333447.069 6      3305.393 6        41.784               
> 2025 08 05 07 50 52.0000000  0  8                                             
G32  24523768.939 6 128873266.673 6      2262.643 6        40.722               
G10  22818782.076 7 119913542.488 7      2530.554 7        47.707               
G12  23373163.332 7 122826808.809 7      2551.051 7        47.538               
G15  23412911.767 7 123035699.610 7     -2553.292 7        47.837               
G23  20936942.912 7 110024375.440 7      -336.749 7        44.881               
G24  21588230.416 7 113446865.231 7     -2042.377 7        45.979               
G25  24071335.847 7 126495721.530 7      3630.859 7        43.207               
G28  26133052.406 6 137330136.134 6      3314.972 6        41.106               
> 2025 08 05 07 50 53.0000000  0  8                                             
G32  24523340.601 6 128870999.292 6      2269.627 6        41.162               
G10  22818299.273 7 119911012.910 7      2533.331 7        47.624               
G12  23372679.644 7 122824256.914 7      2548.872 7        47.881               
G15  23413395.857 8 123038252.914 8     -2553.808 8        48.199               
G23  20937005.846 7 110024714.009 7      -339.555 7        45.229               
G24  21588614.028 7 113448907.726 7     -2040.815 7        45.622               
G25  24070643.851 7 126492091.225 7      3630.764 7        43.555               
G28  26132422.174 6 137326825.321 6      3310.457 6        41.144               
> 2025 08 05 07 50 54.0000000  0  8                                             
G32  24522909.019 6 128868731.957 6      2264.251 6        41.112               
G10  22817818.999 7 119908483.722 7      2527.106 7        47.696               
G12  23372197.252 8 122821705.431 8      2549.692 8        48.286               
G15  23413883.074 7 123040806.428 7     -2554.387 7        47.851               
G23  20937066.825 7 110025053.226 7      -342.077 7        44.516               
G24  21589007.084 7 113450950.674 7     -2039.548 7        45.919               
G25  24069952.570 7 126488461.082 7      3633.552 7        43.259               
G28  26131787.868 6 137323514.684 6      3312.422 6        40.867               
> 2025 08 05 07 50 55.0000000  0  8                                             
G32  24522480.779 6 128866464.676 6      2264.683 6        41.059               
G10  22817338.009 7 119905954.925 7      2529.563 7        47.627               
G12  23371709.812 8 122819154.399 8      2546.779 8        48.043               
G15  23414372.453 7 123043360.175 7     -2557.766 7        47.502               
G23  20937135.316 7 110025393.123 7      -338.433 7        44.235               
G24  21589392.466 7 113452994.080 7     -2046.181 7        45.782               
G25  24069265.569 7 126484831.081 7      3628.385 7        43.367               
G28  26131158.432 6 137320204.207 6      3311.202 6        40.732               
> 2025 08 05 07 50 56.0000000  0  8                                             
G32  24522051.315 6 128864197.409 6      2263.231 6        41.869               
G10  22816855.966 7 119903426.430 7      2527.193 7        47.606               
G12  23371222.238 7 122816603.718 7      2547.065 7        47.702               
G15  23414855.167 7 123045914.034 7     -2552.942 7        47.039               
G23  20937196.759 7 110025733.595 7      -341.571 7        44.252               
G24  21589783.440 7 113455037.847 7     -2046.108 7        45.164               
G25  24068569.445 7 126481201.168 7      3631.380 7        43.448               
G28  26130535.840 6 137316893.838 6      3311.090 6        40.991               
> 2025 08 05 07 50 57.0000000  0  8                                             
G32  24521615.203 7 128861930.178 7      2269.726 7        42.122               
G10  22816373.681 8 119900898.279 8      2527.971 8        48.018               
G12  23370736.236 8 122814053.459 8      2551.283 8        48.208               
G15  23415341.740 7 123048468.133 7     -2555.038 7        47.731               
G23  20937264.831 7 110026074.709 7      -340.309 7        44.910               
G24  21590171.528 7 113457082.032 7     -2044.887 7        45.305               
G25  24067878.593 7 126477571.394 7      3631.123 7        43.246               
G28  26129892.492 6 137313583.603 6      3311.268 6        40.819               
> 2025 08 05 07 50 58.0000000  0  8                                             
G32  24521187.910 6 128859663.004 6      2272.685 6        41.672               
G10  22815890.806 7 119898370.493 7      2529.316 7        47.685               
G12  23370251.834 8 122811503.604 8      2552.046 8        48.385               
G15  23415829.841 7 123051022.405 7     -2557.331 7        47.409               
G23  20937330.777 7 110026416.438 7      -341.239 7        44.459               
G24  21590559.670 7 113459126.627 7     -2046.504 7        45.093               
G25  24067186.383 7 126473941.743 7      3621.200 7        43.629               
G28  26129270.391 6 137310273.533 6      3302.835 6        40.522               
> 2025 08 05 07 50 59.0000000  0  8                                             
G32  24520762.279 6 128857395.884 6      2264.114 6        41.245               
G10  22815410.299 7 119895843.117 7      2528.907 7        47.568               
G12  23369767.476 8 122808954.219 8      2549.500 8        48.071               
G15  23416315.691 7 123053576.897 7     -2551.532 7        47.321               
G23  20937395.391 7 110026758.862 7      -345.987 7        44.031               
G24  21590946.660 7 113461171.702 7     -2043.882 7        44.695               
G25  24066495.423 7 126470312.244 7      3632.434 7        43.153               
G28  26128644.439 6 137306963.640 6      3311.136 6        41.432               
> 2025 08 05 07 51 00.0000000  0  8                                             
G32  24520327.919 6 128855128.768 6      2268.356 6        41.901               
G10  22814930.087 7 119893316.075 7      2525.173 7        47.770               
G12  23369282.949 7 122806405.208 7      2547.576 7        47.754               
G15  23416804.320 7 123056131.579 7     -2556.667 7        46.987               
G23  20937458.353 7 110027101.880 7      -344.336 7        43.909               
G24  21591335.695 7 113463217.160 7     -2046.010 7        44.851               
G25  24065810.968 7 126466682.859 7      3628.770 7        43.590               
G28  26128008.722 6 137303653.875 6      3313.842 6        40.877               
> 2025 08 05 07 51 01.0000000  0  8                                             
G32  24519900.144 6 128852861.685 6      2267.448 6        41.956               
G10  22814448.990 8 119890789.354 8      2530.681 8        48.125               
G12  23368797.099 7 122803856.586 7      2544.521 7        47.880               
G15  23417289.070 7 123058686.438 7     -2557.786 7        47.485               
G23  20937522.681 7 110027445.535 7      -340.679 7        43.899               
G24  21591724.596 7 113465263.008 7     -2049.598 7        45.274               
G25  24065115.238 7 126463053.572 7      3628.492 7        42.855               
G28  26127378.097 6 137300344.227 6      3309.262 6        40.436               
> 2025 08 05 07 51 02.0000000  0  8                                             
G32  24519472.136 7 128850594.668 7      2266.568 7        42.370               
G10  22813971.217 7 119888263.008 7      2525.207 7        47.386               
G12  23368312.893 8 122801308.387 8      2548.300 8        48.491               
G15  23417776.019 7 123061241.488 7     -2554.906 7        47.929               
G23  20937591.459 7 110027789.823 7      -343.008 7        43.308               
G24  21592111.541 7 113467309.301 7     -2045.656 7        44.723               
G25  24064423.653 7 126459424.423 7      3631.107 7        43.150               
G28  26126759.829 6 137297034.748 6      3309.407 6        41.349               
> 2025 08 05 07 51 03.0000000  0  8                                             
G32  24519030.753 7 128848327.658 7      2267.981 7        42.449               
G10  22813487.753 8 119885737.026 8      2525.827 8        48.004               
G12  23367828.893 8 122798760.583 8      2550.077 8        48.027               
G15  23418258.849 7 123063796.713 7     -2556.360 7        46.864               
G23  20937654.412 7 110028134.720 7      -345.942 7        43.011               
G24  21592501.068 7 113469355.985 7     -2044.932 7        45.705               
G25  24063735.508 7 126455795.407 7      3631.183 7        42.704               
G28  26126115.159 6 137293725.394 6      3307.430 6        40.789               
> 2025 08 05 07 51 04.0000000  0  8                                             
G32  24518607.945 7 128846060.726 7      2269.618 7        42.045               
G10  22813007.559 8 119883211.390 8      2522.744 8        48.073               
G12  23367344.311 8 122796213.216 8      2548.271 8        48.440               
G15  23418744.485 7 123066352.160 7     -2551.449 7        47.009               
G23  20937718.794 7 110028480.278 7      -343.022 7        43.796               
G24  21592885.574 7 113471403.114 7     -2045.103 7        45.043               
G25  24063041.493 7 126452166.531 7      3627.799 7        42.595               
G28  26125493.335 6 137290416.199 6      3311.132 6        41.004               
> 2025 08 05 07 51 05.0000000  0  8                                             
G32  24518178.347 7 128843793.844 7      2264.367 7        42.091               
G10  22812527.615 8 119880686.138 8      2525.377 8        48.045               
G12  23366857.416 8 122793666.283 8      2546.341 8        48.344               
G15  23419230.593 7 123068907.804 7     -2553.964 7        46.600               
G23  20937793.647 7 110028826.490 7      -342.791 7        44.627               
G24  21593278.245 7 113473450.679 7     -2046.450 7        45.035               
G25  24062349.721 7 126448537.789 7      3630.224 7        42.106               
G28  26124861.308 6 137287107.195 6      3305.759 6        41.338               
> 2025 08 05 07 51 06.0000000  0  8                                             
G32  24517740.476 7 128841526.960 7      2271.123 7        42.584               
G10  22812045.008 7 119878161.239 7      2523.418 7        47.868               
G12  23366375.408 7 122791119.714 7      2547.302 7        47.884               
G15  23419716.113 7 123071463.652 7     -2558.862 7        46.797               
G23  20937855.367 7 110029173.311 7      -347.845 7        44.414               
G24  21593665.512 7 113475498.634 7     -2047.110 7        44.489               
G25  24061661.638 7 126444909.129 7      3628.065 7        42.043               
G28  26124226.189 6 137283798.293 6      3313.013 6        41.876               
> 2025 08 05 07 51 07.0000000  0  8                                             
G32  24517310.636 7 128839260.153 7      2267.957 7        42.993               
G10  22811566.190 8 119875636.698 8      2523.191 8        48.113               
G12  23365887.959 7 122788573.601 7      2547.242 7        47.536               
G15  23420202.141 7 123074019.693 7     -2559.395 7        46.762               
G23  20937917.024 7 110029520.781 7      -345.173 7        44.452               
G24  21594057.281 7 113477547.040 7     -2052.019 7        45.034               
G25  24060972.859 7 126441280.668 7      3627.833 7        42.411               
G28  26123600.434 6 137280489.568 6      3308.423 6        41.682               
> 2025 08 05 07 51 08.0000000  0  8                                             
G32  24516877.509 7 128836993.354 7      2268.415 7        42.968               
G10  22811087.845 7 119873112.492 7      2521.394 7        47.416               
G12  23365402.002 7 122786027.854 7      2547.330 7        47.802               
G15  23420685.820 7 123076575.889 7     -2553.450 7        47.003               
G23  20937984.435 7 110029868.859 7      -346.668 7        44.279               
G24  21594446.263 7 113479595.825 7     -2047.634 7        45.179               
G25  24060280.693 7 126437652.308 7      3619.437 7        42.792               
G28  26122969.282 6 137277180.966 6      3306.739 6        41.626               
> 2025 08 05 07 51 09.0000000  0  8                                             
G32  24516447.857 7 128834726.600 7      2266.862 7        42.745               
G10  22810607.704 7 119870588.647 7      2524.160 7        47.866               
G12  23364917.636 8 122783482.538 8      2542.799 8        48.355               
G15  23421171.920 7 123079132.291 7     -2555.520 7        46.507               
G23  20938049.505 7 110030217.590 7      -353.178 7        43.896               
G24  21594838.238 7 113481645.048 7     -2051.668 7        45.237               
G25  24059591.164 7 126434024.053 7      3628.952 7        42.479               
G28  26122339.203 6 137273872.512 6      3302.816 6        41.218               
> 2025 08 05 07 51 10.0000000  0  8                                             
G32  24516012.380 7 128832459.877 7      2266.292 7        42.163               
G10  22810125.169 8 119868065.174 8      2519.065 8        48.346               
G12  23364434.198 7 122780937.623 7      2542.435 7        47.831               
G15  23421657.904 7 123081688.893 7     -2555.993 7        46.715               
G23  20938115.897 7 110030566.942 7      -352.367 7        44.156               
G24  21595232.161 7 113483694.693 7     -2049.823 7        45.473               
G25  24058899.820 7 126430395.931 7      3625.463 7        42.619               
G28  26121717.584 6 137270564.188 6      3301.536 6        40.935               
> 2025 08 05 07 51 11.0000000  0  8                                             
G32  24515584.462 7 128830193.218 7      2268.256 7        42.651               
G10  22809645.484 8 119865542.046 8      2523.206 8        48.959               
G12  23363951.994 7 122778393.143 7      2547.090 7        47.945               
G15  23422144.558 7 123084245.671 7     -2557.227 7        46.439               
G23  20938186.194 7 110030916.937 7      -349.065 7        43.579               
G24  21595622.697 7 113485744.745 7     -2049.256 7        45.522               
G25  24058213.131 7 126426767.954 7      3629.580 7        43.216               
G28  26121086.432 6 137267256.041 6      3308.175 6        41.450               
> 2025 08 05 07 51 12.0000000  0  8                                             
G32  24515156.963 6 128827926.565 6      2266.848 6        41.779               
G10  22809168.435 8 119863019.299 8      2524.217 8        48.439               
G12  23363465.277 8 122775849.052 8      2544.294 8        48.230               
G15  23422632.355 7 123086802.644 7     -2554.505 7        45.742               
G23  20938253.649 7 110031267.555 7      -351.231 7        43.976               
G24  21596014.931 7 113487795.213 7     -2050.834 7        45.316               
G25  24057523.977 7 126423140.108 7      3629.859 7        42.982               
G28  26120453.494 6 137263948.041 6      3304.821 6        40.659               
> 2025 08 05 07 51 13.0000000  0  8                                             
G32  24514726.597 7 128825659.977 7      2267.737 7        42.293               
G10  22808685.676 8 119860496.895 8      2522.994 8        48.443               
G12  23362983.752 8 122773305.396 8      2546.222 8        48.400               
G15  23423115.694 7 123089359.825 7     -2562.947 7        45.376               
G23  20938321.060 7 110031618.817 7      -350.126 7        44.294               
G24  21596404.985 7 113489846.118 7     -2054.497 7        44.870               
G25  24056827.817 7 126419512.394 7      3627.010 7        43.600               
G28  26119825.103 6 137260640.167 6      3305.845 6        41.237               
> 2025 08 05 07 51 14.0000000  0  8                                             
G32  24514294.604 7 128823393.439 7      2270.511 7        42.361               
G10  22808206.956 8 119857974.856 8      2522.405 8        48.331               
G12  23362499.993 8 122770762.160 8      2540.703 8        48.365               
G15  23423602.527 7 123091917.193 7     -2556.732 7        45.827               
G23  20938385.549 7 110031970.705 7      -355.012 7        44.272               
G24  21596795.629 7 113491897.421 7     -2052.463 7        45.140               
G25  24056140.941 7 126415884.800 7      3626.989 7        43.469               
G28  26119193.790 6 137257332.486 6      3302.372 6        40.861               
> 2025 08 05 07 51 15.0000000  0  8                                             
G32  24513860.208 7 128821126.940 7      2267.694 7        42.136               
G10  22807726.271 7 119855453.189 7      2520.792 7        47.730               
G12  23362015.465 7 122768219.357 7      2538.216 7        47.970               
G15  23424088.091 7 123094474.778 7     -2558.232 7        46.035               
G23  20938452.406 7 110032323.255 7      -353.753 7        43.275               
G24  21597188.962 7 113493949.177 7     -2052.648 7        45.587               
G25  24055453.341 7 126412257.363 7      3627.809 7        43.272               
G28  26118565.944 6 137254024.909 6      3306.005 6        40.787               
> 2025 08 05 07 51 16.0000000  0  8                                             
G32  24513429.350 6 128818860.487 6      2265.822 6        41.957               
G10  22807245.112 7 119852931.871 7      2523.769 7        47.366               
G12  23361530.929 7 122765676.961 7      2544.920 7        47.401               
G15  23424579.301 7 123097032.558 7     -2557.035 7        46.354               
G23  20938517.512 7 110032676.434 7      -356.149 7        43.440               
G24  21597579.033 7 113496001.339 7     -2050.456 7        45.113               
G25  24054761.319 7 126408630.043 7      3630.085 7        43.503               
G28  26117939.099 6 137250717.522 6      3306.270 6        40.176               
> 2025 08 05 07 51 17.0000000  0  8                                             
G32  24512996.187 6 128816594.045 6      2268.998 6        41.941               
G10  22806767.767 8 119850410.915 8      2520.614 8        48.569               
G12  23361048.322 7 122763134.962 7      2538.403 7        47.944               
G15  23425063.257 7 123099590.508 7     -2560.163 7        46.775               
G23  20938584.164 7 110033030.244 7      -349.641 7        43.527               
G24  21597969.114 7 113498053.907 7     -2050.575 7        45.378               
G25  24054070.931 7 126405002.822 7      3623.381 7        43.631               
G28  26117310.618 6 137247410.249 6      3303.544 6        41.032               
> 2025 08 05 07 51 18.0000000  0  8                                             
G32  24512565.338 6 128814327.661 6      2264.254 6        41.020               
G10  22806286.849 8 119847890.318 8      2520.095 8        48.884               
G12  23360559.694 7 122760593.375 7      2542.425 7        47.940               
G15  23425553.056 7 123102148.653 7     -2558.487 7        46.563               
G23  20938650.896 7 110033384.679 7      -354.355 7        43.907               
G24  21598360.866 7 113500106.895 7     -2050.233 7        46.137               
G25  24053378.971 7 126401375.765 7      3627.963 7        44.023               
G28  26116683.192 6 137244103.127 6      3308.681 6        41.083               
> 2025 08 05 07 51 19.0000000  0  8                                             
G32  24512127.726 6 128812061.219 6      2266.351 6        41.322               
G10  22805806.039 8 119845369.996 8      2520.999 8        48.518               
G12  23360080.527 8 122758052.125 8      2541.955 8        48.116               
G15  23426039.299 7 123104706.912 7     -2556.572 7        46.533               
G23  20938722.202 7 110033739.677 7      -355.780 7        43.527               
G24  21598751.054 7 113502160.221 7     -2052.137 7        45.835               
G25  24052693.310 7 126397748.764 7      3623.960 7        44.647               
G28  26116049.181 6 137240796.089 6      3310.930 6        40.978               
> 2025 08 05 07 51 20.0000000  0  8                                             
G32  24511701.478 6 128809794.879 6      2264.523 6        41.499               
G10  22805329.034 8 119842850.077 8      2521.964 8        48.724               
G12  23359596.929 7 122755511.323 7      2542.244 7        47.785               
G15  23426529.589 7 123107265.405 7     -2556.591 7        46.259               
G23  20938792.963 7 110034095.343 7      -357.134 7        43.942               
G24  21599141.679 7 113504214.009 7     -2054.334 7        45.140               
G25  24052001.689 7 126394121.908 7      3631.128 7        44.293               
G28  26115423.444 6 137237489.214 6      3306.134 6        40.653               
> 2025 08 05 07 51 21.0000000  0  8                                             
G32  24511270.656 7 128807528.579 7      2265.369 7        42.161               
G10  22804850.296 8 119840330.517 8      2521.175 8        48.580               
G12  23359113.116 8 122752970.949 8      2542.452 8        48.209               
G15  23427015.251 7 123109824.096 7     -2559.527 7        46.036               
G23  20938864.672 7 110034451.659 7      -359.895 7        44.151               
G24  21599533.502 7 113506268.230 7     -2050.417 7        45.198               
G25  24051314.044 7 126390495.218 7      3626.806 7        44.382               
G28  26114788.182 6 137234182.502 6      3308.241 6        40.407               
> 2025 08 05 07 51 22.0000000  0  8                                             
G32  24510837.645 7 128805262.341 7      2267.454 7        42.528               
G10  22804370.593 8 119837811.333 8      2520.356 8        48.759               
G12  23358628.892 8 122750431.006 8      2540.304 8        48.058               
G15  23427502.504 7 123112382.992 7     -2558.589 7        45.557               
G23  20938929.295 7 110034808.606 7      -356.680 7        44.601               
G24  21599927.371 7 113508322.868 7     -2056.406 7        45.292               
G25  24050620.092 7 126386868.628 7      3628.676 7        44.069               
G28  26114163.776 6 137230875.957 6      3312.311 6        41.275               
> 2025 08 05 07 51 23.0000000  0  8                                             
G32  24510405.938 7 128802996.151 7      2263.576 7        42.218               
G10  22803887.942 8 119835292.543 8      2518.244 8        48.522               
G12  23358145.338 8 122747891.506 8      2537.914 8        48.424               
G15  23427987.121 7 123114942.109 7     -2557.540 7        46.032               
G23  20938998.019 7 110035166.213 7      -358.107 7        45.073               
G24  21600317.908 7 113510377.947 7     -2053.998 7        45.075               
G25  24049929.213 7 126383242.225 7      3627.141 7        44.223               
G28  26113533.616 6 137227569.600 6      3304.546 6        41.302               
> 2025 08 05 07 51 24.0000000  0  8                                             
G32  24509973.186 6 128800730.020 6      2270.000 6        41.567               
G10  22803412.590 8 119832774.093 8      2519.547 8        48.991               
G12  23357662.714 8 122745352.399 8      2537.533 8        48.359               
G15  23428476.106 7 123117501.381 7     -2559.203 7        46.422               
G23  20939063.732 7 110035524.456 7      -357.601 7        44.851               
G24  21600707.059 7 113512433.431 7     -2057.082 7        45.669               
G25  24049242.694 7 126379615.945 7      3626.814 7        43.060               
G28  26112901.625 6 137224263.359 6      3310.099 6        41.421               
> 2025 08 05 07 51 25.0000000  0  8                                             
G32  24509545.277 7 128798463.918 7      2271.354 7        42.060               
G10  22802931.717 8 119830256.010 8      2519.757 8        49.445               
G12  23357179.652 8 122742813.725 8      2540.305 8        48.384               
G15  23428960.920 7 123120060.883 7     -2559.179 7        47.038               
G23  20939133.859 7 110035883.338 7      -360.101 7        45.813               
G24  21601095.836 7 113514489.355 7     -2055.447 7        45.258               
G25  24048548.795 7 126375989.799 7      3627.480 7        43.541               
G28  26112273.546 6 137220957.264 6      3300.833 6        41.018               
> 2025 08 05 07 51 26.0000000  0  8                                             
G32  24509114.473 7 128796197.833 7      2260.791 7        42.153               
G10  22802453.747 8 119827738.254 8      2517.955 8        48.765               
G12  23356695.911 8 122740275.432 8      2536.959 8        48.124               
G15  23429448.851 7 123122620.533 7     -2558.286 7        46.198               
G23  20939202.637 7 110036242.824 7      -363.571 7        44.992               
G24  21601487.132 7 113516545.661 7     -2053.504 7        44.901               
G25  24047857.693 7 126372363.767 7      3624.096 7        42.507               
G28  26111644.834 6 137217651.315 6      3310.768 6        41.834               
> 2025 08 05 07 51 27.0000000  0  8                                             
G32  24508689.762 7 128793931.782 7      2264.157 7        42.376               
G10  22801977.860 8 119825220.863 8      2517.052 8        49.055               
G12  23356211.303 7 122737737.558 7      2535.756 7        47.715               
G15  23429938.847 7 123125180.378 7     -2558.500 7        45.737               
G23  20939270.316 7 110036602.941 7      -360.288 7        45.193               
G24  21601877.963 7 113518602.388 7     -2057.594 7        45.241               
G25  24047167.288 7 126368737.831 7      3628.048 7        42.449               
G28  26111023.778 6 137214345.507 6      3306.218 6        40.769               
> 2025 08 05 07 51 28.0000000  0  8                                             
G32  24508252.176 6 128791665.838 6      2266.605 6        41.722               
G10  22801497.960 8 119822703.910 8      2516.132 8        48.619               
G12  23355729.178 7 122735200.170 7      2536.861 7        47.857               
G15  23430427.171 7 123127740.495 7     -2555.586 7        45.447               
G23  20939333.287 7 110036963.776 7      -359.368 7        44.626               
G24  21602267.356 7 113520659.594 7     -2055.497 7        44.722               
G25  24046477.981 7 126365112.105 7      3627.167 7        42.590               
G28  26110394.207 6 137211039.915 6      3308.445 6        41.168               
> 2025 08 05 07 51 29.0000000  0  8                                             
G32  24507820.916 6 128789399.963 6      2265.834 6        41.906               
G10  22801017.623 8 119820187.351 8      2515.227 8        49.346               
G12  23355248.127 7 122732663.241 7      2535.554 7        47.879               
G15  23430914.540 7 123130300.843 7     -2557.184 7        45.605               
G23  20939401.797 7 110037325.279 7      -361.013 7        44.700               
G24  21602655.837 7 113522717.267 7     -2060.051 7        45.414               
G25  24045789.041 7 126361486.565 7      3630.552 7        42.056               
G28  26109758.660 6 137207734.514 6      3306.422 6        41.766               
> 2025 08 05 07 51 30.0000000  0  8                                             
G32  24507389.594 6 128787134.127 6      2265.474 6        41.548               
G10  22800541.003 8 119817671.145 8      2513.198 8        48.942               
G12  23354766.279 8 122730126.697 8      2536.003 8        48.344               
G15  23431401.355 7 123132861.370 7     -2559.489 7        45.846               
G23  20939471.236 7 110037687.407 7      -361.686 7        44.382               
G24  21603049.009 7 113524775.338 7     -2056.849 7        44.642               
G25  24045100.824 6 126357861.136 6      3630.794 6        41.993               
G28  26109132.404 7 137204429.237 7      3302.451 7        42.143               
> 2025 08 05 07 51 31.0000000  0  8                                             
G32  24506953.152 6 128784868.299 6      2257.252 6        41.904               
G10  22800061.461 8 119815155.264 8      2514.378 8        48.729               
G12  23354285.379 8 122727590.562 8      2534.280 8        48.738               
G15  23431889.876 7 123135422.086 7     -2560.093 7        46.218               
G23  20939543.677 7 110038050.154 7      -359.891 7        44.528               
G24  21603436.026 7 113526833.805 7     -2056.792 7        45.019               
G25  24044406.202 7 126354235.824 7      3629.340 7        42.466               
G28  26108501.672 7 137201124.104 7      3312.008 7        42.267               
> 2025 08 05 07 51 32.0000000  0  8                                             
G32  24506524.117 6 128782602.578 6      2267.815 6        41.179               
G10  22799580.221 8 119812639.798 8      2514.859 8        49.307               
G12  23353801.790 8 122725054.883 8      2535.794 8        48.092               
G15  23432374.055 7 123137983.023 7     -2558.814 7        46.229               
G23  20939613.839 7 110038413.567 7      -363.470 7        44.701               
G24  21603827.706 7 113528892.737 7     -2054.957 7        44.890               
G25  24043720.969 7 126350610.679 7      3622.587 7        42.287               
G28  26107870.753 6 137197819.163 6      3307.174 6        41.515               
> 2025 08 05 07 51 33.0000000  0  8                                             
G32  24506090.418 6 128780336.859 6      2267.294 6        41.453               
G10  22799102.707 8 119810124.673 8      2512.127 8        49.192               
G12  23353319.898 7 122722519.589 7      2534.712 7        47.847               
G15  23432861.844 7 123140544.157 7     -2561.269 7        46.399               
G23  20939682.304 7 110038777.599 7      -365.329 7        44.566               
G24  21604218.456 7 113530952.071 7     -2055.764 7        44.500               
G25  24043032.154 6 126346985.631 6      3619.757 6        41.823               
G28  26107242.246 6 137194514.333 6      3304.758 6        41.154               
> 2025 08 05 07 51 34.0000000  0  8                                             
G32  24505662.669 6 128778071.194 6      2268.524 6        41.298               
G10  22798624.273 8 119807609.905 8      2516.966 8        48.856               
G12  23352836.747 7 122719984.725 7      2535.082 7        47.796               
G15  23433353.081 7 123143105.470 7     -2560.442 7        45.868               
G23  20939754.692 7 110039142.267 7      -367.934 7        45.325               
G24  21604610.065 7 113533011.816 7     -2060.418 7        44.045               
G25  24042340.239 6 126343360.746 6      3619.839 6        41.817               
G28  26106615.427 6 137191209.677 6      3305.838 6        40.947               
> 2025 08 05 07 51 35.0000000  0  8                                             
G32  24505236.913 6 128775805.502 6      2257.871 6        41.412               
G10  22798145.535 8 119805095.438 8      2516.144 8        48.947               
G12  23352352.040 7 122717450.214 7      2535.710 7        47.997               
G15  23433835.956 7 123145666.927 7     -2561.062 7        45.972               
G23  20939823.461 7 110039507.505 7      -363.031 7        45.376               
G24  21605006.328 7 113535071.913 7     -2060.464 7        44.276               
G25  24041654.533 7 126339735.912 7      3628.044 7        42.841               
G28  26105985.928 6 137187905.093 6      3300.532 6        40.640               
> 2025 08 05 07 51 36.0000000  0  8                                             
G32  24504804.777 6 128773539.876 6      2264.609 6        41.860               
G10  22797668.137 8 119802581.350 8      2514.758 8        49.129               
G12  23351871.265 7 122714916.132 7      2533.429 7        47.570               
G15  23434326.273 7 123148228.582 7     -2562.393 7        46.183               
G23  20939892.033 7 110039873.395 7      -366.816 7        45.861               
G24  21605393.139 7 113537132.446 7     -2058.566 7        44.296               
G25  24040961.966 7 126336111.234 7      3627.426 7        43.121               
G28  26105352.650 6 137184600.670 6      3304.890 6        41.295               
> 2025 08 05 07 51 37.0000000  0  8                                             
G32  24504378.520 6 128771274.254 6      2266.824 6        41.688               
G10  22797188.908 8 119800067.597 8      2515.191 8        49.271               
G12  23351389.936 8 122712382.431 8      2532.523 8        48.170               
G15  23434811.327 7 123150790.380 7     -2558.987 7        46.646               
G23  20939964.197 7 110040239.885 7      -366.981 7        45.366               
G24  21605787.839 7 113539193.342 7     -2058.556 7        44.246               
G25  24040271.801 7 126332486.654 7      3623.889 7        43.504               
G28  26104723.134 6 137181296.369 6      3301.523 6        41.042               
> 2025 08 05 07 51 38.0000000  0  8                                             
G32  24503936.155 6 128769008.634 6      2264.520 6        41.381               
G10  22796707.499 8 119797554.163 8      2512.582 8        48.702               
G12  23350906.213 8 122709849.107 8      2530.297 8        48.345               
G15  23435300.795 7 123153352.351 7     -2561.807 7        46.367               
G23  20940035.584 7 110040606.972 7      -365.515 7        45.647               
G24  21606178.349 7 113541254.638 7     -2062.113 7        44.213               
G25  24039581.592 7 126328862.161 7      3618.686 7        43.427               
G28  26104099.907 6 137177992.189 6      3295.282 6        40.013               
> 2025 08 05 07 51 39.0000000  0  8                                             
G32  24503510.711 6 128766743.072 6      2267.412 6        41.454               
G10  22796230.682 8 119795041.117 8      2515.009 8        48.992               
G12  23350420.738 8 122707316.220 8      2534.761 8        48.075               
G15  23435786.887 7 123155914.534 7     -2561.435 7        46.475               
G23  20940104.433 7 110040974.713 7      -368.429 7        45.138               
G24  21606572.548 7 113543316.373 7     -2064.469 7        44.128               
G25  24038897.021 7 126325237.827 7      3624.642 7        43.799               
G28  26103471.266 6 137174688.157 6      3304.139 6        40.541               
> 2025 08 05 07 51 40.0000000  0  8                                             
G32  24503072.438 6 128764477.499 6      2262.217 6        40.936               
G10  22795753.936 8 119792528.385 8      2514.252 8        48.917               
G12  23349940.464 8 122704783.713 8      2531.061 8        48.249               
G15  23436277.498 7 123158476.866 7     -2561.700 7        46.130               
G23  20940171.585 7 110041343.054 7      -370.741 7        45.585               
G24  21606967.489 7 113545378.477 7     -2060.785 7        44.431               
G25  24038202.229 7 126321613.595 7      3623.174 7        43.426               
G28  26102844.224 6 137171384.255 6      3306.239 6        40.598               
> 2025 08 05 07 51 41.0000000  0  8                                             
G32  24502634.897 6 128762211.983 6      2265.084 6        40.121               
G10  22795275.421 8 119790015.995 8      2510.604 8        48.650               
G12  23349457.509 7 122702251.603 7      2532.052 7        47.778               
G15  23436763.411 7 123161039.380 7     -2562.144 7        46.362               
G23  20940236.905 7 110041712.016 7      -366.999 7        45.696               
G24  21607359.554 7 113547440.985 7     -2064.024 7        43.969               
G25  24037516.050 7 126317989.493 7      3621.909 7        43.205               
G28  26102217.843 6 137168080.492 6      3305.082 6        39.949               
> 2025 08 05 07 51 42.0000000  0  8                                             
G32  24502210.570 6 128759946.496 6      2261.900 6        39.890               
G10  22794797.961 8 119787503.992 8      2513.892 8        48.910               
G12  23348980.138 7 122699719.935 7      2527.367 7        47.894               
G15  23437249.305 7 123163602.107 7     -2565.166 7        45.851               
G23  20940309.060 7 110042081.641 7      -370.462 7        45.341               
G24  21607756.192 7 113549503.923 7     -2057.324 7        44.411               
G25  24036824.331 7 126314365.525 7      3622.605 7        43.488               
G28  26101584.851 6 137164776.883 6      3305.344 6        40.357               
> 2025 08 05 07 51 43.0000000  0  8                                             
G32  24501779.605 6 128757681.061 6      2265.810 6        39.523               
G10  22794320.465 8 119784992.357 8      2510.628 8        48.618               
G12  23348500.658 8 122697188.676 8      2532.456 8        48.615               
G15  23437735.039 7 123166165.018 7     -2564.029 7        45.692               
G23  20940374.640 7 110042451.892 7      -369.388 7        44.375               
G24  21608149.347 7 113551567.287 7     -2064.991 7        45.199               
G25  24036137.454 7 126310741.683 7      3625.194 7        43.435               
G28  26100953.994 6 137161473.409 6      3297.302 6        40.490               
> 2025 08 05 07 51 44.0000000  0  8                                             
G32  24501347.059 6 128755415.680 6      2255.019 6        40.143               
G10  22793842.781 8 119782481.115 8      2512.330 8        49.087               
G12  23348017.811 8 122694657.892 8      2532.142 8        48.189               
G15  23438220.647 7 123168728.162 7     -2562.071 7        45.681               
G23  20940448.555 7 110042822.829 7      -375.161 7        43.836               
G24  21608542.599 7 113553631.110 7     -2064.461 7        45.409               
G25  24035445.342 7 126307118.042 7      3624.843 7        43.987               
G28  26100323.789 6 137158170.148 6      3301.320 6        40.569               
> 2025 08 05 07 51 45.0000000  0  8                                             
G32  24500919.873 6 128753150.474 6      2263.890 6        39.514               
G10  22793365.804 8 119779970.322 8      2509.834 8        49.165               
G12  23347538.885 8 122692127.594 8      2530.463 8        48.916               
G15  23438710.035 7 123171291.579 7     -2562.026 7        46.167               
G23  20940522.515 7 110043194.469 7      -374.411 7        44.151               
G24  21608936.388 7 113555695.425 7     -2067.966 7        45.386               
G25  24034756.233 7 126303494.594 7      3619.411 7        43.831               
G28  26099695.738 6 137154867.114 6      3303.616 6        39.759               
> 2025 08 05 07 51 46.0000000  0  8                                             
G32  24500484.878 6 128750885.290 6      2269.675 6        39.974               
G10  22792886.780 8 119777459.905 8      2508.362 8        49.109               
G12  23347058.414 8 122689597.736 8      2529.276 8        49.024               
G15  23439200.013 7 123173855.212 7     -2563.027 7        46.276               
G23  20940596.046 7 110043566.760 7      -372.575 7        45.469               
G24  21609333.625 7 113557760.166 7     -2065.967 7        45.502               
G25  24034064.549 7 126299871.290 7      3627.681 7        43.515               
G28  26099072.377 6 137151564.233 6      3301.169 6        39.930               
> 2025 08 05 07 51 47.0000000  0  8                                             
G32  24500054.860 6 128748620.105 6      2268.353 6        39.730               
G10  22792408.909 8 119774949.805 8      2508.217 8        48.992               
G12  23346577.004 8 122687068.248 8      2530.064 8        48.865               
G15  23439685.380 7 123176419.002 7     -2566.359 7        46.000               
G23  20940669.890 7 110043939.644 7      -371.277 7        45.413               
G24  21609728.218 7 113559825.291 7     -2066.086 7        44.971               
G25  24033376.369 7 126296248.097 7      3620.592 7        43.611               
G28  26098440.921 6 137148261.487 6      3301.898 6        40.459               
> 2025 08 05 07 51 48.0000000  0  8                                             
G32  24499624.458 6 128746354.969 6      2265.367 6        40.153               
G10  22791930.019 8 119772440.046 8      2509.723 8        48.751               
G12  23346092.959 8 122684539.169 8      2527.210 8        48.067               
G15  23440175.036 7 123178982.960 7     -2565.969 7        45.527               
G23  20940737.506 7 110044313.146 7      -375.734 7        45.687               
G24  21610121.131 7 113561890.808 7     -2066.361 7        45.759               
G25  24032685.945 7 126292625.014 7      3619.378 7        43.187               
G28  26097812.164 6 137144958.851 6      3306.162 6        40.617               
> 2025 08 05 07 51 49.0000000  0  8                                             
G32  24499191.313 6 128744089.821 6      2264.244 6        39.433               
G10  22791454.587 8 119769930.646 8      2507.320 8        49.254               
G12  23345608.771 8 122682010.489 8      2527.185 8        48.376               
G15  23440661.645 7 123181547.113 7     -2562.870 7        45.887               
G23  20940805.909 7 110044687.275 7      -375.798 7        45.400               
G24  21610518.136 7 113563956.728 7     -2062.073 7        45.825               
G25  24032000.114 7 126289002.059 7      3620.366 7        43.308               
G28  26097188.669 6 137141656.354 6      3298.758 6        39.835               
> 2025 08 05 07 51 50.0000000  0  8                                             
G32  24498754.916 6 128741824.769 6      2267.055 6        40.107               
G10  22790973.284 8 119767421.633 8      2507.747 8        49.339               
G12  23345127.308 7 122679482.251 7      2527.629 7        47.706               
G15  23441148.380 7 123184111.472 7     -2562.041 7        46.008               
G23  20940879.565 7 110045062.074 7      -375.373 7        45.373               
G24  21610908.958 7 113566023.108 7     -2067.106 7        46.170               
G25  24031305.036 7 126285379.248 7      3622.671 7        43.325               
G28  26096552.996 6 137138354.052 6      3302.835 6        40.340               
> 2025 08 05 07 51 51.0000000  0  8                                             
G32  24498326.604 6 128739559.704 6      2260.219 6        39.957               
G10  22790498.826 8 119764912.965 8      2511.908 8        49.029               
G12  23344646.909 7 122676954.413 7      2526.868 7        47.874               
G15  23441635.418 7 123186676.015 7     -2566.815 7        46.383               
G23  20940947.824 7 110045437.470 7      -374.628 7        44.765               
G24  21611300.066 7 113568089.847 7     -2066.720 7        45.884               
G25  24030615.614 7 126281756.567 7      3622.395 7        42.588               
G28  26095929.162 6 137135051.838 6      3300.727 6        39.737               
> 2025 08 05 07 51 52.0000000  0  8                                             
G32  24497898.659 6 128737294.679 6      2265.264 6        40.681               
G10  22790020.910 8 119762404.615 8      2507.361 8        48.707               
G12  23344167.429 7 122674426.928 7      2527.715 7        47.633               
G15  23442124.475 7 123189240.697 7     -2560.013 7        45.290               
G23  20941020.069 7 110045813.471 7      -379.215 7        45.043               
G24  21611691.219 7 113570156.982 7     -2066.202 7        45.611               
G25  24029930.480 7 126278133.969 7      3614.871 7        42.973               
G28  26095296.116 6 137131749.757 6      3297.535 6        39.372               
> 2025 08 05 07 51 53.0000000  0  8                                             
G32  24497471.839 6 128735029.677 6      2269.801 6        40.869               
G10  22789543.754 8 119759896.637 8      2506.033 8        48.651               
G12  23343686.547 7 122671899.903 7      2527.684 7        47.240               
G15  23442613.380 7 123191805.604 7     -2565.183 7        45.643               
G23  20941089.320 7 110046190.114 7      -374.523 7        44.787               
G24  21612082.408 7 113572224.545 7     -2068.020 7        45.270               
G25  24029238.305 7 126274511.527 7      3620.554 7        43.331               
G28  26094683.271 6 137128447.854 6      3305.861 6        39.619               
> 2025 08 05 07 51 54.0000000  0  8                                             
G32  24497045.341 6 128732764.692 6      2258.953 6        40.701               
G10  22789064.283 8 119757389.004 8      2505.353 8        48.690               
G12  23343206.013 8 122669373.272 8      2527.248 8        48.357               
G15  23443103.957 7 123194370.672 7     -2564.927 7        46.429               
G23  20941165.121 7 110046567.383 7      -378.761 7        45.460               
G24  21612474.633 7 113574292.501 7     -2066.564 7        45.219               
G25  24028553.886 7 126270889.190 7      3619.021 7        43.066               
G28  26094044.319 6 137125146.042 6      3300.737 6        40.119               
> 2025 08 05 07 51 55.0000000  0  8                                             
G32  24496607.068 6 128730499.812 6      2272.771 6        40.150               
G10  22788585.483 8 119754881.763 8      2506.991 8        48.651               
G12  23342724.363 8 122666847.093 8      2528.979 8        48.228               
G15  23443593.791 7 123196935.951 7     -2564.566 7        45.312               
G23  20941236.909 7 110046945.309 7      -381.194 7        45.132               
G24  21612866.411 7 113576360.887 7     -2067.511 7        45.291               
G25  24027857.968 7 126267267.010 7      3617.706 7        43.290               
G28  26093410.639 6 137121844.428 6      3302.486 6        39.980               
> 2025 08 05 07 51 56.0000000  0  8                                             
G32  24496176.165 6 128728235.005 6      2263.829 6        39.394               
G10  22788108.978 8 119752374.938 8      2507.292 8        48.722               
G12  23342244.794 7 122664321.363 7      2526.827 7        47.326               
G15  23444079.400 7 123199501.482 7     -2566.190 7        45.788               
G23  20941304.696 7 110047323.918 7      -377.335 7        44.834               
G24  21613255.751 7 113578429.759 7     -2067.209 7        44.570               
G25  24027170.475 7 126263645.028 7      3624.464 7        43.148               
G28  26092782.400 6 137118543.005 6      3302.388 6        39.528               
> 2025 08 05 07 51 57.0000000  0  8                                             
G32  24495745.013 6 128725970.190 6      2260.991 6        39.333               
G10  22787628.811 8 119749868.442 8      2508.562 8        48.880               
G12  23341762.160 7 122661796.031 7      2525.086 7        47.103               
G15  23444566.447 7 123202067.166 7     -2564.836 7        46.360               
G23  20941378.405 7 110047703.137 7      -378.407 7        44.876               
G24  21613645.170 7 113580498.998 7     -2072.248 7        44.795               
G25  24026484.045 7 126260023.132 7      3622.683 7        43.054               
G28  26092160.907 6 137115241.734 6      3303.225 6        39.611               
> 2025 08 05 07 51 58.0000000  0  8                                             
G32  24495313.637 6 128723705.450 6      2260.574 6        39.529               
G10  22787151.842 8 119747362.331 8      2506.341 8        48.810               
G12  23341280.072 7 122659271.148 7      2525.186 7        47.491               
G15  23445057.336 7 123204633.089 7     -2565.672 7        46.574               
G23  20941448.050 7 110048083.017 7      -379.439 7        44.630               
G24  21614041.720 7 113582568.673 7     -2072.729 7        44.461               
G25  24025795.739 7 126256401.412 7      3617.955 7        42.952               
G28  26091530.496 6 137111940.620 6      3305.428 6        39.630               
> 2025 08 05 07 51 59.0000000  0  8                                             
G32  24494882.913 6 128721440.737 6      2271.078 6        39.549               
G10  22786675.427 8 119744856.578 8      2504.522 8        48.894               
G12  23340802.174 7 122656746.658 7      2527.877 7        47.924               
G15  23445546.509 7 123207199.196 7     -2568.220 7        46.038               
G23  20941521.000 7 110048463.508 7      -380.365 7        44.697               
G24  21614433.882 7 113584638.758 7     -2070.458 7        45.100               
G25  24025103.011 7 126252779.805 7      3621.717 7        42.785               
G28  26090898.558 6 137108639.652 6      3296.505 6        40.115               
> 2025 08 05 07 52 00.0000000  0  8                                             
G32  24494452.948 6 128719176.061 6      2259.108 6        39.417               
G10  22786203.229 8 119742351.146 8      2505.953 8        49.207               
G12  23340321.435 8 122654222.557 8      2522.322 8        48.092               
G15  23446032.216 7 123209765.441 7     -2568.392 7        46.193               
G23  20941596.479 7 110048844.609 7      -381.324 7        44.563               
G24  21614828.412 7 113586709.227 7     -2070.250 7        44.600               
G25  24024417.761 7 126249158.281 7      3621.705 7        42.525               
G28  26090266.424 6 137105338.745 6      3304.192 6        39.724               
> 2025 08 05 07 52 01.0000000  0  8                                             
G32  24494010.154 6 128716911.430 6      2257.984 6        39.376               
G10  22785726.662 8 119739846.133 8      2505.132 8        49.833               
G12  23339837.014 7 122651698.920 7      2521.992 7        47.848               
G15  23446526.973 7 123212331.915 7     -2562.916 7        46.389               
G23  20941673.200 7 110049226.382 7      -382.504 7        45.265               
G24  21615219.324 7 113588780.135 7     -2071.397 7        44.928               
G25  24023726.033 7 126245536.964 7      3620.637 7        42.969               
G28  26089646.485 6 137102038.089 6      3297.231 6        39.793               
> 2025 08 05 07 52 02.0000000  0  8                                             
G32  24493590.929 6 128714646.758 6      2262.307 6        38.730               
G10  22785250.792 8 119737341.407 8      2505.985 8        49.551               
G12  23339358.616 7 122649175.624 7      2521.089 7        47.633               
G15  23447014.798 7 123214898.529 7     -2569.430 7        45.898               
G23  20941744.148 7 110049608.714 7      -383.947 7        45.893               
G24  21615615.257 7 113590851.405 7     -2071.299 7        44.511               
G25  24023039.934 7 126241915.687 7      3619.773 7        42.542               
G28  26089020.926 6 137098737.477 6      3300.906 6        40.180               
> 2025 08 05 07 52 03.0000000  0  8                                             
G32  24493159.562 6 128712382.188 6      2256.385 6        38.619               
G10  22784776.289 8 119734837.035 8      2504.653 8        49.624               
G12  23338878.958 7 122646652.759 7      2519.627 7        47.737               
G15  23447500.290 7 123217465.326 7     -2564.313 7        45.847               
G23  20941818.287 7 110049991.693 7      -383.637 7        45.275               
G24  21616011.690 7 113592923.089 7     -2067.934 7        44.679               
G25  24022344.141 7 126238294.580 7      3623.464 7        42.687               
G28  26088391.141 6 137095437.045 6      3303.345 6        40.051               
> 2025 08 05 07 52 04.0000000  0  8                                             
G32  24492727.909 6 128710117.663 6      2258.675 6        38.907               
G10  22784301.947 8 119732333.081 8      2504.528 8        50.130               
G12  23338399.559 8 122644130.351 8      2521.556 8        48.197               
G15  23447985.515 7 123220032.375 7     -2565.110 7        45.914               
G23  20941891.121 7 110050375.344 7      -381.604 7        45.254               
G24  21616408.793 7 113594995.233 7     -2073.716 7        44.752               
G25  24021656.791 7 126234673.629 7      3619.778 7        42.736               
G28  26087762.724 6 137092136.764 6      3299.721 6        39.422               
> 2025 08 05 07 52 05.0000000  0  8                                             
G32  24492290.457 6 128707853.117 6      2270.142 6        37.491               
G10  22783824.880 8 119729829.435 8      2504.054 8        49.660               
G12  23337921.348 7 122641608.298 7      2521.932 7        47.899               
G15  23448475.465 7 123222599.543 7     -2568.281 7        46.113               
G23  20941959.613 7 110050759.583 7      -382.490 7        45.491               
G24  21616803.949 7 113597067.728 7     -2073.054 7        44.979               
G25  24020969.066 7 126231052.749 7      3618.094 7        42.048               
G28  26087128.239 6 137088836.650 6      3300.825 6        39.746               
> 2025 08 05 07 52 06.0000000  0  8                                             
G32  24491869.802 6 128705588.599 6      2258.067 6        38.217               
G10  22783349.287 8 119727326.133 8      2502.389 8        49.458               
G12  23337439.590 7 122639086.671 7      2522.015 7        47.914               
G15  23448964.853 7 123225166.904 7     -2564.838 7        45.302               
G23  20942033.028 7 110051144.454 7      -390.447 7        44.912               
G24  21617198.327 7 113599140.633 7     -2074.525 7        45.419               
G25  24020284.861 6 126227432.007 6      3617.945 6        41.519               
G28  26086502.502 6 137085536.632 6      3298.410 6        40.049               
> 2025 08 05 07 52 07.0000000  0  8                                             
G32  24491439.892 6 128703324.134 6      2268.748 6        38.313               
G10  22782873.051 8 119724823.243 8      2502.016 8        49.102               
G12  23336960.048 7 122636565.498 7      2520.048 7        47.289               
G15  23449452.195 7 123227734.481 7     -2565.872 7        45.765               
G23  20942107.479 7 110051529.986 7      -382.405 7        44.867               
G24  21617592.768 7 113601213.972 7     -2073.076 7        45.059               
G25  24019589.738 6 126223811.435 6      3622.253 6        41.700               
G28  26085874.513 6 137082236.803 6      3299.804 6        39.467               
> 2025 08 05 07 52 08.0000000  0  8                                             
G32  24491008.658 6 128701059.793 6      2267.292 6        39.078               
G10  22782393.527 8 119722320.750 8      2503.382 8        49.029               
G12  23336481.578 8 122634044.773 8      2519.743 8        48.018               
G15  23449942.441 7 123230302.292 7     -2566.067 7        45.863               
G23  20942179.795 7 110051916.189 7      -388.431 7        44.651               
G24  21617987.959 7 113603287.773 7     -2075.540 7        45.330               
G25  24018904.310 6 126220191.047 6      3617.235 6        41.723               
G28  26085247.435 6 137078937.162 6      3297.819 6        39.912               
> 2025 08 05 07 52 09.0000000  0  8                                             
G32  24490580.937 6 128698795.465 6      2263.358 6        39.057               
G10  22781917.710 8 119719818.597 8      2501.645 8        49.154               
G12  23336000.267 7 122631524.468 7      2520.682 7        47.926               
G15  23450433.481 7 123232870.288 7     -2567.039 7        45.762               
G23  20942255.721 7 110052303.019 7      -388.579 7        45.347               
G24  21618386.456 7 113605361.980 7     -2074.909 7        44.528               
G25  24018220.989 7 126216570.758 7      3617.011 7        42.574               
G28  26084626.916 6 137075637.660 6      3302.916 6        40.168               
> 2025 08 05 07 52 10.0000000  0  8                                             
G32  24490149.400 6 128696531.192 6      2268.553 6        39.466               
G10  22781442.519 8 119717316.843 8      2501.543 8        49.269               
G12  23335519.769 7 122629004.591 7      2521.005 7        47.540               
G15  23450923.834 7 123235438.488 7     -2568.130 7        45.643               
G23  20942331.083 7 110052690.502 7      -387.794 7        45.046               
G24  21618781.362 7 113607436.610 7     -2074.302 7        44.936               
G25  24017523.159 7 126212950.648 7      3617.345 7        43.122               
G28  26083995.862 6 137072338.332 6      3297.418 6        39.969               
> 2025 08 05 07 52 11.0000000  0  8                                             
G32  24489722.008 6 128694266.961 6      2269.458 6        38.792               
G10  22780962.584 8 119714815.449 8      2502.035 8        49.705               
G12  23335039.200 7 122626485.157 7      2519.669 7        47.958               
G15  23451411.274 7 123238006.889 7     -2575.009 7        45.800               
G23  20942405.526 7 110053078.615 7      -387.958 7        45.646               
G24  21619178.617 7 113609511.661 7     -2077.096 7        45.162               
G25  24016836.890 7 126209330.655 7      3623.464 7        42.344               
G28  26083368.731 6 137069039.138 6      3300.654 6        39.681               
> 2025 08 05 07 52 12.0000000  0  8                                             
G32  24489289.676 6 128692002.785 6      2260.514 6        38.672               
G10  22780487.081 8 119712314.437 8      2501.096 8        49.255               
G12  23334563.910 7 122623966.127 7      2518.044 7        47.535               
G15  23451897.821 7 123240575.480 7     -2568.588 7        45.565               
G23  20942481.255 7 110053467.375 7      -389.600 7        45.100               
G24  21619572.406 7 113611587.138 7     -2075.302 7        43.968               
G25  24016146.547 7 126205710.819 7      3619.280 7        42.421               
G28  26082740.983 6 137065740.115 6      3303.228 6        40.096               
> 2025 08 05 07 52 13.0000000  0  8                                             
G32  24488867.378 6 128689738.598 6      2262.898 6        38.933               
G10  22780012.417 8 119709813.739 8      2500.232 8        49.232               
G12  23334084.601 7 122621447.479 7      2519.233 7        47.989               
G15  23452389.023 7 123243144.224 7     -2570.357 7        45.794               
G23  20942551.042 7 110053856.735 7      -392.051 7        45.048               
G24  21619968.481 7 113613662.977 7     -2075.368 7        44.786               
G25  24015460.377 6 126202091.071 6      3618.301 6        41.915               
G28  26082116.559 6 137062441.196 6      3297.591 6        40.499               
> 2025 08 05 07 52 14.0000000  0  8                                             
G32  24488431.052 6 128687474.510 6      2264.513 6        38.536               
G10  22779538.414 8 119707313.470 8      2499.615 8        48.947               
G12  23333607.730 7 122618929.320 7      2518.638 7        47.308               
G15  23452877.115 7 123245713.226 7     -2569.738 7        46.241               
G23  20942624.117 7 110054246.782 7      -388.601 7        45.205               
G24  21620364.986 7 113615739.305 7     -2075.406 7        44.928               
G25  24014771.705 7 126198471.555 7      3615.158 7        42.739               
G28  26081487.158 6 137059142.523 6      3296.724 6        40.394               
> 2025 08 05 07 52 15.0000000  0  8                                             
G32  24487994.932 6 128685210.394 6      2277.065 6        38.451               
G10  22779064.036 8 119704813.495 8      2500.594 8        49.158               
G12  23333127.750 7 122616411.515 7      2517.036 7        47.518               
G15  23453361.589 7 123248282.349 7     -2573.695 7        45.510               
G23  20942697.729 7 110054637.403 7      -392.376 7        45.492               
G24  21620761.267 7 113617815.973 7     -2078.256 7        45.256               
G25  24014082.729 7 126194852.081 7      3616.321 7        42.392               
G28  26080850.994 6 137055843.894 6      3292.908 6        40.062               
> 2025 08 05 07 52 16.0000000  0  8                                             
G32  24487566.102 6 128682946.421 6      2266.664 6        38.039               
G10  22778588.524 8 119702313.984 8      2497.774 8        49.273               
G12  23332648.994 7 122613894.218 7      2519.914 7        47.876               
G15  23453849.494 7 123250851.772 7     -2569.026 7        45.017               
G23  20942775.647 7 110055028.752 7      -392.379 7        45.474               
G24  21621156.888 7 113619893.133 7     -2080.782 7        44.979               
G25  24013395.272 7 126191232.838 7      3619.321 7        42.922               
G28  26080226.660 6 137052545.510 6      3294.770 6        40.476               
> 2025 08 05 07 52 17.0000000  0  8                                             
G32  24487133.922 6 128680682.445 6      2253.869 6        38.424               
G10  22778114.128 8 119699814.778 8      2500.570 8        48.734               
G12  23332170.462 7 122611377.290 7      2517.976 7        47.837               
G15  23454336.201 7 123253421.323 7     -2568.547 7        45.148               
G23  20942849.705 7 110055420.678 7      -392.519 7        44.994               
G24  21621550.372 7 113621970.656 7     -2075.200 7        44.484               
G25  24012705.671 7 126187613.681 7      3618.135 7        42.911               
G28  26079603.495 6 137049247.242 6      3296.011 6        40.456               
> 2025 08 05 07 52 18.0000000  0  8                                             
G32  24486700.473 6 128678418.506 6      2272.407 6        37.527               
G10  22777636.578 8 119697315.966 8      2499.299 8        48.993               
G12  23331690.429 7 122608860.820 7      2520.026 7        47.737               
G15  23454826.724 7 123255991.087 7     -2568.558 7        45.435               
G23  20942925.791 7 110055813.262 7      -391.605 7        45.099               
G24  21621943.232 7 113624048.623 7     -2076.571 7        44.695               
G25  24012017.552 7 126183994.690 7      3617.638 7        43.195               
G28  26078973.148 6 137045949.130 6      3301.005 6        40.437               
> 2025 08 05 07 52 19.0000000  0  8                                             
G32  24486277.665 6 128676154.600 6      2260.749 6        37.610               
G10  22777159.663 8 119694817.493 8      2498.436 8        49.430               
G12  23331208.474 7 122606344.697 7      2516.743 7        47.114               
G15  23455314.199 7 123258561.021 7     -2571.627 7        45.494               
G23  20943002.020 7 110056206.453 7      -392.611 7        45.627               
G24  21622341.291 7 113626126.967 7     -2076.467 7        44.903               
G25  24011326.021 7 126180375.799 7      3617.877 7        43.058               
G28  26078344.024 6 137042651.153 6      3298.418 6        40.189               
> 2025 08 05 07 52 20.0000000  0  8                                             
G32  24485844.144 6 128673890.761 6      2261.775 6        38.968               
G10  22776684.597 8 119692319.396 8      2496.685 8        49.102               
G12  23330731.622 7 122603829.062 7      2515.669 7        46.756               
G15  23455806.321 7 123261131.180 7     -2567.000 7        45.576               
G23  20943071.531 7 110056600.320 7      -394.174 7        45.303               
G24  21622735.973 7 113628205.767 7     -2082.218 7        44.155               
G25  24010636.992 7 126176757.067 7      3623.060 7        42.774               
G28  26077712.372 6 137039353.358 6      3296.319 6        39.627               
> 2025 08 05 07 52 21.0000000  0  8                                             
G32  24485406.014 6 128671626.895 6      2262.319 6        38.811               
G10  22776210.273 8 119689821.628 8      2496.348 8        48.685               
G12  23330249.640 7 122601313.784 7      2514.108 7        46.997               
G15  23456295.781 7 123263701.472 7     -2572.636 7        45.571               
G23  20943144.642 7 110056994.751 7      -393.120 7        45.028               
G24  21623125.169 7 113630284.918 7     -2083.445 7        44.074               
G25  24009953.368 7 126173138.427 7      3614.903 7        42.661               
G28  26077084.848 6 137036055.629 6      3306.499 6        39.686               
> 2025 08 05 07 52 22.0000000  0  8                                             
G32  24484979.302 6 128669363.091 6      2256.971 6        39.197               
G10  22775735.949 8 119687324.216 8      2497.522 8        48.641               
G12  23329773.154 7 122598798.927 7      2513.546 7        47.220               
G15  23456783.149 7 123266271.953 7     -2570.165 7        45.052               
G23  20943221.988 7 110057389.844 7      -394.068 7        45.158               
G24  21623523.273 7 113632364.482 7     -2083.860 7        44.106               
G25  24009264.990 7 126169519.920 7      3618.381 7        42.760               
G28  26076463.408 6 137032758.118 6      3301.435 6        40.336               
> 2025 08 05 07 52 23.0000000  0  8                                             
G32  24484551.669 6 128667099.240 6      2263.724 6        38.821               
G10  22775261.437 8 119684827.133 8      2497.096 8        49.655               
G12  23329293.934 7 122596284.441 7      2513.737 7        47.194               
G15  23457273.475 7 123268842.571 7     -2567.957 7        45.043               
G23  20943295.314 7 110057785.506 7      -395.724 7        44.998               
G24  21623920.269 7 113634444.409 7     -2076.449 7        43.945               
G25  24008572.816 7 126165901.498 7      3614.308 7        42.248               
G28  26075831.291 6 137029460.650 6      3295.089 6        39.712               
> 2025 08 05 07 52 24.0000000  0  8                                             
G32  24484122.330 6 128664835.453 6      2263.188 6        38.043               
G10  22774786.353 8 119682330.395 8      2495.011 8        49.443               
G12  23328815.919 7 122593770.365 7      2512.632 7        47.018               
G15  23457764.328 7 123271413.381 7     -2568.936 7        45.516               
G23  20943372.651 7 110058181.809 7      -397.361 7        44.342               
G24  21624311.217 7 113636524.731 7     -2079.319 7        44.666               
G25  24007884.528 7 126162283.197 7      3618.475 7        42.008               
G28  26075201.363 6 137026163.334 6      3291.110 6        40.099               
> 2025 08 05 07 52 25.0000000  0  8                                             
G32  24483684.003 6 128662571.739 6      2268.721 6        37.925               
G10  22774310.599 8 119679834.047 8      2496.483 8        49.124               
G12  23328337.869 7 122591256.739 7      2517.763 7        47.120               
G15  23458251.608 7 123273984.381 7     -2569.339 7        45.412               
G23  20943453.044 7 110058578.753 7      -395.239 7        45.096               
G24  21624706.533 7 113638605.495 7     -2077.979 7        44.330               
G25  24007196.258 7 126158665.076 7      3617.290 7        42.303               
G28  26074572.910 6 137022866.216 6      3301.426 6        39.955               
> 2025 08 05 07 52 26.0000000  0  8                                             
G32  24483254.458 6 128660308.081 6      2257.478 6        38.478               
G10  22773835.596 8 119677338.088 8      2494.683 8        48.993               
G12  23327862.250 7 122588743.548 7      2510.850 7        46.977               
G15  23458741.264 7 123276555.621 7     -2570.037 7        45.525               
G23  20943529.416 7 110058976.354 7      -396.446 7        45.461               
G24  21625104.503 7 113640686.682 7     -2082.570 7        44.476               
G25  24006508.068 7 126155047.101 7      3619.016 7        42.124               
G28  26073944.992 6 137019569.238 6      3301.663 6        39.564               
> 2025 08 05 07 52 27.0000000  0  8                                             
G32  24482825.539 6 128658044.396 6      2256.144 6        38.897               
G10  22773361.406 8 119674842.456 8      2494.167 8        49.709               
G12  23327383.538 7 122586230.746 7      2513.466 7        47.217               
G15  23459230.062 7 123279127.010 7     -2571.705 7        45.670               
G23  20943603.947 7 110059374.557 7      -396.030 7        45.753               
G24  21625493.816 7 113642768.267 7     -2082.732 7        44.465               
G25  24005817.752 7 126151429.249 7      3615.929 7        42.733               
G28  26073320.899 6 137016272.404 6      3287.715 6        39.436               
> 2025 08 05 07 52 28.0000000  0  8                                             
G32  24482401.632 6 128655780.804 6      2264.006 6        39.351               
G10  22772886.393 8 119672347.230 8      2495.705 8        49.260               
G12  23326903.273 7 122583718.409 7      2509.894 7        47.371               
G15  23459719.548 7 123281698.640 7     -2576.503 7        45.296               
G23  20943679.891 7 110059773.423 7      -396.882 7        45.152               
G24  21625891.660 7 113644850.285 7     -2080.174 7        43.609               
G25  24005132.457 6 126147811.560 6      3610.141 6        41.493               
G28  26072691.400 6 137012975.719 6      3296.633 6        39.634               
> 2025 08 05 07 52 29.0000000  0  8                                             
G32  24481970.185 6 128653517.179 6      2267.965 6        38.909               
G10  22772411.024 8 119669852.300 8      2494.964 8        49.824               
G12  23326421.327 7 122581206.412 7      2514.207 7        46.750               
G15  23460207.998 7 123284270.364 7     -2573.215 7        45.235               
G23  20943753.145 7 110060172.866 7      -398.838 7        44.740               
G24  21626289.425 7 113646932.623 7     -2078.254 7        43.916               
G25  24004441.962 7 126144193.917 7      3619.446 7        42.543               
G28  26072066.904 6 137009679.144 6      3293.224 6        40.017               
> 2025 08 05 07 52 30.0000000  0  8                                             
G32  24481542.231 6 128651253.691 6      2259.674 6        38.010               
G10  22771934.028 8 119667357.801 8      2494.335 8        48.618               
G12  23325946.744 7 122578694.898 7      2512.567 7        46.726               
G15  23460701.835 7 123286842.368 7     -2571.074 7        45.844               
G23  20943829.767 7 110060573.010 7      -399.478 7        44.680               
G24  21626684.437 7 113649015.473 7     -2086.583 7        44.453               
G25  24003754.737 7 126140576.507 7      3617.971 7        42.562               
G28  26071436.869 6 137006382.793 6      3295.847 6        39.991               
> 2025 08 05 07 52 31.0000000  0  8                                             
G32  24481101.205 6 128648990.105 6      2272.380 6        37.459               
G10  22771457.533 8 119664863.614 8      2493.191 8        48.576               
G12  23325466.996 7 122576183.746 7      2510.020 7        47.101               
G15  23461189.892 7 123289414.491 7     -2575.365 7        46.020               
G23  20943904.451 7 110060973.720 7      -403.916 7        44.718               
G24  21627084.453 7 113651098.647 7     -2081.836 7        43.931               
G25  24003067.718 7 126136959.155 7      3621.946 7        42.301               
G28  26070813.607 6 137003086.523 6      3292.273 6        39.988               
> 2025 08 05 07 52 32.0000000  0  8                                             
G32  24480665.425 6 128646726.680 6      2263.942 6        37.053               
G10  22770983.101 8 119662369.783 8      2494.382 8        48.737               
G12  23324989.036 7 122573673.051 7      2506.830 7        47.443               
G15  23461681.486 7 123291986.823 7     -2572.714 7        46.321               
G23  20943983.441 7 110061375.090 7      -403.810 7        45.261               
G24  21627483.924 7 113653182.264 7     -2085.369 7        44.102               
G25  24002377.742 7 126133341.965 7      3620.345 7        42.903               
G28  26070184.724 6 136999790.418 6      3295.262 6        40.298               
> 2025 08 05 07 52 33.0000000  0  8                                             
G32  24480230.448 6 128644463.225 6      2267.251 6        37.100               
G10  22770508.616 8 119659876.374 8      2493.335 8        49.254               
G12  23324513.863 7 122571162.793 7      2511.864 7        46.626               
G15  23462172.429 7 123294559.373 7     -2569.060 7        45.997               
G23  20944059.188 7 110061777.128 7      -401.603 7        45.458               
G24  21627881.546 7 113655266.319 7     -2083.040 7        43.903               
G25  24001688.176 7 126129724.940 7      3619.092 7        43.532               
G28  26069563.401 6 136996494.495 6      3290.595 6        40.136               
> 2025 08 05 07 52 34.0000000  0  8                                             
G32  24479802.360 6 128642199.852 6      2256.251 6        37.185               
G10  22770033.166 8 119657383.309 8      2493.923 8        49.548               
G12  23324032.569 7 122568652.951 7      2508.052 7        47.011               
G15  23462662.290 7 123297132.108 7     -2571.779 7        45.524               
G23  20944135.971 7 110062179.775 7      -401.326 7        45.462               
G24  21628276.728 7 113657350.767 7     -2082.651 7        44.450               
G25  24001005.195 7 126126108.048 7      3615.032 7        43.317               
G28  26068929.738 6 136993198.704 6      3297.987 6        40.170               
> 2025 08 05 07 52 35.0000000  0  8                                             
G32  24479369.313 6 128639936.480 6      2263.111 6        37.869               
G10  22769559.735 8 119654890.567 8      2491.298 8        49.121               
G12  23323561.399 7 122566143.492 7      2508.956 7        47.249               
G15  23463153.179 7 123299705.009 7     -2571.718 7        46.228               
G23  20944218.767 7 110062583.030 7      -404.245 7        45.726               
G24  21628674.752 7 113659435.607 7     -2081.630 7        44.802               
G25  24000316.532 7 126122491.251 7      3619.669 7        43.531               
G28  26068311.595 6 136989903.034 6      3299.454 6        40.098               
> 2025 08 05 07 52 36.0000000  0  8                                             
G32  24478943.574 6 128637673.157 6      2255.530 6        37.523               
G10  22769082.847 8 119652398.207 8      2492.432 8        48.822               
G12  23323081.223 7 122563634.474 7      2508.970 7        46.612               
G15  23463643.764 7 123302278.103 7     -2575.269 7        45.806               
G23  20944290.002 7 110062986.924 7      -407.107 7        44.984               
G24  21629071.560 7 113661520.840 7     -2089.122 7        43.767               
G25  23999626.734 7 126118874.618 7      3615.590 7        44.019               
G28  26067676.271 6 136986607.510 6      3300.554 6        39.734               
> 2025 08 05 07 52 37.0000000  0  8                                             
G32  24478505.909 6 128635409.877 6      2264.432 6        36.448               
G10  22768608.942 8 119649906.207 8      2493.222 8        48.836               
G12  23322607.765 7 122561125.871 7      2507.766 7        46.885               
G15  23464133.491 7 123304851.373 7     -2576.678 7        46.252               
G23  20944361.567 7 110063391.456 7      -401.501 7        44.859               
G24  21629471.621 7 113663606.487 7     -2084.972 7        44.179               
G25  23998940.930 7 126115258.098 7      3618.782 7        43.483               
G28  26067049.774 6 136983312.157 6      3291.311 6        39.659               
> 2025 08 05 07 52 38.0000000  0  8                                             
G32  24478085.995 6 128633146.605 6      2255.557 6        36.593               
G10  22768137.602 8 119647414.584 8      2491.400 8        48.886               
G12  23322127.946 7 122558617.712 7      2507.516 7        47.359               
G15  23464620.851 7 123307424.851 7     -2571.124 7        45.927               
G23  20944436.144 7 110063796.633 7      -407.190 7        44.717               
G24  21629869.082 7 113665692.547 7     -2083.588 7        43.918               
G25  23998249.488 7 126111641.736 7      3617.536 7        44.070               
G28  26066429.907 6 136980016.933 6      3292.172 6        40.034               
> 2025 08 05 07 52 39.0000000  0  8                                             
G32  24477657.827 6 128630883.390 6      2269.478 6        36.675               
G10  22767665.029 8 119644923.336 8      2488.632 8        49.741               
G12  23321649.887 7 122556109.963 7      2505.281 7        47.246               
G15  23465109.346 7 123309998.523 7     -2573.945 7        45.782               
G23  20944511.363 7 110064202.448 7      -406.135 7        44.625               
G24  21630265.524 7 113667779.033 7     -2085.924 7        44.052               
G25  23997562.433 7 126108025.533 7      3614.080 7        44.529               
G28  26065795.351 6 136976721.900 6      3294.553 6        40.252               
> 2025 08 05 07 52 40.0000000  0  8                                             
G32  24477219.276 6 128628620.218 6      2268.242 6        37.139               
G10  22767189.820 8 119642432.429 8      2491.272 8        49.210               
G12  23321171.551 7 122553602.634 7      2508.036 7        47.050               
G15  23465600.208 7 123312572.379 7     -2573.807 7        45.892               
G23  20944595.312 7 110064608.881 7      -408.253 7        44.488               
G24  21630658.195 7 113669865.921 7     -2087.661 7        44.293               
G25  23996872.912 7 126104409.436 7      3615.338 7        44.326               
G28  26065171.231 6 136973426.992 6      3289.569 6        40.571               
> 2025 08 05 07 52 41.0000000  0  8                                             
G32  24476782.316 6 128626357.115 6      2272.888 6        37.952               
G10  22766719.284 8 119639941.926 8      2489.753 8        48.792               
G12  23320694.967 7 122551095.758 7      2503.422 7        46.979               
G15  23466093.196 7 123315146.445 7     -2579.115 7        46.116               
G23  20944674.543 7 110065015.978 7      -405.333 7        44.865               
G24  21631057.747 7 113671953.232 7     -2085.769 7        43.403               
G25  23996186.992 7 126100793.516 7      3616.301 7        44.288               
G28  26064541.062 6 136970132.255 6      3293.871 6        39.985               
> 2025 08 05 07 52 42.0000000  0  8                                             
G32  24476353.772 6 128624094.039 6      2266.026 6        37.946               
G10  22766244.022 8 119637451.754 8      2490.006 8        49.101               
G12  23320215.621 7 122548589.247 7      2507.644 7        46.409               
G15  23466581.440 7 123317720.675 7     -2576.403 7        46.012               
G23  20944750.495 7 110065423.676 7      -409.546 7        45.040               
G24  21631456.369 7 113674040.933 7     -2088.036 7        43.735               
G25  23995497.632 7 126097177.688 7      3620.478 7        43.508               
G28  26063915.842 6 136966837.624 6      3291.600 6        40.094               
> 2025 08 05 07 52 43.0000000  0  8                                             
G32  24475928.016 6 128621830.986 6      2254.246 6        37.790               
G10  22765771.074 8 119634961.982 8      2487.940 8        48.861               
G12  23319741.002 7 122546083.199 7      2505.307 7        46.509               
G15  23467070.766 7 123320295.117 7     -2574.776 7        45.820               
G23  20944830.486 7 110065832.034 7      -413.165 7        45.364               
G24  21631850.229 7 113676129.080 7     -2089.581 7        43.543               
G25  23994809.147 7 126093562.044 7      3607.527 7        43.443               
G28  26063290.569 6 136963543.188 6      3297.539 6        39.836               
> 2025 08 05 07 52 44.0000000  0  8                                             
G32  24475498.373 6 128619567.980 6      2252.059 6        38.328               
G10  22765296.892 8 119632472.551 8      2489.538 8        49.518               
G12  23319265.650 7 122543577.554 7      2503.317 7        46.471               
G15  23467562.593 7 123322869.734 7     -2572.756 7        46.130               
G23  20944908.708 7 110066241.004 7      -407.820 7        45.105               
G24  21632248.878 7 113678217.595 7     -2089.437 7        43.346               
G25  23994121.565 7 126089946.496 7      3616.848 7        43.872               
G28  26062665.574 6 136960248.881 6      3291.691 6        39.931               
> 2025 08 05 07 52 45.0000000  0  8                                             
G32  24475066.524 6 128617305.022 6      2253.202 6        37.793               
G10  22764824.668 8 119629983.502 8      2489.016 8        49.043               
G12  23318793.837 7 122541072.372 7      2501.500 7        46.679               
G15  23468051.605 7 123325444.556 7     -2577.007 7        45.753               
G23  20944986.116 7 110066650.642 7      -411.073 7        44.908               
G24  21632646.750 7 113680306.563 7     -2094.463 7        43.453               
G25  23993435.180 7 126086331.129 7      3615.757 7        43.351               
G28  26062028.078 6 136956954.765 6      3292.187 6        40.210               
> 2025 08 05 07 52 46.0000000  0  8                                             
G32  24474636.899 6 128615042.061 6      2258.622 6        37.976               
G10  22764351.621 8 119627494.798 8      2488.472 8        49.682               
G12  23318316.457 7 122538567.571 7      2502.623 7        47.192               
G15  23468536.624 7 123328019.559 7     -2576.058 7        45.551               
G23  20945064.249 7 110067060.877 7      -412.042 7        44.958               
G24  21633044.344 7 113682395.903 7     -2087.584 7        42.797               
G25  23992743.622 7 126082715.857 7      3615.298 7        42.950               
G28  26061409.765 6 136953660.737 6      3296.769 6        39.954               
> 2025 08 05 07 52 47.0000000  0  8                                             
G32  24474206.389 6 128612779.132 6      2261.549 6        38.566               
G10  22763875.974 8 119625006.430 8      2486.514 8        49.159               
G12  23317839.881 7 122536063.150 7      2501.686 7        47.869               
G15  23469026.539 7 123330594.690 7     -2579.766 7        44.953               
G23  20945143.659 7 110067471.710 7      -409.570 7        44.737               
G24  21633444.003 7 113684485.613 7     -2089.892 7        42.921               
G25  23992055.522 7 126079100.699 7      3617.443 7        42.303               
G28  26060782.822 6 136950366.848 6      3297.884 6        40.771               
> 2025 08 05 07 52 48.0000000  0  8                                             
G32  24473780.115 6 128610516.246 6      2267.304 6        38.103               
G10  22763404.607 8 119622518.436 8      2485.247 8        49.578               
G12  23317360.562 7 122533559.193 7      2503.495 7        47.379               
G15  23469512.255 7 123333170.034 7     -2576.538 7        45.313               
G23  20945224.614 7 110067883.206 7      -412.635 7        44.858               
G24  21633842.196 7 113686575.748 7     -2090.449 7        42.688               
G25  23991362.016 7 126075485.719 7      3612.378 7        42.281               
G28  26060157.352 6 136947073.119 6      3301.682 6        40.615               
> 2025 08 05 07 52 49.0000000  0  8                                             
G32  24473344.504 6 128608253.392 6      2273.091 6        39.191               
G10  22762930.292 8 119620030.788 8      2486.888 8        49.453               
G12  23316881.297 7 122531055.633 7      2504.538 7        47.211               
G15  23470005.637 7 123335745.568 7     -2577.560 7        45.386               
G23  20945297.565 7 110068295.304 7      -411.718 7        44.989               
G24  21634240.032 7 113688666.269 7     -2095.035 7        43.141               
G25  23990675.649 7 126071870.831 7      3618.510 7        42.079               
G28  26059531.258 6 136943779.518 6      3293.051 6        39.931               
> 2025 08 05 07 52 50.0000000  0  8                                             
G32  24472921.035 6 128605990.527 6      2260.459 6        38.822               
G10  22762456.870 8 119617543.457 8      2485.249 8        49.259               
G12  23316405.016 7 122528552.437 7      2505.328 7        47.320               
G15  23470496.552 7 123338321.212 7     -2577.207 7        45.499               
G23  20945374.526 7 110068707.992 7      -413.982 7        44.993               
G24  21634629.220 7 113690757.126 7     -2091.941 7        42.870               
G25  23989986.200 6 126068256.002 6      3610.466 6        41.870               
G28  26058899.436 6 136940486.026 6      3294.671 6        40.446               
> 2025 08 05 07 52 51.0000000  0  8                                             
G32  24472486.657 6 128603727.650 6      2262.524 6        38.185               
G10  22761980.616 8 119615056.472 8      2488.434 8        49.122               
G12  23315930.897 7 122526049.651 7      2498.970 7        47.281               
G15  23470987.700 7 123340897.051 7     -2573.870 7        45.317               
G23  20945451.756 7 110069121.288 7      -412.605 7        44.980               
G24  21635030.165 7 113692848.406 7     -2092.732 7        43.074               
G25  23989302.459 6 126064641.337 6      3611.642 6        40.813               
G28  26058275.253 6 136937192.634 6      3297.045 6        40.298               
> 2025 08 05 07 52 52.0000000  0  8                                             
G32  24472053.967 6 128601464.857 6      2260.493 6        38.797               
G10  22761508.257 8 119612569.880 8      2486.816 8        49.034               
G12  23315451.668 7 122523547.295 7      2504.100 7        47.221               
G15  23471476.650 7 123343473.089 7     -2575.291 7        45.387               
G23  20945533.525 7 110069535.256 7      -413.644 7        45.048               
G24  21635424.811 7 113694940.095 7     -2087.816 7        42.965               
G25  23988615.851 6 126061026.819 6      3611.385 6        41.516               
G28  26057645.432 6 136933899.432 6      3286.837 6        40.229               
> 2025 08 05 07 52 53.0000000  0  8                                             
G32  24471624.709 6 128599202.060 6      2256.554 6        38.331               
G10  22761035.211 8 119610083.623 8      2486.450 8        49.200               
G12  23314973.395 7 122521045.344 7      2500.233 7        46.728               
G15  23471969.818 7 123346049.291 7     -2573.755 7        46.003               
G23  20945613.114 7 110069949.813 7      -417.373 7        45.104               
G24  21635823.049 7 113697032.170 7     -2088.860 7        43.105               
G25  23987926.303 6 126057412.398 6      3620.418 6        41.228               
G28  26057017.837 6 136930606.379 6      3295.220 6        40.592               
> 2025 08 05 07 52 54.0000000  0  8                                             
G32  24471194.423 6 128596939.328 6      2264.381 6        38.515               
G10  22760563.638 8 119607597.768 8      2483.983 8        49.048               
G12  23314501.447 7 122518543.835 7      2501.421 7        46.591               
G15  23472460.242 7 123348625.715 7     -2576.417 7        45.791               
G23  20945695.642 7 110070365.041 7      -416.046 7        45.442               
G24  21636222.699 7 113699124.686 7     -2091.831 7        43.211               
G25  23987237.783 6 126053798.128 6      3624.463 6        41.190               
G28  26056388.659 6 136927313.450 6      3291.608 6        40.090               
> 2025 08 05 07 52 55.0000000  0  8                                             
G32  24470771.597 6 128594676.657 6      2258.445 6        39.156               
G10  22760086.562 8 119605112.287 8      2485.366 8        49.367               
G12  23314028.901 7 122516042.776 7      2500.258 7        47.145               
G15  23472949.451 7 123351202.333 7     -2573.625 7        46.401               
G23  20945776.213 7 110070780.892 7      -415.987 7        44.799               
G24  21636614.039 7 113701217.610 7     -2088.276 7        42.870               
G25  23986549.772 6 126050184.047 6      3620.835 6        41.584               
G28  26055767.961 6 136924020.717 6      3295.132 6        40.300               
> 2025 08 05 07 52 56.0000000  0  8                                             
G32  24470341.659 6 128592413.997 6      2249.841 6        38.782               
G10  22759613.283 8 119602627.146 8      2485.797 8        49.105               
G12  23313552.647 7 122513542.096 7      2499.325 7        47.909               
G15  23473438.276 7 123353779.102 7     -2579.366 7        45.921               
G23  20945851.719 7 110071197.381 7      -416.061 7        44.165               
G24  21637013.197 7 113703310.920 7     -2095.832 7        43.349               
G25  23985865.424 6 126046570.080 6      3613.099 6        40.846               
G28  26055138.167 6 136920728.141 6      3289.649 6        40.646               
> 2025 08 05 07 52 57.0000000  0  8                                             
G32  24469912.579 6 128590151.422 6      2262.585 6        39.119               
G10  22759139.843 8 119600142.410 8      2485.474 8        48.855               
G12  23313076.446 7 122511041.894 7      2501.295 7        47.484               
G15  23473928.950 7 123356356.107 7     -2577.407 7        46.121               
G23  20945928.064 7 110071614.532 7      -421.959 7        44.593               
G24  21637413.553 7 113705404.692 7     -2095.291 7        42.507               
G25  23985173.134 6 126042956.255 6      3608.352 6        41.146               
G28  26054512.573 6 136917435.714 6      3286.827 6        40.904               
> 2025 08 05 07 52 58.0000000  0  8                                             
G32  24469474.627 6 128587888.807 6      2260.402 6        38.613               
G10  22758669.093 8 119597657.984 8      2484.668 8        49.372               
G12  23312600.639 7 122508542.044 7      2498.218 7        47.795               
G15  23474418.240 7 123358933.234 7     -2575.243 7        45.576               
G23  20946007.581 7 110072032.250 7      -415.557 7        44.864               
G24  21637816.410 7 113707498.780 7     -2091.993 7        42.606               
G25  23984489.081 6 126039342.545 6      3610.410 6        41.338               
G28  26053884.119 6 136914143.387 6      3289.063 6        40.710               
> 2025 08 05 07 52 59.0000000  0  8                                             
G32  24469050.024 6 128585626.276 6      2257.891 6        39.121               
G10  22758197.717 8 119595173.943 8      2482.731 8        49.410               
G12  23312124.134 7 122506042.638 7      2496.744 7        47.429               
G15  23474909.960 7 123361510.596 7     -2579.030 7        45.951               
G23  20946089.171 7 110072450.639 7      -425.713 7        44.219               
G24  21638214.183 7 113709593.314 7     -2093.974 7        42.579               
G25  23983798.041 6 126035728.975 6      3612.375 6        41.847               
G28  26053258.998 6 136910851.227 6      3295.783 6        40.505               
> 2025 08 05 07 53 00.0000000  0  8                                             
G32  24468609.239 6 128583363.686 6      2260.451 6        38.792               
G10  22757725.653 8 119592690.218 8      2483.255 8        49.077               
G12  23311648.917 7 122503543.609 7      2498.306 7        47.513               
G15  23475402.359 7 123364088.084 7     -2576.373 7        45.587               
G23  20946167.268 7 110072869.598 7      -418.737 7        44.112               
G24  21638614.887 7 113711688.194 7     -2092.993 7        42.864               
G25  23983112.621 7 126032115.496 7      3613.871 7        42.165               
G28  26052633.154 6 136907559.157 6      3295.198 6        40.670               
> 2025 08 05 07 53 01.0000000  0  8                                             
G32  24468178.971 6 128581101.214 6      2264.416 6        38.732               
G10  22757251.642 8 119590206.894 8      2482.559 8        48.881               
G12  23311170.286 7 122501045.026 7      2498.837 7        47.067               
G15  23475891.979 7 123366665.806 7     -2582.435 7        45.835               
G23  20946250.814 7 110073289.234 7      -424.130 7        44.312               
G24  21639009.042 7 113713783.518 7     -2091.930 7        42.749               
G25  23982425.378 7 126028502.198 7      3613.805 7        42.329               
G28  26052007.443 6 136904267.285 6      3289.792 6        39.746               
> 2025 08 05 07 53 02.0000000  0  8                                             
G32  24467751.249 6 128578838.718 6      2257.371 6        39.072               
G10  22756780.569 8 119587723.872 8      2482.117 8        48.769               
G12  23310694.845 7 122498546.807 7      2493.011 7        47.117               
G15  23476382.707 7 123369243.640 7     -2579.725 7        46.228               
G23  20946327.955 7 110073709.418 7      -419.111 7        44.599               
G24  21639409.344 7 113715879.193 7     -2098.215 7        42.810               
G25  23981739.092 7 126024888.991 7      3602.583 7        42.354               
G28  26051383.653 6 136900975.508 6      3291.745 6        40.634               
> 2025 08 05 07 53 03.0000000  0  8                                             
G32  24467318.390 6 128576576.225 6      2262.325 6        38.471               
G10  22756308.613 8 119585241.208 8      2481.493 8        49.504               
G12  23310220.288 7 122496049.014 7      2491.041 7        47.014               
G15  23476872.890 7 123371821.671 7     -2577.291 7        46.638               
G23  20946407.865 7 110074130.245 7      -418.466 7        44.162               
G24  21639809.682 7 113717975.271 7     -2093.781 7        42.887               
G25  23981048.445 7 126021275.895 7      3611.270 7        42.826               
G28  26050758.845 6 136897683.862 6      3286.678 6        41.220               
> 2025 08 05 07 53 04.0000000  0  8                                             
G32  24466887.774 6 128574313.815 6      2263.455 6        37.976               
G10  22755837.201 8 119582758.954 8      2483.141 8        49.541               
G12  23309746.429 7 122493551.673 7      2495.305 7        46.694               
G15  23477362.349 7 123374399.918 7     -2580.434 7        46.158               
G23  20946489.062 7 110074551.730 7      -418.718 7        44.363               
G24  21640207.982 7 113720071.784 7     -2096.954 7        42.417               
G25  23980365.080 7 126017662.988 7      3612.673 7        42.568               
G28  26050130.517 6 136894392.402 6      3292.157 6        40.801               
> 2025 08 05 07 53 05.0000000  0  8                                             
G32  24466448.982 6 128572051.490 6      2261.865 6        38.219               
G10  22755366.299 8 119580277.099 8      2479.125 8        50.007               
G12  23309273.659 7 122491054.791 7      2497.835 7        47.264               
G15  23477853.783 7 123376978.385 7     -2578.772 7        45.929               
G23  20946565.595 7 110074973.911 7      -421.651 7        44.527               
G24  21640608.338 7 113722168.736 7     -2095.970 7        42.786               
G25  23979677.426 7 126014050.257 7      3613.853 7        42.717               
G28  26049505.985 6 136891101.129 6      3290.527 6        41.471               
> 2025 08 05 07 53 06.0000000  0  8                                             
G32  24466028.113 6 128569789.159 6      2250.706 6        37.841               
G10  22754892.502 8 119577795.578 8      2483.044 8        49.236               
G12  23308796.091 7 122488558.310 7      2499.882 7        47.093               
G15  23478344.332 7 123379557.027 7     -2579.476 7        45.645               
G23  20946649.222 7 110075396.678 7      -424.983 7        44.226               
G24  21641008.925 7 113724266.063 7     -2097.248 7        43.017               
G25  23978986.485 7 126010437.639 7      3610.204 7        42.601               
G28  26048878.112 6 136887809.973 6      3291.621 6        40.970               
> 2025 08 05 07 53 07.0000000  0  8                                             
G32  24465597.845 6 128567526.928 6      2271.921 6        37.652               
G10  22754418.285 8 119575314.480 8      2481.437 8        49.594               
G12  23308322.482 7 122486062.282 7      2496.849 7        46.863               
G15  23478838.643 7 123382135.896 7     -2577.982 7        46.379               
G23  20946731.250 7 110075820.124 7      -420.310 7        44.272               
G24  21641407.306 7 113726363.833 7     -2094.916 7        43.540               
G25  23978300.538 7 126006825.194 7      3614.080 7        42.808               
G28  26048252.598 6 136884519.026 6      3290.924 6        41.059               
> 2025 08 05 07 53 08.0000000  0  8                                             
G32  24465166.325 6 128565264.697 6      2268.346 6        38.014               
G10  22753949.339 8 119572833.712 8      2480.433 8        49.118               
G12  23307847.934 7 122483566.668 7      2498.548 7        47.011               
G15  23479329.693 7 123384714.922 7     -2581.582 7        46.651               
G23  20946815.091 7 110076244.186 7      -427.743 7        44.655               
G24  21641809.529 7 113728462.001 7     -2100.464 7        43.463               
G25  23977612.527 7 126003212.870 7      3615.581 7        43.455               
G28  26047624.324 6 136881228.193 6      3288.583 6        40.642               
> 2025 08 05 07 53 09.0000000  0  8                                             
G32  24464737.326 6 128563002.439 6      2268.393 6        38.119               
G10  22753474.380 8 119570353.271 8      2481.108 8        49.064               
G12  23307371.796 7 122481071.425 7      2499.583 7        47.537               
G15  23479820.778 7 123387294.091 7     -2579.959 7        47.218               
G23  20946899.406 7 110076668.819 7      -424.571 7        44.959               
G24  21642211.707 7 113730560.524 7     -2098.558 7        43.120               
G25  23976926.874 7 125999600.664 7      3606.704 7        43.009               
G28  26047003.527 6 136877937.489 6      3287.830 6        41.194               
> 2025 08 05 07 53 10.0000000  0  8                                             
G32  24464304.199 6 128560740.259 6      2259.726 6        38.603               
G10  22753002.173 8 119567873.209 8      2481.736 8        49.533               
G12  23306894.488 7 122478576.613 7      2499.817 7        46.860               
G15  23480309.880 7 123389873.455 7     -2579.650 7        46.509               
G23  20946975.975 7 110077094.100 7      -424.363 7        45.039               
G24  21642609.704 7 113732659.451 7     -2103.273 7        43.105               
G25  23976241.115 7 125995988.574 7      3611.242 7        42.573               
G28  26046370.785 6 136874646.912 6      3284.723 6        40.937               
> 2025 08 05 07 53 11.0000000  0  8                                             
G32  24463873.591 6 128558478.125 6      2257.941 6        39.323               
G10  22752530.601 8 119565393.527 8      2480.290 8        49.903               
G12  23306420.601 7 122476082.234 7      2496.884 7        46.886               
G15  23480802.199 7 123392453.031 7     -2580.113 7        46.563               
G23  20947050.542 7 110077520.036 7      -424.896 7        45.352               
G24  21643006.861 7 113734758.812 7     -2098.695 7        43.572               
G25  23975552.067 7 125992376.646 7      3606.318 7        42.757               
G28  26045745.163 6 136871356.498 6      3283.932 6        40.520               
> 2025 08 05 07 53 12.0000000  0  8                                             
G32  24463439.007 6 128556216.067 6      2266.026 6        39.177               
G10  22752057.510 8 119562914.256 8      2480.247 8        49.972               
G12  23305950.298 7 122473588.326 7      2491.633 7        46.483               
G15  23481291.283 7 123395032.829 7     -2578.721 7        46.749               
G23  20947130.283 7 110077946.652 7      -429.169 7        44.568               
G24  21643408.905 7 113736858.612 7     -2094.518 7        43.297               
G25  23974862.109 7 125988764.921 7      3610.589 7        42.274               
G28  26045120.373 6 136868066.306 6      3288.233 6        40.833               
> 2025 08 05 07 53 13.0000000  0  8                                             
G32  24463011.965 6 128553954.041 6      2260.816 6        39.640               
G10  22751585.598 8 119560435.364 8      2478.930 8        49.018               
G12  23305474.588 7 122471094.825 7      2492.102 7        46.490               
G15  23481787.434 7 123397612.815 7     -2578.563 7        46.259               
G23  20947211.158 7 110078373.899 7      -430.272 7        44.670               
G24  21643810.788 7 113738958.823 7     -2099.262 7        43.783               
G25  23974178.368 7 125985153.311 7      3616.249 7        42.484               
G28  26044494.636 6 136864776.251 6      3290.443 6        40.355               
> 2025 08 05 07 53 14.0000000  0  8                                             
G32  24462579.731 6 128551691.988 6      2267.671 6        39.525               
G10  22751114.892 8 119557956.760 8      2477.515 8        49.750               
G12  23304998.683 7 122468601.678 7      2491.219 7        46.530               
G15  23482275.839 7 123400192.934 7     -2581.024 7        46.206               
G23  20947292.078 7 110078801.722 7      -430.423 7        44.581               
G24  21644214.110 7 113741059.361 7     -2098.312 7        43.415               
G25  23973489.446 7 125981541.771 7      3613.097 7        42.860               
G28  26043862.796 6 136861486.251 6      3289.541 6        40.211               
> 2025 08 05 07 53 15.0000000  0  8                                             
G32  24462151.312 6 128549430.024 6      2252.832 6        39.531               
G10  22750642.703 8 119555478.568 8      2479.459 8        49.691               
G12  23304525.100 7 122466109.033 7      2492.613 7        47.172               
G15  23482765.861 7 123402773.293 7     -2576.560 7        46.050               
G23  20947381.039 7 110079230.220 7      -428.602 7        44.618               
G24  21644610.061 7 113743160.370 7     -2102.519 7        44.495               
G25  23972801.426 7 125977930.429 7      3610.924 7        42.723               
G28  26043238.533 6 136858196.487 6      3292.254 6        40.592               
> 2025 08 05 07 53 16.0000000  0  8                                             
G32  24461716.880 6 128547168.038 6      2269.452 6        39.934               
G10  22750171.291 8 119553000.679 8      2478.951 8        49.530               
G12  23304051.357 7 122463616.724 7      2490.959 7        46.468               
G15  23483259.556 7 123405353.762 7     -2579.856 7        45.857               
G23  20947463.513 7 110079659.265 7      -431.073 7        44.638               
G24  21645009.442 7 113745261.707 7     -2101.255 7        43.815               
G25  23972117.078 6 125974319.165 6      3607.667 6        41.287               
G28  26042612.786 6 136854906.782 6      3285.849 6        40.335               
> 2025 08 05 07 53 17.0000000  0  8                                             
G32  24461286.737 6 128544906.083 6      2264.523 6        39.992               
G10  22749701.667 8 119550523.163 8      2477.838 8        49.157               
G12  23303576.255 7 122461124.870 7      2491.852 7        46.861               
G15  23483745.414 7 123407934.437 7     -2579.202 7        45.852               
G23  20947545.934 7 110080088.964 7      -429.243 7        44.363               
G24  21645414.265 7 113747363.456 7     -2105.310 7        44.144               
G25  23971425.020 6 125970708.043 6      3607.055 6        40.893               
G28  26041986.870 6 136851617.250 6      3290.365 6        39.989               
> 2025 08 05 07 53 18.0000000  0  8                                             
G32  24460858.792 6 128542644.178 6      2259.539 6        39.772               
G10  22749230.193 8 119548046.007 8      2476.411 8        48.745               
G12  23303100.608 7 122458633.397 7      2490.191 7        46.590               
G15  23484237.974 7 123410515.296 7     -2577.664 7        45.778               
G23  20947623.459 7 110080519.278 7      -431.285 7        44.518               
G24  21645817.712 7 113749465.605 7     -2103.092 7        44.359               
G25  23970738.885 6 125967097.028 6      3611.023 6        41.697               
G28  26041356.460 6 136848327.854 6      3292.547 6        39.914               
> 2025 08 05 07 53 19.0000000  0  8                                             
G32  24460425.933 6 128540382.272 6      2269.812 6        40.034               
G10  22748758.629 8 119545569.198 8      2476.071 8        49.163               
G12  23302629.277 7 122456142.336 7      2489.967 7        46.606               
G15  23484727.281 7 123413096.314 7     -2584.267 7        46.007               
G23  20947702.610 7 110080950.203 7      -429.353 7        43.598               
G24  21646214.225 7 113751568.121 7     -2107.454 7        43.805               
G25  23970052.036 7 125963486.155 7      3612.784 7        42.082               
G28  26040736.691 6 136845038.564 6      3290.509 6        39.634               
> 2025 08 05 07 53 20.0000000  0  8                                             
G32  24459995.146 6 128538120.348 6      2253.610 6        39.374               
G10  22748284.671 8 119543092.702 8      2474.591 8        49.223               
G12  23302154.122 7 122453651.662 7      2492.721 7        46.703               
G15  23485219.957 7 123415677.464 7     -2580.651 7        46.238               
G23  20947783.691 7 110081381.736 7      -434.617 7        43.184               
G24  21646611.186 7 113753671.001 7     -2100.270 7        44.186               
G25  23969365.088 6 125959875.378 6      3611.610 6        41.668               
G28  26040107.567 6 136841749.403 6      3284.984 6        39.345               
> 2025 08 05 07 53 21.0000000  0  8                                             
G32  24459570.775 6 128535858.473 6      2266.262 6        39.834               
G10  22747815.940 8 119540616.612 8      2475.450 8        49.378               
G12  23301682.174 7 122451161.420 7      2489.780 7        46.499               
G15  23485710.426 7 123418258.844 7     -2584.209 7        45.986               
G23  20947872.115 7 110081813.913 7      -427.266 7        44.052               
G24  21647010.683 7 113755774.308 7     -2101.376 7        43.909               
G25  23968677.390 6 125956264.769 6      3607.381 6        41.697               
G28  26039486.520 6 136838460.405 6      3288.366 6        39.574               
> 2025 08 05 07 53 22.0000000  0  8                                             
G32  24459139.086 6 128533596.662 6      2262.654 6        39.544               
G10  22747342.652 8 119538140.874 8      2476.641 8        49.647               
G12  23301209.137 7 122448671.615 7      2488.800 7        47.060               
G15  23486200.386 7 123420840.380 7     -2586.041 7        46.000               
G23  20947958.083 7 110082246.712 7      -434.712 7        44.786               
G24  21647409.779 7 113757878.004 7     -2103.009 7        43.534               
G25  23967991.612 7 125952654.288 7      3612.067 7        42.340               
G28  26038856.655 6 136835171.583 6      3288.950 6        39.807               
> 2025 08 05 07 53 23.0000000  0  8                                             
G32  24458705.316 6 128531334.898 6      2257.366 6        39.168               
G10  22746873.921 8 119535665.520 8      2475.548 8        49.581               
G12  23300733.043 7 122446182.224 7      2490.627 7        47.554               
G15  23486689.550 7 123423422.139 7     -2585.072 7        45.920               
G23  20948038.458 7 110082680.153 7      -434.019 7        44.082               
G24  21647810.885 7 113759982.135 7     -2103.593 7        44.137               
G25  23967305.906 7 125949043.959 7      3612.795 7        42.338               
G28  26038231.436 6 136831882.888 6      3280.909 6        39.472               
> 2025 08 05 07 53 24.0000000  0  8                                             
G32  24458278.219 6 128529073.189 6      2264.712 6        39.236               
G10  22746402.893 8 119533190.556 8      2474.550 8        49.124               
G12  23300259.335 7 122443693.303 7      2488.124 7        46.950               
G15  23487181.190 7 123426004.078 7     -2577.923 7        45.712               
G23  20948118.806 7 110083114.255 7      -431.817 7        44.661               
G24  21648205.513 7 113762086.678 7     -2105.861 7        43.857               
G25  23966617.797 7 125945433.800 7      3612.193 7        42.301               
G28  26037608.218 6 136828594.361 6      3292.683 6        38.750               
> 2025 08 05 07 53 25.0000000  0  8                                             
G32  24457844.895 6 128526811.501 6      2256.886 6        39.092               
G10  22745931.392 8 119530715.970 8      2473.832 8        49.030               
G12  23299785.556 7 122441204.787 7      2487.661 7        46.514               
G15  23487671.212 7 123428586.232 7     -2579.896 7        45.705               
G23  20948200.092 7 110083548.990 7      -438.736 7        44.270               
G24  21648604.323 7 113764191.623 7     -2104.471 7        43.502               
G25  23965935.415 7 125941823.782 7      3612.727 7        42.282               
G28  26036977.602 6 136825306.009 6      3289.439 6        39.602               
> 2025 08 05 07 53 26.0000000  0  8                                             
G32  24457415.512 6 128524549.907 6      2264.964 6        39.239               
G10  22745463.161 8 119528241.770 8      2473.044 8        49.325               
G12  23299312.760 7 122438716.754 7      2485.262 7        47.166               
G15  23488158.759 7 123431168.608 7     -2581.087 7        45.746               
G23  20948275.741 7 110083984.398 7      -434.008 7        43.579               
G24  21649006.546 7 113766297.015 7     -2105.419 7        43.774               
G25  23965244.527 7 125938213.926 7      3610.861 7        42.167               
G28  26036360.219 6 136822017.819 6      3289.258 6        39.478               
> 2025 08 05 07 53 27.0000000  0  8                                             
G32  24456986.405 6 128522288.332 6      2258.516 6        39.417               
G10  22744991.330 8 119525767.962 8      2471.312 8        49.216               
G12  23298840.580 7 122436229.143 7      2489.294 7        47.398               
G15  23488653.401 7 123433751.182 7     -2578.399 7        45.417               
G23  20948361.673 7 110084420.473 7      -436.586 7        43.211               
G24  21649407.062 7 113768402.813 7     -2101.229 7        43.602               
G25  23964561.314 7 125934604.267 7      3603.232 7        42.095               
G28  26035732.221 6 136818729.813 6      3283.033 6        40.550               
> 2025 08 05 07 53 28.0000000  0  8                                             
G32  24456560.407 6 128520026.828 6      2252.153 6        38.887               
G10  22744518.274 8 119523294.511 8      2473.914 8        48.850               
G12  23298365.308 7 122433741.964 7      2486.688 7        47.026               
G15  23489144.960 7 123436333.948 7     -2581.839 7        45.363               
G23  20948448.061 7 110084857.145 7      -437.308 7        43.275               
G24  21649806.667 7 113770509.012 7     -2105.799 7        43.188               
G25  23963873.526 7 125930994.696 7      3605.167 7        43.057               
G28  26035104.107 6 136815441.974 6      3288.209 6        39.742               
> 2025 08 05 07 53 29.0000000  0  8                                             
G32  24456127.486 6 128517765.342 6      2252.499 6        39.745               
G10  22744050.910 8 119520821.444 8      2471.031 8        49.020               
G12  23297895.094 7 122431255.220 7      2482.850 7        47.725               
G15  23489634.919 7 123438916.910 7     -2581.178 7        46.056               
G23  20948533.975 7 110085294.469 7      -437.858 7        44.244               
G24  21650205.316 7 113772615.632 7     -2109.768 7        42.954               
G25  23963187.794 7 125927385.318 7      3606.710 7        43.870               
G28  26034484.212 6 136812154.281 6      3289.119 6        40.025               
> 2025 08 05 07 53 30.0000000  0  8                                             
G32  24455697.146 6 128515503.911 6      2259.277 6        39.635               
G10  22743579.668 8 119518348.730 8      2474.271 8        49.035               
G12  23297422.807 7 122428768.880 7      2485.726 7        47.489               
G15  23490126.978 7 123441500.057 7     -2580.843 7        45.570               
G23  20948621.828 7 110085732.416 7      -441.394 7        44.169               
G24  21650605.788 7 113774722.650 7     -2106.466 7        42.431               
G25  23962497.317 7 125923776.039 7      3611.681 7        43.761               
G28  26033848.379 6 136808866.721 6      3285.033 6        40.268               
> 2025 08 05 07 53 31.0000000  0  8                                             
G32  24455275.705 6 128513242.495 6      2255.517 6        39.426               
G10  22743107.345 8 119515876.383 8      2471.398 8        49.560               
G12  23296946.731 7 122426282.960 7      2487.712 7        47.500               
G15  23490622.138 7 123444083.385 7     -2585.272 7        45.619               
G23  20948703.123 7 110086170.976 7      -433.653 7        43.559               
G24  21651007.841 7 113776830.045 7     -2109.174 7        42.390               
G25  23961810.771 7 125920166.912 7      3606.001 7        43.393               
G28  26033229.298 6 136805579.271 6      3285.791 6        40.086               
> 2025 08 05 07 53 32.0000000  0  8                                             
G32  24454845.303 6 128510981.096 6      2261.778 6        39.606               
G10  22742637.658 8 119513404.398 8      2472.101 8        48.900               
G12  23296476.383 8 122423797.462 8      2482.845 8        48.165               
G15  23491113.813 7 123446666.876 7     -2583.867 7        45.812               
G23  20948783.802 7 110086610.173 7      -439.537 7        43.667               
G24  21651410.090 7 113778937.846 7     -2109.416 7        43.076               
G25  23961127.656 7 125916557.928 7      3609.299 7        43.894               
G28  26032596.949 6 136802291.984 6      3288.458 6        40.141               
> 2025 08 05 07 53 33.0000000  0  8                                             
G32  24454406.788 6 128508719.710 6      2263.059 6        38.965               
G10  22742165.165 8 119510932.745 8      2469.887 8        48.907               
G12  23296002.648 7 122421312.348 7      2488.393 7        46.917               
G15  23491605.962 7 123449250.532 7     -2585.004 7        45.606               
G23  20948857.914 7 110087049.980 7      -439.216 7        43.073               
G24  21651810.669 7 113781046.041 7     -2110.070 7        43.284               
G25  23960441.539 7 125912949.044 7      3605.427 7        44.166               
G28  26031971.381 6 136799004.842 6      3285.425 6        40.475               
> 2025 08 05 07 53 34.0000000  0  8                                             
G32  24453982.265 6 128506458.382 6      2262.594 6        39.040               
G10  22741693.566 8 119508461.458 8      2470.309 8        48.741               
G12  23295527.297 7 122418827.672 7      2484.129 7        47.003               
G15  23492096.895 7 123451834.384 7     -2582.194 7        45.478               
G23  20948942.166 7 110087490.422 7      -444.659 7        42.768               
G24  21652212.329 7 113783154.603 7     -2106.784 7        43.257               
G25  23959755.065 7 125909340.303 7      3603.852 7        44.260               
G28  26031348.610 6 136795717.837 6      3282.847 6        41.159               
> 2025 08 05 07 53 35.0000000  0  8                                             
G32  24453555.722 6 128504196.999 6      2267.933 6        39.336               
G10  22741223.271 8 119505990.488 8      2469.681 8        48.388               
G12  23295054.125 7 122416343.341 7      2486.196 7        47.078               
G15  23492585.729 7 123454418.347 7     -2582.024 7        45.870               
G23  20949029.126 7 110087931.438 7      -445.627 7        42.810               
G24  21652616.214 7 113785263.519 7     -2111.058 7        43.589               
G25  23959066.214 7 125905731.645 7      3606.532 7        44.401               
G28  26030727.822 6 136792430.923 6      3287.493 6        40.537               
> 2025 08 05 07 53 36.0000000  0  8                                             
G32  24453117.270 6 128501935.690 6      2261.030 6        39.080               
G10  22740752.592 8 119503519.894 8      2470.795 8        48.412               
G12  23294580.265 7 122413859.453 7      2483.564 7        46.813               
G15  23493078.074 7 123457002.508 7     -2580.633 7        46.005               
G23  20949118.435 7 110088373.078 7      -445.822 7        42.990               
G24  21653013.782 7 113787372.839 7     -2109.125 7        43.709               
G25  23958377.596 7 125902123.140 7      3608.682 7        44.204               
G28  26030103.693 6 136789144.161 6      3282.375 6        40.958               
> 2025 08 05 07 53 37.0000000  0  8                                             
G32  24452691.067 6 128499674.444 6      2263.030 6        39.765               
G10  22740281.136 8 119501049.703 8      2470.994 8        49.002               
G12  23294108.809 7 122411376.032 7      2481.864 7        46.745               
G15  23493568.954 7 123459586.905 7     -2581.589 7        45.602               
G23  20949207.825 7 110088815.396 7      -445.764 7        43.521               
G24  21653417.818 7 113789482.607 7     -2106.955 7        43.538               
G25  23957693.417 7 125898514.813 7      3606.367 7        43.831               
G28  26029475.391 6 136785857.592 6      3285.865 6        40.938               
> 2025 08 05 07 53 38.0000000  0  8                                             
G32  24452252.954 6 128497413.194 6      2254.457 6        40.058               
G10  22739812.753 8 119498579.853 8      2471.445 8        48.115               
G12  23293639.130 7 122408893.009 7      2483.338 7        47.366               
G15  23494059.423 7 123462171.451 7     -2587.128 7        45.075               
G23  20949290.978 7 110089258.301 7      -441.522 7        44.186               
G24  21653820.809 7 113791592.735 7     -2111.381 7        43.696               
G25  23957002.074 7 125894906.591 7      3606.059 7        43.036               
G28  26028852.977 6 136782571.148 6      3288.529 6        40.838               
> 2025 08 05 07 53 39.0000000  0  8                                             
G32  24451826.993 6 128495152.023 6      2266.208 6        39.526               
G10  22739344.406 8 119496110.388 8      2471.608 8        48.616               
G12  23293164.199 7 122406410.434 7      2482.885 7        47.178               
G15  23494552.930 7 123464756.205 7     -2586.892 7        45.705               
G23  20949368.995 7 110089701.874 7      -447.569 7        43.753               
G24  21654221.317 7 113793703.303 7     -2109.896 7        42.782               
G25  23956317.387 7 125891298.546 7      3611.731 7        43.392               
G28  26028225.364 6 136779284.866 6      3285.067 6        40.679               
> 2025 08 05 07 53 40.0000000  0  8                                             
G32  24451395.366 6 128492890.819 6      2270.724 6        39.767               
G10  22738877.292 8 119493641.281 8      2468.011 8        48.900               
G12  23292693.922 7 122403928.265 7      2479.365 7        47.346               
G15  23495045.025 7 123467341.112 7     -2586.322 7        45.625               
G23  20949451.460 7 110090146.055 7      -444.814 7        43.821               
G24  21654624.504 7 113795814.241 7     -2109.786 7        43.892               
G25  23955629.733 7 125887690.607 7      3612.291 7        42.694               
G28  26027596.035 6 136775998.694 6      3289.726 6        40.309               
> 2025 08 05 07 53 41.0000000  0  8                                             
G32  24450954.868 6 128490629.726 6      2258.455 6        39.527               
G10  22738404.307 8 119491172.545 8      2467.777 8        49.299               
G12  23292221.777 7 122401446.535 7      2481.740 7        47.270               
G15  23495539.184 7 123469926.236 7     -2584.650 7        45.893               
G23  20949535.042 7 110090590.891 7      -441.940 7        43.190               
G24  21655033.991 7 113797925.603 7     -2110.999 7        44.186               
G25  23954945.171 7 125884082.857 7      3607.546 7        42.594               
G28  26026976.748 6 136772712.721 6      3289.433 6        40.631               
> 2025 08 05 07 53 42.0000000  0  8                                             
G32  24450522.491 6 128488368.702 6      2254.270 6        39.213               
G10  22737936.863 8 119488704.237 8      2467.453 8        48.226               
G12  23291751.626 7 122398965.283 7      2479.513 7        47.482               
G15  23496030.796 7 123472511.594 7     -2587.953 7        45.562               
G23  20949620.796 7 110091036.420 7      -443.609 7        43.191               
G24  21655437.116 7 113800037.402 7     -2111.917 7        44.662               
G25  23954255.614 6 125880475.260 6      3608.408 6        41.939               
G28  26026356.577 6 136769426.934 6      3288.486 6        41.054               
> 2025 08 05 07 53 43.0000000  0  8                                             
G32  24450092.992 6 128486107.692 6      2262.360 6        39.342               
G10  22737468.239 8 119486236.285 8      2468.401 8        48.615               
G12  23291278.838 7 122396484.441 7      2481.079 7        47.958               
G15  23496525.375 7 123475097.117 7     -2582.671 7        46.324               
G23  20949710.221 7 110091482.561 7      -444.872 7        43.224               
G24  21655840.992 7 113802149.600 7     -2111.939 7        44.733               
G25  23953570.516 6 125876867.806 6      3607.543 6        41.680               
G28  26025729.785 6 136766141.306 6      3289.226 6        40.533               
> 2025 08 05 07 53 44.0000000  0  8                                             
G32  24449663.161 6 128483846.707 6      2251.856 6        38.923               
G10  22736997.399 8 119483768.724 8      2462.972 8        48.574               
G12  23290805.845 7 122394004.042 7      2480.863 7        47.486               
G15  23497016.729 7 123477682.849 7     -2584.234 7        45.927               
G23  20949797.038 7 110091929.334 7      -445.776 7        44.069               
G24  21656243.125 7 113804262.213 7     -2111.817 7        44.675               
G25  23952882.987 6 125873260.500 6      3615.286 6        41.078               
G28  26025098.312 6 136762855.834 6      3281.261 6        40.728               
> 2025 08 05 07 53 45.0000000  0  8                                             
G32  24449234.465 6 128481585.754 6      2261.729 6        39.536               
G10  22736524.656 8 119481301.492 8      2466.168 8        48.977               
G12  23290331.172 7 122391524.034 7      2482.903 7        47.474               
G15  23497510.378 7 123480268.734 7     -2589.592 7        45.709               
G23  20949881.943 7 110092376.706 7      -447.575 7        43.768               
G24  21656646.965 7 113806375.180 7     -2112.446 7        44.547               
G25  23952196.584 6 125869653.294 6      3606.798 6        41.479               
G28  26024475.835 6 136759570.464 6      3289.909 6        40.760               
> 2025 08 05 07 53 46.0000000  0  8                                             
G32  24448802.392 6 128479324.894 6      2264.107 6        39.482               
G10  22736058.980 8 119478834.636 8      2466.917 8        48.938               
G12  23289859.001 7 122389044.453 7      2481.937 7        46.727               
G15  23498000.838 7 123482854.824 7     -2585.997 7        45.124               
G23  20949960.191 7 110092824.717 7      -447.292 7        43.335               
G24  21657042.174 7 113808488.564 7     -2115.095 7        43.849               
G25  23951509.109 6 125866046.270 6      3614.080 6        41.231               
G28  26023849.133 6 136756285.237 6      3293.353 6        41.220               
> 2025 08 05 07 53 47.0000000  0  8                                             
G32  24448377.253 6 128477063.935 6      2268.246 6        39.020               
G10  22735585.701 8 119476368.109 8      2464.898 8        48.467               
G12  23289386.562 7 122386565.263 7      2480.849 7        47.042               
G15  23498494.631 7 123485441.052 7     -2587.336 7        45.836               
G23  20950044.881 7 110093273.325 7      -448.525 7        43.134               
G24  21657445.362 7 113810602.304 7     -2115.363 7        43.873               
G25  23950824.190 6 125862439.329 6      3599.857 6        41.153               
G28  26023222.877 6 136753000.135 6      3293.547 6        41.056               
> 2025 08 05 07 53 48.0000000  0  8                                             
G32  24447943.607 6 128474803.072 6      2261.436 6        38.776               
G10  22735120.669 8 119473901.957 8      2467.432 8        48.952               
G12  23288916.169 7 122384086.509 7      2477.253 7        46.134               
G15  23498986.994 7 123488027.483 7     -2583.588 7        46.260               
G23  20950130.769 7 110093722.592 7      -444.767 7        42.859               
G24  21657844.985 7 113812716.456 7     -2116.683 7        44.231               
G25  23950138.010 6 125858832.540 6      3613.835 6        41.362               
G28  26022603.045 6 136749715.202 6      3288.530 6        41.097               
> 2025 08 05 07 53 49.0000000  0  8                                             
G32  24447509.167 6 128472542.222 6      2265.160 6        38.615               
G10  22734648.364 8 119471436.148 8      2466.877 8        48.924               
G12  23288443.712 7 122381608.141 7      2479.080 7        47.158               
G15  23499480.349 7 123490614.065 7     -2586.508 7        46.195               
G23  20950217.782 7 110094172.458 7      -450.421 7        43.430               
G24  21658248.029 7 113814830.990 7     -2114.643 7        44.239               
G25  23949449.347 6 125855225.861 6      3604.427 6        41.418               
G28  26021972.868 6 136746430.397 6      3280.329 6        40.363               
> 2025 08 05 07 53 50.0000000  0  8                                             
G32  24447080.757 6 128470281.434 6      2263.397 6        38.518               
G10  22734180.901 8 119468970.752 8      2466.946 8        48.845               
G12  23287974.856 7 122379130.243 7      2479.121 7        47.112               
G15  23499975.607 7 123493200.859 7     -2588.752 7        46.483               
G23  20950308.092 7 110094622.961 7      -453.127 7        43.240               
G24  21658649.287 7 113816945.932 7     -2111.349 7        43.899               
G25  23948769.065 6 125851619.354 6      3604.854 6        40.742               
G28  26021350.150 6 136743145.752 6      3283.381 6        40.953               
> 2025 08 05 07 53 51.0000000  0  8                                             
G32  24446646.441 6 128468020.722 6      2255.172 6        38.403               
G10  22733713.046 8 119466505.749 8      2463.037 8        49.111               
G12  23287502.077 7 122376652.808 7      2477.417 7        47.385               
G15  23500464.718 7 123495787.896 7     -2586.764 7        46.379               
G23  20950395.463 7 110095074.146 7      -454.334 7        43.395               
G24  21659050.849 7 113819061.323 7     -2114.470 7        43.480               
G25  23948079.570 6 125848013.029 6      3607.260 6        41.896               
G28  26020723.814 6 136739861.329 6      3288.102 6        41.646               
> 2025 08 05 07 53 52.0000000  0  8                                             
G32  24446225.250 6 128465759.989 6      2257.143 6        39.135               
G10  22733242.733 8 119464041.090 8      2466.065 8        49.018               
G12  23287031.389 7 122374175.775 7      2475.797 7        47.332               
G15  23500956.241 7 123498375.071 7     -2590.906 7        46.374               
G23  20950480.903 7 110095525.935 7      -452.145 7        44.085               
G24  21659446.174 7 113821177.088 7     -2117.708 7        42.654               
G25  23947396.116 7 125844406.850 7      3608.845 7        42.018               
G28  26020102.258 6 136736576.982 6      3285.579 6        40.783               
> 2025 08 05 07 53 53.0000000  0  8                                             
G32  24445796.421 6 128463499.331 6      2263.328 6        39.313               
G10  22732773.367 8 119461576.823 8      2463.863 8        48.664               
G12  23286563.801 7 122371699.188 7      2477.244 7        47.743               
G15  23501451.490 7 123500962.450 7     -2587.953 7        46.568               
G23  20950564.262 7 110095978.381 7      -453.224 7        43.698               
G24  21659846.387 7 113823293.280 7     -2116.692 7        43.231               
G25  23946710.946 7 125840800.803 7      3599.788 7        42.371               
G28  26019476.449 6 136733292.828 6      3288.327 6        41.427               
> 2025 08 05 07 53 54.0000000  0  8                                             
G32  24445372.183 6 128461238.667 6      2257.457 6        38.790               
G10  22732303.081 8 119459112.886 8      2463.679 8        49.376               
G12  23286089.692 7 122369222.993 7      2476.112 7        47.547               
G15  23501942.968 7 123503549.989 7     -2586.269 7        46.663               
G23  20950644.468 7 110096431.430 7      -452.349 7        43.290               
G24  21660246.135 7 113825409.846 7     -2112.708 7        42.685               
G25  23946027.018 7 125837194.872 7      3604.179 7        42.649               
G28  26018847.799 6 136730008.801 6      3283.184 6        41.001               
> 2025 08 05 07 53 55.0000000  0  8                                             
G32  24444934.598 6 128458978.117 6      2265.895 6        39.249               
G10  22731836.003 8 119456649.363 8      2463.481 8        49.244               
G12  23285618.271 7 122366747.270 7      2473.906 7        47.372               
G15  23502434.831 7 123506137.760 7     -2586.176 7        45.767               
G23  20950727.317 7 110096885.162 7      -455.210 7        42.728               
G24  21660651.002 7 113827526.836 7     -2120.908 7        42.676               
G25  23945334.692 7 125833589.140 7      3604.511 7        42.889               
G28  26018225.760 6 136726724.979 6      3282.008 6        40.925               
> 2025 08 05 07 53 56.0000000  0  8                                             
G32  24444507.662 6 128456717.559 6      2267.839 6        38.890               
G10  22731365.771 8 119454186.204 8      2464.521 8        49.654               
G12  23285145.957 7 122364271.960 7      2474.525 7        47.413               
G15  23502924.210 7 123508725.708 7     -2586.942 7        46.481               
G23  20950816.046 7 110097339.514 7      -454.247 7        42.734               
G24  21661054.511 7 113829644.228 7     -2116.605 7        42.858               
G25  23944651.961 7 125829983.555 7      3603.994 7        43.206               
G28  26017604.311 6 136723441.257 6      3282.636 6        41.223               
> 2025 08 05 07 53 57.0000000  0  8                                             
G32  24444072.239 6 128454457.051 6      2258.375 6        38.649               
G10  22730897.433 8 119451723.427 8      2461.267 8        48.558               
G12  23284673.277 7 122361797.077 7      2472.562 7        46.515               
G15  23503414.786 7 123511313.841 7     -2586.305 7        46.620               
G23  20950911.082 7 110097794.487 7      -454.376 7        43.739               
G24  21661455.841 7 113831762.018 7     -2117.858 7        42.890               
G25  23943968.069 7 125826378.104 7      3605.865 7        42.896               
G28  26016979.128 6 136720157.703 6      3283.327 6        40.585               
> 2025 08 05 07 53 58.0000000  0  8                                             
G32  24443642.480 6 128452196.596 6      2254.931 6        38.543               
G10  22730427.236 8 119449261.002 8      2462.264 8        48.357               
G12  23284204.063 7 122359322.618 7      2472.900 7        46.652               
G15  23503910.928 7 123513902.158 7     -2589.225 7        45.702               
G23  20951001.169 7 110098250.090 7      -455.726 7        43.654               
G24  21661862.683 7 113833880.183 7     -2118.808 7        43.117               
G25  23943280.523 7 125822772.790 7      3604.675 7        43.011               
G28  26016358.840 6 136716874.305 6      3275.433 6        40.287               
> 2025 08 05 07 53 59.0000000  0  8                                             
G32  24443213.194 6 128449936.165 6      2257.064 6        38.939               
G10  22729957.334 8 119446798.961 8      2462.131 8        48.966               
G12  23283733.804 7 122356848.595 7      2473.998 7        47.276               
G15  23504403.059 7 123516490.661 7     -2586.240 7        46.109               
G23  20951085.216 7 110098706.339 7      -459.316 7        43.983               
G24  21662265.022 7 113835998.778 7     -2119.624 7        43.112               
G25  23942596.219 7 125819167.636 7      3608.392 7        43.690               
G28  26015733.541 6 136713591.072 6      3282.735 6        40.627               
> 2025 08 05 07 54 00.0000000  0  8                                             
G32  24442786.750 6 128447675.794 6      2256.036 6        39.238               
G10  22729491.007 8 119444337.309 8      2462.748 8        48.553               
G12  23283263.616 8 122354375.028 8      2473.861 8        48.119               
G15  23504896.780 7 123519079.389 7     -2589.610 7        46.070               
G23  20951172.980 7 110099163.247 7      -457.637 7        43.988               
G24  21662664.921 7 113838117.788 7     -2122.001 7        42.381               
G25  23941907.235 7 125815562.642 7      3605.953 7        43.372               
G28  26015108.607 6 136710307.988 6      3283.215 6        40.063               
> 2025 08 05 07 54 01.0000000  0  8                                             
G32  24442366.238 6 128445415.383 6      2267.381 6        39.151               
G10  22729020.756 8 119441875.979 8      2459.867 8        48.480               
G12  23282792.589 7 122351901.830 7      2473.418 7        47.874               
G15  23505387.884 7 123521668.229 7     -2588.516 7        46.399               
G23  20951250.335 7 110099620.714 7      -457.146 7        43.829               
G24  21663068.127 7 113840237.138 7     -2118.825 7        42.435               
G25  23941220.957 7 125811957.745 7      3607.034 7        43.018               
G28  26014478.510 6 136707024.991 6      3286.266 6        40.148               
> 2025 08 05 07 54 02.0000000  0  8                                             
G32  24441928.733 6 128443155.039 6      2259.139 6        39.251               
G10  22728555.340 8 119439414.992 8      2460.322 8        48.545               
G12  23282323.491 7 122349429.036 7      2474.911 7        47.872               
G15  23505880.568 7 123524257.230 7     -2586.729 7        46.586               
G23  20951338.652 7 110100078.812 7      -456.429 7        43.610               
G24  21663477.408 7 113842356.861 7     -2119.563 7        43.363               
G25  23940536.895 7 125808352.966 7      3599.627 7        42.721               
G28  26013857.240 6 136703742.172 6      3285.423 6        40.516               
> 2025 08 05 07 54 03.0000000  0  8                                             
G32  24441502.745 6 128440894.619 6      2255.665 6        39.218               
G10  22728086.787 8 119436954.322 8      2461.051 8        48.206               
G12  23281854.796 8 122346956.623 8      2471.798 8        48.652               
G15  23506373.834 7 123526846.384 7     -2589.206 7        46.317               
G23  20951430.035 7 110100537.488 7      -461.787 7        43.955               
G24  21663883.964 7 113844476.953 7     -2119.879 7        43.334               
G25  23939842.871 7 125804748.254 7      3603.843 7        43.095               
G28  26013233.959 6 136700459.417 6      3283.307 6        40.093               
