     3.02           OBSERVATION DATA    G                   RINEX VERSION / TYPE
G = GPS  R = GLONASS  E = GALILEO  S = GEO  M = MIXED       COMMENT             
GNSS-SDR            suhjw               20250806 042530 UTC PGM / RUN BY / DATE 
GPS OBSERVATION DATA FILE GENERATED BY GNSS-SDR             COMMENT             
GNSS-SDR VERSION 0.0.20                                     COMMENT             
See https://gnss-sdr.org                                    COMMENT             
DEFAULT MARKER NAME                                         MARKER NAME         
suhjw               CTTC                                    OBSERVER / AGENCY   
GNSS-SDR            Software Receiver   0.0.20              REC # / TYPE / VERS 
Antenna number      Antenna type                            ANT # / TYPE        
        0.0000        0.0000        0.0000                  APPROX POSITION XYZ 
        0.0000        0.0000        0.0000                  ANTENNA: DELTA H/E/N
G    4 C1C L1C D1C S1C                                      SYS / # / OBS TYPES 
DBHZ                                                        SIGNAL STRENGTH UNIT
  2025    08    06    04    25   48.1200000     GPS         TIME OF FIRST OBS   
                                                            END OF HEADER       
> 2025 08 06 04 25 49.0000000  0  5                                             
G05  24686758.409 7 129729802.170 7      -753.524 7        46.582               
G11  28030221.146 7 147299806.639 7     -3598.625 7        47.290               
G13  23876180.554 7 125470168.693 7     -1145.416 7        44.837               
G21  26594383.592 8 139754428.512 8     -2141.446 8        48.502               
G30  27623256.703 7 145161205.081 7     -2082.718 7        42.808               
> 2025 08 06 04 25 50.0000000  0  5                                             
G05  24686899.324 7 129730556.131 7      -754.019 7        46.158               
G11  28030905.351 7 147303405.612 7     -3599.182 7        47.331               
G13  23876398.163 7 125471314.083 7     -1145.892 7        44.632               
G21  26594791.166 8 139756570.186 8     -2141.927 8        48.007               
G30  27623655.611 7 145163288.291 7     -2083.538 7        42.315               
> 2025 08 06 04 25 51.0000000  0  5                                             
G05  24687037.558 7 129731310.434 7      -755.017 7        45.567               
G11  28031589.645 7 147307004.800 7     -3599.061 7        46.963               
G13  23876616.326 7 125472460.035 7     -1146.403 7        44.660               
G21  26595198.384 7 139758712.070 7     -2142.270 7        47.840               
G30  27624056.038 7 145165371.987 7     -2084.220 7        42.193               
> 2025 08 06 04 25 52.0000000  0  5                                             
G05  24687179.724 7 129732065.057 7      -754.649 7        45.761               
G11  28032273.832 7 147310604.183 7     -3599.625 7        46.947               
G13  23876835.794 7 125473606.514 7     -1146.792 7        44.180               
G21  26595605.404 7 139760854.154 7     -2142.288 7        47.907               
G30  27624452.999 7 145167456.172 7     -2084.789 7        42.271               
> 2025 08 06 04 25 53.0000000  0  5                                             
G05  24687325.375 7 129732819.936 7      -755.377 7        45.265               
G11  28032958.877 7 147314203.700 7     -3599.598 7        46.614               
G13  23877051.759 7 125474753.450 7     -1147.511 7        44.538               
G21  26596012.496 7 139762996.366 7     -2142.621 7        47.550               
G30  27624848.601 7 145169540.760 7     -2084.504 7        42.228               
> 2025 08 06 04 25 54.0000000  0  5                                             
G05  24687473.312 7 129733575.129 7      -755.557 7        45.408               
G11  28033644.726 7 147317803.411 7     -3600.031 7        46.630               
G13  23877267.277 7 125475900.909 7     -1147.816 7        44.496               
G21  26596420.535 7 139765138.782 7     -2142.618 7        47.761               
G30  27625244.471 7 145171625.820 7     -2085.257 7        42.766               
> 2025 08 06 04 25 55.0000000  0  5                                             
G05  24687620.339 7 129734330.655 7      -755.679 7        45.845               
G11  28034330.646 7 147321403.337 7     -3599.879 7        46.688               
G13  23877484.582 7 125477048.904 7     -1148.148 7        44.723               
G21  26596829.504 7 139767281.397 7     -2142.795 7        47.863               
G30  27625640.449 7 145173711.394 7     -2085.948 7        42.265               
> 2025 08 06 04 25 56.0000000  0  5                                             
G05  24687764.274 7 129735086.454 7      -755.735 7        45.826               
G11  28035015.441 7 147325003.407 7     -3600.086 7        46.847               
G13  23877701.476 7 125478197.388 7     -1148.643 7        44.374               
G21  26597236.953 7 139769424.176 7     -2143.114 7        47.742               
G30  27626038.999 7 145175797.369 7     -2086.034 7        42.454               
> 2025 08 06 04 25 57.0000000  0  5                                             
G05  24687907.047 7 129735842.485 7      -756.250 7        45.733               
G11  28035699.699 7 147328603.576 7     -3599.920 7        46.909               
G13  23877919.461 7 125479346.279 7     -1149.161 7        44.290               
G21  26597643.491 7 139771567.050 7     -2143.102 7        47.779               
G30  27626436.675 7 145177883.736 7     -2086.396 7        42.387               
> 2025 08 06 04 25 58.0000000  0  5                                             
G05  24688049.588 7 129736598.794 7      -756.435 7        46.048               
G11  28036384.690 7 147332203.902 7     -3600.565 7        46.563               
G13  23878139.053 7 125480495.680 7     -1149.294 7        44.102               
G21  26598052.210 7 139773710.079 7     -2143.037 7        47.586               
G30  27626832.777 7 145179970.533 7     -2087.346 7        42.909               
> 2025 08 06 04 25 59.0000000  0  5                                             
G05  24688189.950 7 129737355.438 7      -756.603 7        46.088               
G11  28037070.450 7 147335804.425 7     -3600.752 7        46.913               
G13  23878357.555 7 125481645.597 7     -1150.114 7        44.103               
G21  26598461.374 7 139775853.310 7     -2143.484 7        47.214               
G30  27627229.130 7 145182057.816 7     -2087.432 7        43.027               
> 2025 08 06 04 26 00.0000000  0  5                                             
G05  24688332.437 7 129738112.404 7      -757.184 7        45.774               
G11  28037754.512 7 147339405.147 7     -3600.767 7        46.651               
G13  23878577.666 7 125482796.057 7     -1150.642 7        44.186               
G21  26598868.770 7 139777996.739 7     -2143.318 7        47.781               
G30  27627625.358 7 145184145.563 7     -2087.943 7        42.783               
> 2025 08 06 04 26 01.0000000  0  5                                             
G05  24688476.050 7 129738869.668 7      -757.732 7        45.990               
G11  28038439.306 7 147343006.018 7     -3601.000 7        46.932               
G13  23878796.562 7 125483946.991 7     -1151.101 7        44.040               
G21  26599276.506 7 139780140.324 7     -2143.727 7        47.914               
G30  27628025.749 7 145186233.764 7     -2088.992 7        42.536               
> 2025 08 06 04 26 02.0000000  0  5                                             
G05  24688621.862 7 129739627.214 7      -757.391 7        46.386               
G11  28039125.280 7 147346607.068 7     -3600.967 7        46.873               
G13  23879018.906 7 125485098.425 7     -1152.068 7        43.920               
G21  26599684.062 7 139782284.085 7     -2143.690 7        47.807               
G30  27628422.227 7 145188322.379 7     -2089.147 7        42.609               
> 2025 08 06 04 26 03.0000000  0  5                                             
G05  24688769.138 7 129740385.046 7      -757.810 7        46.173               
G11  28039811.111 7 147350208.261 7     -3601.342 7        46.435               
G13  23879239.749 7 125486250.339 7     -1152.128 7        44.368               
G21  26600091.923 8 139784428.001 8     -2144.119 8        48.010               
G30  27628817.400 7 145190411.454 7     -2089.080 7        42.774               
> 2025 08 06 04 26 04.0000000  0  5                                             
G05  24688917.308 7 129741143.213 7      -758.094 7        46.654               
G11  28040496.174 7 147353809.667 7     -3601.229 7        46.439               
G13  23879459.538 7 125487402.815 7     -1152.608 7        44.460               
G21  26600500.141 7 139786572.132 7     -2143.823 7        47.994               
G30  27629213.896 7 145192501.013 7     -2089.722 7        42.748               
> 2025 08 06 04 26 05.0000000  0  5                                             
G05  24689063.548 7 129741901.586 7      -758.548 7        46.899               
G11  28041181.183 7 147357411.145 7     -3601.574 7        46.329               
G13  23879679.810 7 125488555.688 7     -1153.113 7        44.772               
G21  26600907.715 8 139788716.334 8     -2144.287 8        48.518               
G30  27629611.696 7 145194590.920 7     -2090.374 7        43.136               
> 2025 08 06 04 26 06.0000000  0  6                                             
G05  24689207.984 7 129742660.303 7      -758.826 7        46.763               
G11  28041868.336 7 147361012.835 7     -3601.648 7        45.954               
G13  23879899.313 7 125489709.118 7     -1153.924 7        45.611               
G21  26601315.111 8 139790860.763 8     -2144.638 8        48.427               
G24  27651127.108 6 145307644.985 6      3960.976 6        37.796               
G30  27630012.874 7 145196681.316 7     -2089.925 7        43.367               
> 2025 08 06 04 26 07.0000000  0  6                                             
G05  24689349.524 7 129743419.316 7      -759.160 7        46.658               
G11  28042553.792 7 147364614.696 7     -3602.133 7        46.081               
G13  23880116.546 7 125490863.036 7     -1154.125 7        45.044               
G21  26601724.937 8 139793005.356 8     -2144.601 8        48.422               
G24  27650371.856 6 145303683.686 6      3961.807 6        37.837               
G30  27630410.817 7 145198772.159 7     -2091.082 7        43.291               
> 2025 08 06 04 26 08.0000000  0  6                                             
G05  24689490.904 7 129744178.669 7      -759.404 7        46.840               
G11  28043238.122 7 147368216.763 7     -3602.012 7        46.015               
G13  23880337.229 7 125492017.508 7     -1154.405 7        44.956               
G21  26602134.638 8 139795150.157 8     -2144.830 8        48.488               
G24  27649616.049 6 145299722.516 6      3961.188 6        37.974               
G30  27630810.279 7 145200863.504 7     -2091.339 7        43.800               
> 2025 08 06 04 26 09.0000000  0  6                                             
G05  24689635.661 7 129744938.371 7      -759.912 7        46.692               
G11  28043923.524 7 147371819.064 7     -3602.445 7        45.637               
G13  23880559.359 7 125493172.525 7     -1155.330 7        45.464               
G21  26602543.320 8 139797295.195 8     -2145.241 8        48.715               
G24  27648861.798 6 145295761.473 6      3960.358 6        38.152               
G30  27631207.561 7 145202955.344 7     -2092.513 7        43.464               
> 2025 08 06 04 26 10.0000000  0  6                                             
G05  24689780.436 7 129745698.354 7      -760.301 7        46.674               
G11  28044611.160 7 147375421.509 7     -3602.191 7        45.879               
G13  23880779.290 7 125494328.033 7     -1155.887 7        45.807               
G21  26602952.182 8 139799440.377 8     -2145.366 8        48.167               
G24  27648110.781 6 145291800.488 6      3960.781 6        38.097               
G30  27631606.165 7 145205047.614 7     -2092.369 7        43.118               
> 2025 08 06 04 26 11.0000000  0  6                                             
G05  24689924.514 7 129746458.694 7      -760.556 7        46.190               
G11  28045296.115 7 147379024.193 7     -3602.947 7        46.047               
G13  23880999.866 7 125495484.091 7     -1156.347 7        45.218               
G21  26603361.400 7 139801585.784 7     -2145.404 7        47.794               
G24  27647357.494 6 145287839.654 6      3961.184 6        38.501               
G30  27632004.376 7 145207140.401 7     -2092.752 7        43.150               
> 2025 08 06 04 26 12.0000000  0  6                                             
G05  24690069.521 7 129747219.334 7      -760.971 7        46.304               
G11  28045980.177 7 147382627.031 7     -3603.215 7        45.689               
G13  23881217.189 7 125496640.660 7     -1156.729 7        45.020               
G21  26603769.886 8 139803731.370 8     -2145.982 8        48.636               
G24  27646604.565 6 145283878.898 6      3960.764 6        38.138               
G30  27632401.104 7 145209233.623 7     -2093.550 7        43.445               
> 2025 08 06 04 26 13.0000000  0  6                                             
G05  24690214.653 7 129747980.272 7      -760.994 7        46.547               
G11  28046665.936 7 147386230.054 7     -3603.373 7        45.599               
G13  23881437.567 7 125497797.711 7     -1157.431 7        44.811               
G21  26604177.014 8 139805877.128 8     -2146.039 8        48.596               
G24  27645850.546 6 145279918.211 6      3960.440 6        38.101               
G30  27632799.655 7 145211327.318 7     -2093.880 7        43.649               
> 2025 08 06 04 26 14.0000000  0  6                                             
G05  24690361.465 7 129748741.572 7      -761.337 7        46.844               
G11  28047352.804 7 147389833.317 7     -3603.472 7        45.281               
G13  23881656.767 7 125498955.341 7     -1157.550 7        44.701               
G21  26604586.054 8 139808023.133 8     -2146.046 8        48.344               
G24  27645096.509 6 145275957.700 6      3960.404 6        38.648               
G30  27633198.098 7 145213421.520 7     -2094.393 7        43.957               
> 2025 08 06 04 26 15.0000000  0  6                                             
G05  24690508.277 7 129749503.124 7      -761.784 7        47.239               
G11  28048038.259 7 147393436.711 7     -3603.490 7        45.722               
G13  23881876.770 7 125500113.430 7     -1158.455 7        44.882               
G21  26604993.753 8 139810169.264 8     -2146.265 8        48.404               
G24  27644341.489 6 145271997.215 6      3960.915 6        38.418               
G30  27633595.791 7 145215516.142 7     -2094.801 7        43.523               
> 2025 08 06 04 26 16.0000000  0  6                                             
G05  24690653.409 7 129750264.996 7      -762.300 7        47.297               
G11  28048722.446 7 147397040.297 7     -3603.942 7        45.877               
G13  23882098.078 7 125501272.042 7     -1158.765 7        45.215               
G21  26605402.185 8 139812315.594 8     -2146.654 8        48.610               
G24  27643589.561 6 145268036.827 6      3960.432 6        38.474               
G30  27633993.395 7 145217611.220 7     -2095.322 7        43.043               
> 2025 08 06 04 26 17.0000000  0  6                                             
G05  24690799.041 7 129751027.141 7      -762.626 7        47.385               
G11  28049407.277 7 147400644.028 7     -3603.817 7        46.079               
G13  23882318.153 7 125502431.131 7     -1159.333 7        44.514               
G21  26605810.832 8 139814462.073 8     -2146.530 8        48.158               
G24  27642835.970 6 145264076.511 6      3960.399 6        38.429               
G30  27634392.321 7 145219706.725 7     -2095.817 7        43.263               
> 2025 08 06 04 26 18.0000000  0  6                                             
G05  24690943.530 7 129751789.635 7      -762.822 7        47.534               
G11  28050094.359 7 147404247.976 7     -3604.206 7        46.267               
G13  23882539.103 7 125503590.773 7     -1159.399 7        43.887               
G21  26606218.693 7 139816608.781 7     -2146.572 7        47.840               
G24  27642082.487 6 145260116.320 6      3960.250 6        37.972               
G30  27634791.354 7 145221802.724 7     -2096.257 7        43.217               
> 2025 08 06 04 26 19.0000000  0  6                                             
G05  24691086.357 7 129752552.413 7      -762.907 7        47.790               
G11  28050780.833 7 147407852.078 7     -3604.168 7        46.665               
G13  23882759.732 7 125504750.890 7     -1160.034 7        44.342               
G21  26606626.982 8 139818755.640 8     -2146.766 8        48.005               
G24  27641328.093 6 145256156.188 6      3960.060 6        38.127               
G30  27635189.583 7 145223899.150 7     -2096.687 7        42.862               
> 2025 08 06 04 26 20.0000000  0  6                                             
G05  24691231.865 7 129753315.441 7      -763.419 7        47.348               
G11  28051467.682 7 147411456.306 7     -3604.405 7        46.934               
G13  23882982.309 7 125505911.460 7     -1160.836 7        44.401               
G21  26607034.342 7 139820902.631 7     -2147.183 7        47.311               
G24  27640577.701 6 145252196.108 6      3960.261 6        38.392               
G30  27635591.779 7 145225995.985 7     -2097.169 7        42.720               
> 2025 08 06 04 26 21.0000000  0  6                                             
G05  24691378.087 7 129754078.766 7      -763.729 7        47.103               
G11  28052152.620 7 147415060.689 7     -3604.416 7        46.996               
G13  23883203.134 7 125507072.536 7     -1160.750 7        45.131               
G21  26607442.881 7 139823049.789 7     -2147.267 7        47.970               
G24  27639824.343 6 145248236.101 6      3960.265 6        38.562               
G30  27635991.581 7 145228093.272 7     -2097.468 7        43.074               
> 2025 08 06 04 26 22.0000000  0  6                                             
G05  24691525.346 7 129754842.409 7      -763.497 7        47.005               
G11  28052838.415 7 147418665.255 7     -3604.309 7        46.719               
G13  23883424.531 7 125508234.122 7     -1161.353 7        45.192               
G21  26607850.188 7 139825197.129 7     -2147.323 7        47.973               
G24  27639070.485 6 145244276.172 6      3959.799 6        37.849               
G30  27636393.884 7 145230191.014 7     -2097.857 7        42.681               
> 2025 08 06 04 26 23.0000000  0  6                                             
G05  24691669.817 7 129755606.345 7      -764.051 7        46.961               
G11  28053524.335 7 147422269.991 7     -3604.788 7        46.965               
G13  23883645.696 7 125509396.213 7     -1162.326 7        44.864               
G21  26608258.870 7 139827344.642 7     -2147.854 7        47.269               
G24  27638313.106 6 145240316.338 6      3960.263 6        37.639               
G30  27636792.417 7 145232289.196 7     -2097.966 7        42.687               
> 2025 08 06 04 26 24.0000000  0  6                                             
G05  24691816.718 7 129756370.571 7      -764.394 7        46.886               
G11  28054209.309 7 147425874.891 7     -3605.113 7        46.326               
G13  23883866.682 7 125510558.804 7     -1162.791 7        44.823               
G21  26608668.000 7 139829492.327 7     -2147.812 7        47.284               
G24  27637559.284 6 145236356.592 6      3959.683 6        37.967               
G30  27637191.539 7 145234387.829 7     -2098.420 7        43.008               
> 2025 08 06 04 26 25.0000000  0  6                                             
G05  24691960.349 7 129757135.046 7      -764.542 7        47.296               
G11  28054895.515 7 147429479.904 7     -3605.078 7        46.273               
G13  23884086.060 7 125511721.837 7     -1163.099 7        44.909               
G21  26609077.021 7 139831640.133 7     -2148.185 7        47.423               
G24  27636806.533 6 145232396.877 6      3958.967 6        38.050               
G30  27637588.499 7 145236486.865 7     -2099.281 7        42.992               
> 2025 08 06 04 26 26.0000000  0  6                                             
G05  24692105.142 7 129757899.879 7      -765.387 7        47.457               
G11  28055582.936 7 147433085.153 7     -3605.400 7        46.635               
G13  23884309.209 7 125512885.442 7     -1164.001 7        45.510               
G21  26609485.257 7 139833788.178 7     -2148.149 7        47.962               
G24  27636056.946 6 145228437.303 6      3959.680 6        37.653               
G30  27637989.677 7 145238586.421 7     -2099.655 7        42.856               
> 2025 08 06 04 26 27.0000000  0  6                                             
G05  24692249.738 7 129758665.014 7      -765.374 7        47.414               
G11  28056268.356 7 147436690.568 7     -3605.588 7        46.922               
G13  23884531.624 7 125514049.542 7     -1164.001 7        45.406               
G21  26609894.100 7 139835936.388 7     -2148.420 7        47.869               
G24  27635301.783 6 145224477.810 6      3959.439 6        38.004               
G30  27638387.513 7 145240686.398 7     -2100.325 7        42.788               
> 2025 08 06 04 26 28.0000000  0  6                                             
G05  24692393.137 7 129759430.390 7      -765.797 7        47.148               
G11  28056954.276 7 147440296.090 7     -3605.491 7        47.067               
G13  23884753.629 7 125515214.084 7     -1164.806 7        45.378               
G21  26610302.783 8 139838084.716 8     -2148.430 8        48.108               
G24  27634545.566 6 145220518.339 6      3959.325 6        37.224               
G30  27638785.242 7 145242786.777 7     -2100.802 7        42.896               
> 2025 08 06 04 26 29.0000000  0  6                                             
G05  24692538.895 7 129760196.147 7      -766.231 7        47.164               
G11  28057641.055 7 147443901.861 7     -3605.827 7        46.838               
G13  23884972.239 7 125516379.209 7     -1165.697 7        44.931               
G21  26610713.878 8 139840233.294 8     -2148.818 8        48.210               
G24  27633792.261 6 145216559.046 6      3959.106 6        37.705               
G30  27639186.562 7 145244887.678 7     -2101.341 7        42.658               
> 2025 08 06 04 26 30.0000000  0  6                                             
G05  24692686.117 7 129760962.174 7      -766.000 7        46.808               
G11  28058327.850 7 147447507.781 7     -3605.998 7        46.373               
G13  23885192.439 7 125517544.818 7     -1166.001 7        44.545               
G21  26611124.186 8 139842382.023 8     -2148.883 8        48.421               
G24  27633036.973 6 145212599.797 6      3958.893 6        37.139               
G30  27639586.238 7 145246989.020 7     -2101.574 7        42.219               
> 2025 08 06 04 26 31.0000000  0  6                                             
G05  24692834.037 7 129761728.488 7      -766.685 7        46.895               
G11  28059014.003 7 147451113.863 7     -3606.066 7        46.688               
G13  23885415.498 7 125518710.896 7     -1166.410 7        44.468               
G21  26611532.743 8 139844530.906 8     -2149.052 8        48.309               
G24  27632285.956 6 145208640.637 6      3958.861 6        37.375               
G30  27639985.361 7 145249090.781 7     -2102.240 7        42.266               
> 2025 08 06 04 26 32.0000000  0  6                                             
G05  24692981.171 7 129762495.051 7      -766.506 7        46.983               
G11  28059699.387 7 147454720.060 7     -3605.991 7        46.636               
G13  23885638.360 7 125519877.443 7     -1166.600 7        44.470               
G21  26611942.176 7 139846679.925 7     -2148.916 7        47.916               
G24  27631531.669 6 145204681.502 6      3959.243 6        37.419               
G30  27640385.234 7 145251192.953 7     -2102.096 7        42.343               
> 2025 08 06 04 26 33.0000000  0  6                                             
G05  24693127.625 7 129763261.937 7      -767.110 7        47.086               
G11  28060385.736 7 147458326.449 7     -3606.483 7        46.760               
G13  23885861.509 7 125521044.505 7     -1167.146 7        45.045               
G21  26612350.484 8 139848829.135 8     -2149.457 8        48.465               
G24  27630780.616 6 145200722.476 6      3959.286 6        37.420               
G30  27640784.589 6 145253295.582 6     -2102.579 6        41.767               
> 2025 08 06 04 26 34.0000000  0  6                                             
G05  24693275.884 7 129764029.177 7      -767.367 7        47.114               
G11  28061072.622 7 147461933.064 7     -3606.616 7        46.616               
G13  23886082.834 7 125522212.125 7     -1168.191 7        44.390               
G21  26612757.969 7 139850978.569 7     -2149.214 7        47.790               
G24  27630026.740 6 145196763.589 6      3959.296 6        37.373               
G30  27641184.944 6 145255398.723 6     -2103.219 6        41.710               
> 2025 08 06 04 26 35.0000000  0  6                                             
G05  24693419.140 7 129764796.739 7      -767.810 7        47.152               
G11  28061759.793 7 147465539.860 7     -3607.075 7        46.741               
G13  23886303.570 7 125523380.261 7     -1169.075 7        44.274               
G21  26613167.330 7 139853128.200 7     -2149.588 7        47.404               
G24  27629272.899 6 145192804.807 6      3958.631 6        37.302               
G30  27641587.998 7 145257502.329 7     -2104.563 7        42.052               
> 2025 08 06 04 26 36.0000000  0  6                                             
G05  24693563.969 7 129765564.607 7      -767.834 7        46.881               
G11  28062445.624 7 147469146.848 7     -3606.818 7        46.643               
G13  23886526.308 7 125524548.910 7     -1168.825 7        44.459               
G21  26613575.262 7 139855278.014 7     -2149.789 7        47.658               
G24  27628517.058 6 145188846.127 6      3958.585 6        37.716               
G30  27641989.836 7 145259606.403 7     -2103.954 7        42.182               
> 2025 08 06 04 26 37.0000000  0  6                                             
G05  24693708.922 7 129766332.773 7      -768.297 7        46.475               
G11  28063133.402 7 147472753.996 7     -3607.292 7        46.389               
G13  23886749.009 7 125525718.045 7     -1169.336 7        44.609               
G21  26613983.873 8 139857427.998 8     -2150.355 8        48.215               
G24  27627765.111 6 145184887.516 6      3958.985 6        37.552               
G30  27642391.371 7 145261710.916 7     -2104.707 7        42.377               
> 2025 08 06 04 26 38.0000000  0  6                                             
G05  24693854.519 7 129767101.201 7      -768.561 7        46.893               
G11  28063819.609 7 147476361.283 7     -3607.266 7        46.557               
G13  23886974.195 7 125526887.660 7     -1169.822 7        45.001               
G21  26614393.753 8 139859578.128 8     -2150.153 8        48.255               
G24  27627011.146 6 145180928.956 6      3958.764 6        37.899               
G30  27642789.493 7 145263815.846 7     -2105.041 7        42.154               
> 2025 08 06 04 26 39.0000000  0  6                                             
G05  24694001.742 7 129767869.918 7      -768.854 7        46.978               
G11  28064505.350 7 147479968.729 7     -3607.828 7        46.297               
G13  23887198.451 7 125528057.763 7     -1170.547 7        45.122               
G21  26614802.810 7 139861728.412 7     -2150.533 7        47.939               
G24  27626257.591 6 145176970.467 6      3958.746 6        37.611               
G30  27643188.383 6 145265921.210 6     -2105.776 6        41.717               
> 2025 08 06 04 26 40.0000000  0  6                                             
G05  24694146.678 7 129768638.967 7      -769.252 7        46.629               
G11  28065191.449 7 147483576.360 7     -3607.638 7        45.684               
G13  23887422.815 7 125529228.384 7     -1170.845 7        45.211               
G21  26615212.493 7 139863878.890 7     -2150.590 7        47.578               
G24  27625505.752 6 145173012.080 6      3959.336 6        37.590               
G30  27643588.900 6 145268027.047 6     -2106.157 6        41.877               
> 2025 08 06 04 26 41.0000000  0  6                                             
G05  24694293.793 7 129769408.282 7      -769.613 7        46.521               
G11  28065877.316 7 147487184.131 7     -3607.295 7        45.705               
G13  23887645.498 7 125530399.481 7     -1171.246 7        45.477               
G21  26615622.480 7 139866029.514 7     -2150.388 7        47.732               
G24  27624751.929 6 145169053.766 6      3958.924 6        37.211               
G30  27643991.900 7 145270133.295 7     -2106.223 7        42.061               
