     3.02           OBSERVATION DATA    G                   RINEX VERSION / TYPE
G = GPS  R = GLONASS  E = GALILEO  S = GEO  M = MIXED       COMMENT             
GNSS-SDR            suhjw               20250806 063900 UTC PGM / RUN BY / DATE 
GPS OBSERVATION DATA FILE GENERATED BY GNSS-SDR             COMMENT             
GNSS-SDR VERSION 0.0.20                                     COMMENT             
See https://gnss-sdr.org                                    COMMENT             
DEFAULT MARKER NAME                                         MARKER NAME         
suhjw               CTTC                                    OBSERVER / AGENCY   
GNSS-SDR            Software Receiver   0.0.20              REC # / TYPE / VERS 
Antenna number      Antenna type                            ANT # / TYPE        
        0.0000        0.0000        0.0000                  APPROX POSITION XYZ 
        0.0000        0.0000        0.0000                  ANTENNA: DELTA H/E/N
G    4 C1C L1C D1C S1C                                      SYS / # / OBS TYPES 
DBHZ                                                        SIGNAL STRENGTH UNIT
  2025    08    06    06    39   18.1000000     GPS         TIME OF FIRST OBS   
    18    18   137     7                                    LEAP SECONDS        
                                                            END OF HEADER       
> 2025 08 06 06 39 19.0000000  0  8                                             
G05  25378027.173 7 133362425.406 7     -3224.562 7        47.228               
G12  26279380.628 7 138099067.765 7      3234.754 7        43.074               
G13  25062608.022 7 131704891.978 7     -2877.387 7        42.222               
G14  26743030.365 7 140535575.253 7     -1475.265 7        45.401               
G15  22328196.548 7 117335471.215 7     -1664.444 7        46.010               
G18  23112292.492 7 121455927.865 7     -1751.104 7        43.564               
G23  22121714.644 6 116250392.635 6      1804.065 6        41.024               
G24  21386336.179 7 112385956.374 7       255.604 7        45.183               
> 2025 08 06 06 39 20.0000000  0  8                                             
G05  25378640.188 7 133365649.913 7     -3224.725 7        47.198               
G12  26278764.254 7 138095832.912 7      3234.889 7        43.323               
G13  25063154.743 7 131707769.263 7     -2877.335 7        42.211               
G14  26743311.266 7 140537050.608 7     -1475.711 7        45.682               
G15  22328513.062 7 117337135.711 7     -1664.759 7        46.163               
G18  23112624.570 7 121457679.192 7     -1751.726 7        43.549               
G23  22121371.935 6 116248588.574 6      1803.819 6        40.982               
G24  21386285.771 7 112385700.950 7       255.053 7        45.400               
> 2025 08 06 06 39 21.0000000  0  8                                             
G05  25379254.435 7 133368874.623 7     -3224.845 7        47.354               
G12  26278149.203 7 138092597.988 7      3234.939 7        43.160               
G13  25063702.768 7 131710646.547 7     -2877.253 7        42.368               
G14  26743591.578 7 140538526.446 7     -1476.076 7        45.838               
G15  22328829.611 7 117338800.462 7     -1664.959 7        46.081               
G18  23112957.362 7 121459431.109 7     -1752.128 7        43.454               
G23  22121028.331 6 116246784.883 6      1803.477 6        40.936               
G24  21386235.916 7 112385446.194 7       254.298 7        45.327               
> 2025 08 06 06 39 22.0000000  0  8                                             
G05  25379868.433 7 133372099.479 7     -3225.028 7        47.670               
G12  26277532.328 7 138089362.943 7      3235.111 7        42.894               
G13  25064254.402 7 131713523.768 7     -2877.057 7        42.448               
G14  26743871.585 7 140540002.702 7     -1476.498 7        46.149               
G15  22329146.108 7 117340465.402 7     -1665.045 7        46.139               
G18  23113291.049 7 121461183.533 7     -1752.677 7        43.329               
G23  22120683.477 6 116244981.529 6      1803.317 6        40.983               
G24  21386190.457 7 112385192.042 7       253.801 7        45.230               
> 2025 08 06 06 39 23.0000000  0  8                                             
G05  25380481.447 7 133375324.599 7     -3225.184 7        47.963               
G12  26276918.313 7 138086127.876 7      3235.124 7        42.946               
G13  25064801.784 7 131716401.025 7     -2877.315 7        42.412               
G14  26744151.218 7 140541479.489 7     -1476.912 7        46.369               
G15  22329464.033 7 117342130.635 7     -1665.271 7        46.133               
G18  23113626.950 7 121462936.581 7     -1753.300 7        43.418               
G23  22120341.178 6 116243178.583 6      1802.874 6        41.089               
G24  21386142.765 7 112384938.599 7       253.179 7        45.341               
> 2025 08 06 06 39 24.0000000  0  8                                             
G05  25381095.141 8 133378549.924 8     -3225.407 8        48.099               
G12  26276300.331 7 138082892.718 7      3235.338 7        42.870               
G13  25065348.612 7 131719278.283 7     -2877.135 7        42.592               
G14  26744430.778 7 140542956.738 7     -1477.477 7        46.450               
G15  22329782.549 7 117343796.093 7     -1665.464 7        46.060               
G18  23113960.118 7 121464690.190 7     -1753.808 7        43.487               
G23  22119996.806 6 116241375.999 6      1802.365 6        40.872               
G24  21386092.732 7 112384685.811 7       252.512 7        45.414               
> 2025 08 06 06 39 25.0000000  0  8                                             
G05  25381708.888 8 133381775.461 8     -3225.613 8        48.401               
G12  26275683.939 7 138079657.481 7      3235.245 7        42.737               
G13  25065894.278 7 131722155.519 7     -2877.187 7        42.819               
G14  26744711.376 7 140544434.475 7     -1477.980 7        46.412               
G15  22330098.008 7 117345461.814 7     -1665.729 7        46.146               
G18  23114293.644 7 121466444.369 7     -1754.631 7        43.428               
G23  22119653.953 6 116239573.802 6      1802.104 6        40.770               
G24  21386045.343 7 112384433.681 7       251.751 7        45.528               
> 2025 08 06 06 39 26.0000000  0  8                                             
G05  25382323.190 8 133385001.173 8     -3225.842 8        48.633               
G12  26275068.226 7 138076422.140 7      3235.368 7        42.687               
G13  25066441.946 7 131725032.721 7     -2877.230 7        42.975               
G14  26744994.332 7 140545912.660 7     -1478.534 7        46.316               
G15  22330413.897 7 117347127.722 7     -1666.283 7        46.238               
G18  23114629.706 7 121468199.076 7     -1755.022 7        43.289               
G23  22119308.706 6 116237771.935 6      1801.591 6        40.954               
G24  21385998.347 7 112384182.173 7       251.126 7        45.365               
> 2025 08 06 06 39 27.0000000  0  8                                             
G05  25382937.384 8 133388227.153 8     -3226.133 8        48.617               
G12  26274452.066 7 138073186.778 7      3235.371 7        42.558               
G13  25066988.756 7 131727909.954 7     -2877.232 7        43.054               
G14  26745277.627 7 140547391.371 7     -1478.932 7        46.095               
G15  22330730.750 7 117348793.934 7     -1666.361 7        46.144               
G18  23114960.909 7 121469954.412 7     -1755.517 7        43.075               
G23  22118966.532 6 116235970.488 6      1801.335 6        41.109               
G24  21385949.315 7 112383931.368 7       250.434 7        45.162               
> 2025 08 06 06 39 28.0000000  0  8                                             
G05  25383551.095 8 133391453.382 8     -3226.487 8        48.601               
G12  26273836.425 7 138069951.376 7      3235.215 7        42.401               
G13  25067537.335 7 131730787.237 7     -2877.384 7        43.072               
G14  26745563.532 7 140548870.615 7     -1479.617 7        45.821               
G15  22331043.762 7 117350460.431 7     -1666.738 7        45.847               
G18  23115293.487 7 121471710.355 7     -1756.300 7        42.981               
G23  22118624.197 6 116234169.464 6      1800.762 6        41.068               
G24  21385900.264 7 112383681.261 7       249.566 7        45.258               
> 2025 08 06 06 39 29.0000000  0  8                                             
G05  25384164.789 8 133394679.831 8     -3226.583 8        48.546               
G12  26273222.320 7 138066715.927 7      3235.362 7        42.105               
G13  25068084.198 7 131733664.515 7     -2877.207 7        42.975               
G14  26745846.077 7 140550350.339 7     -1479.939 7        45.860               
G15  22331359.794 7 117352127.176 7     -1666.912 7        45.654               
G18  23115626.726 7 121473466.865 7     -1756.840 7        42.841               
G23  22118282.434 6 116232368.812 6      1800.336 6        40.922               
G24  21385851.500 7 112383431.840 7       249.019 7        45.128               
> 2025 08 06 06 39 30.0000000  0  8                                             
G05  25384778.679 8 133397906.457 8     -3226.651 8        48.712               
G12  26272606.017 7 138063480.355 7      3235.476 7        42.168               
G13  25068629.793 7 131736541.738 7     -2877.319 7        42.993               
G14  26746126.066 7 140551830.514 7     -1480.446 7        45.753               
G15  22331679.631 7 117353794.124 7     -1667.083 7        45.515               
G18  23115959.930 7 121475223.917 7     -1757.505 7        42.705               
G23  22117937.580 6 116230568.500 6      1800.141 6        40.899               
G24  21385806.041 7 112383183.018 7       248.326 7        45.039               
> 2025 08 06 06 39 31.0000000  0  8                                             
G05  25385392.319 8 133401133.334 8     -3226.944 8        48.786               
G12  26271990.251 7 138060244.752 7      3235.719 7        42.091               
G13  25069176.925 7 131739418.992 7     -2877.068 7        43.128               
G14  26746406.610 7 140553311.194 7     -1480.890 7        45.652               
G15  22331997.217 7 117355461.357 7     -1667.238 7        45.577               
G18  23116294.688 7 121476981.575 7     -1757.942 7        42.583               
G23  22117594.530 6 116228768.598 6      1799.715 6        40.786               
G24  21385761.225 7 112382934.907 7       247.789 7        45.000               
> 2025 08 06 06 39 32.0000000  0  8                                             
G05  25386005.799 8 133404360.410 8     -3227.174 8        48.787               
G12  26271375.860 7 138057009.051 7      3235.727 7        42.217               
G13  25069725.736 7 131742296.226 7     -2877.229 7        43.199               
G14  26746685.134 7 140554792.353 7     -1481.453 7        45.725               
G15  22332316.090 7 117357128.809 7     -1667.737 7        45.582               
G18  23116629.232 7 121478739.774 7     -1758.592 7        42.280               
G23  22117254.393 6 116226969.052 6      1799.314 6        40.673               
G24  21385715.552 7 112382687.432 7       247.059 7        45.129               
> 2025 08 06 06 39 33.0000000  0  8                                             
G05  25386620.261 8 133407587.738 8     -3227.339 8        48.682               
G12  26270757.252 7 138053773.332 7      3235.809 7        42.305               
G13  25070272.957 7 131745173.477 7     -2877.251 7        43.187               
G14  26746964.463 7 140556273.994 7     -1481.891 7        45.836               
G15  22332637.357 7 117358796.535 7     -1667.745 7        45.713               
G18  23116963.061 7 121480498.588 7     -1758.825 7        42.023               
G23  22116912.827 6 116225169.916 6      1799.109 6        40.709               
G24  21385671.005 7 112382440.639 7       246.358 7        45.044               
> 2025 08 06 06 39 34.0000000  0  8                                             
G05  25387233.133 8 133410815.264 8     -3227.700 8        48.442               
G12  26270144.863 7 138050537.507 7      3235.727 7        42.354               
G13  25070821.393 7 131748050.726 7     -2877.260 7        43.154               
G14  26747246.936 7 140557756.129 7     -1482.439 7        45.889               
G15  22332956.212 7 117360464.501 7     -1668.082 7        45.740               
G18  23117300.286 7 121482257.957 7     -1759.734 7        42.223               
G23  22116567.258 6 116223371.143 6      1798.695 6        40.679               
G24  21385624.670 7 112382194.521 7       245.796 7        45.154               
> 2025 08 06 06 39 35.0000000  0  8                                             
G05  25387847.541 8 133414042.946 8     -3227.809 8        48.171               
G12  26269527.756 7 138047301.549 7      3235.864 7        42.341               
G13  25071367.328 7 131750927.912 7     -2877.085 7        43.060               
G14  26747529.892 7 140559238.684 7     -1482.778 7        45.827               
G15  22333274.620 7 117362132.660 7     -1668.173 7        45.762               
G18  23117634.990 7 121484017.836 7     -1759.962 7        42.270               
G23  22116227.139 6 116221572.683 6      1798.382 6        40.515               
G24  21385579.569 7 112381949.008 7       245.281 7        45.256               
> 2025 08 06 06 39 36.0000000  0  9                                             
G05  25388461.860 7 133417270.888 7     -3228.093 7        47.895               
G12  26268912.383 7 138044065.573 7      3235.886 7        42.238               
G13  25071915.549 7 131753805.115 7     -2877.334 7        43.220               
G14  26747812.062 7 140560721.762 7     -1483.356 7        45.675               
G15  22333591.920 7 117363801.093 7     -1668.596 7        45.935               
G18  23117971.339 7 121485778.326 7     -1760.865 7        42.372               
G22  26334091.610 6 138386590.060 6      -898.545 6        40.067               
G23  22115886.806 6 116219774.636 6      1797.942 6        40.389               
G24  21385533.110 7 112381704.183 7       244.330 7        45.222               
> 2025 08 06 06 39 37.0000000  0  9                                             
G05  25389074.428 7 133420499.059 7     -3228.253 7        47.733               
G12  26268296.170 7 138040829.529 7      3236.051 7        42.228               
G13  25072466.398 7 131756682.327 7     -2877.292 7        43.403               
G14  26748093.267 7 140562205.336 7     -1483.810 7        45.492               
G15  22333907.863 7 117365469.783 7     -1668.750 7        45.971               
G18  23118305.954 7 121487539.407 7     -1761.462 7        42.367               
G22  26334263.689 6 138387489.003 6      -899.115 6        39.962               
G23  22115545.757 6 116217976.985 6      1797.547 6        40.471               
G24  21385484.702 7 112381460.041 7       243.811 7        45.253               
> 2025 08 06 06 39 38.0000000  0  9                                             
G05  25389689.355 7 133423727.467 7     -3228.506 7        47.558               
G12  26267680.707 7 138037593.442 7      3235.952 7        42.014               
G13  25073012.868 7 131759559.576 7     -2877.096 7        43.329               
G14  26748375.633 7 140563689.428 7     -1484.294 7        45.253               
G15  22334224.359 7 117367138.746 7     -1669.109 7        46.024               
G18  23118642.303 7 121489301.082 7     -1761.836 7        42.339               
G22  26334435.624 6 138388388.494 6      -899.928 6        39.998               
G23  22115204.120 6 116216179.741 6      1797.009 6        40.535               
G24  21385435.991 7 112381216.590 7       243.146 7        45.159               
> 2025 08 06 06 39 39.0000000  0  9                                             
G05  25390303.871 7 133426956.100 7     -3228.825 7        47.400               
G12  26267064.208 6 138034357.300 6      3236.201 6        41.543               
G13  25073560.875 7 131762436.819 7     -2877.287 7        43.346               
G14  26748662.038 7 140565174.009 7     -1484.846 7        45.273               
G15  22334540.926 7 117368807.980 7     -1669.447 7        46.003               
G18  23118978.080 7 121491063.341 7     -1762.526 7        42.308               
G22  26334609.490 6 138389288.560 6      -900.170 6        40.050               
G23  22114863.304 6 116214382.884 6      1796.648 6        40.765               
G24  21385390.408 7 112380973.820 7       242.361 7        45.028               
> 2025 08 06 06 39 40.0000000  0  9                                             
G05  25390918.672 7 133430184.937 7     -3228.964 7        47.401               
G12  26266448.549 6 138031121.095 6      3236.201 6        41.430               
G13  25074108.061 7 131765314.061 7     -2877.361 7        43.268               
G14  26748947.674 7 140566659.081 7     -1485.390 7        45.238               
G15  22334859.013 7 117370477.447 7     -1669.719 7        45.990               
G18  23119314.732 7 121492826.162 7     -1763.452 7        42.300               
G22  26334780.622 6 138390189.132 6      -900.776 6        40.014               
G23  22114520.129 6 116212586.398 6      1795.893 6        40.919               
G24  21385345.378 7 112380731.688 7       241.745 7        44.966               
> 2025 08 06 06 39 41.0000000  0  9                                             
G05  25391533.474 7 133433414.008 7     -3229.206 7        47.221               
G12  26265832.300 6 138027884.841 6      3236.316 6        41.440               
G13  25074656.264 7 131768191.322 7     -2877.409 7        43.216               
G14  26749234.115 7 140568144.651 7     -1485.895 7        45.160               
G15  22335175.670 7 117372147.176 7     -1670.049 7        46.014               
G18  23119649.919 7 121494589.577 7     -1763.757 7        42.184               
G22  26334953.361 6 138391090.244 6      -901.418 6        39.960               
G23  22114175.954 6 116210790.322 6      1795.767 6        40.840               
G24  21385297.828 7 112380490.253 7       241.043 7        44.959               
> 2025 08 06 06 39 42.0000000  0  9                                             
G05  25392148.526 7 133436643.301 7     -3229.479 7        47.027               
G12  26265218.088 6 138024648.513 6      3236.224 6        41.492               
G13  25075202.467 7 131771068.588 7     -2877.552 7        43.294               
G14  26749518.518 7 140569630.720 7     -1486.493 7        45.031               
G15  22335493.077 7 117373817.178 7     -1670.297 7        45.815               
G18  23119982.819 7 121496353.576 7     -1764.538 7        42.157               
G22  26335127.352 6 138391991.900 6      -902.000 6        39.951               
G23  22113834.370 6 116208994.632 6      1795.364 6        40.910               
G24  21385251.208 7 112380249.487 7       240.336 7        45.037               
> 2025 08 06 06 39 43.0000000  0  9                                             
G05  25392764.006 7 133439872.790 7     -3229.670 7        46.918               
G12  26264600.409 6 138021412.104 6      3236.398 6        41.559               
G13  25075749.187 7 131773945.828 7     -2877.354 7        43.338               
G14  26749801.957 7 140571117.243 7     -1486.863 7        44.969               
G15  22335811.557 7 117375487.410 7     -1670.341 7        45.820               
G18  23120318.524 7 121498118.127 7     -1764.890 7        42.198               
G22  26335296.625 6 138392894.065 6      -902.599 6        40.041               
G23  22113491.749 6 116207199.297 6      1795.002 6        40.845               
G24  21385204.784 7 112380009.372 7       239.659 7        45.078               
> 2025 08 06 06 39 44.0000000  0  9                                             
G05  25393378.736 7 133443102.503 7     -3229.877 7        46.903               
G12  26263984.106 6 138018175.637 6      3236.391 6        41.696               
G13  25076295.479 7 131776823.097 7     -2877.391 7        43.335               
G14  26750084.752 7 140572604.274 7     -1487.284 7        44.845               
G15  22336129.161 7 117377157.889 7     -1670.667 7        46.032               
G18  23120652.514 7 121499883.284 7     -1765.501 7        42.020               
G22  26335466.274 6 138393796.766 6      -902.994 6        40.112               
G23  22113147.127 6 116205404.357 6      1794.678 6        40.819               
G24  21385157.252 7 112379769.922 7       239.051 7        45.168               
> 2025 08 06 06 39 45.0000000  0  9                                             
G05  25393994.128 7 133446332.452 7     -3230.187 7        46.867               
G12  26263368.072 6 138014939.146 6      3236.338 6        41.420               
G13  25076844.541 7 131779700.374 7     -2877.354 7        43.413               
G14  26750366.921 7 140574091.823 7     -1487.894 7        44.691               
G15  22336447.230 7 117378828.649 7     -1670.839 7        46.100               
G18  23120987.773 6 121501649.033 6     -1766.114 6        41.905               
G22  26335637.459 6 138394700.037 6      -903.482 6        40.250               
G23  22112804.185 6 116203609.826 6      1794.326 6        40.633               
G24  21385109.971 7 112379531.175 7       238.514 7        44.898               
> 2025 08 06 06 39 46.0000000  0  9                                             
G05  25394609.680 7 133449562.608 7     -3230.265 7        47.029               
G12  26262752.162 6 138011702.567 6      3236.715 6        41.430               
G13  25077389.850 7 131782577.643 7     -2877.207 7        43.336               
G14  26750647.948 7 140575579.847 7     -1488.364 7        44.638               
G15  22336764.012 7 117380499.646 7     -1671.235 7        46.010               
G18  23121325.873 7 121503415.333 7     -1766.358 7        42.041               
G22  26335809.252 6 138395603.805 6      -904.027 6        40.277               
G23  22112463.458 6 116201815.667 6      1794.101 6        40.497               
G24  21385065.441 7 112379293.076 7       237.768 7        44.905               
> 2025 08 06 06 39 47.0000000  0  9                                             
G05  25395223.445 7 133452792.972 7     -3230.573 7        47.085               
G12  26262135.217 6 138008465.914 6      3236.555 6        41.412               
G13  25077936.874 7 131785454.896 7     -2877.430 7        43.449               
G14  26750928.867 7 140577068.344 7     -1488.831 7        44.645               
G15  22337081.491 7 117382170.878 7     -1671.478 7        46.083               
G18  23121663.972 6 121505182.201 6     -1767.190 6        41.848               
G22  26335981.795 6 138396508.103 6      -904.768 6        40.377               
G23  22112120.659 6 116200021.875 6      1793.760 6        40.639               
G24  21385022.109 7 112379055.623 7       236.840 7        44.832               
> 2025 08 06 06 39 48.0000000  0  9                                             
G05  25395838.443 7 133456023.660 7     -3230.740 7        47.115               
G12  26261520.647 6 138005229.321 6      3236.814 6        41.564               
G13  25078483.541 7 131788332.284 7     -2877.295 7        43.416               
G14  26751207.159 7 140578557.429 7     -1489.311 7        44.560               
G15  22337398.594 7 117383842.489 7     -1671.650 7        46.196               
G18  23122001.751 6 121506949.751 6     -1767.755 6        41.685               
G22  26336151.479 6 138397413.037 6      -905.137 6        40.508               
G23  22111781.451 6 116198228.585 6      1793.381 6        40.592               
G24  21384978.151 7 112378818.979 7       236.445 7        44.850               
> 2025 08 06 06 39 49.0000000  0  9                                             
G05  25396453.406 7 133459254.482 7     -3230.866 7        47.277               
G12  26260901.914 6 138001992.563 6      3236.826 6        41.688               
G13  25079031.798 7 131791209.556 7     -2877.145 7        43.415               
G14  26751486.845 7 140580046.924 7     -1489.643 7        44.545               
G15  22337717.360 7 117385514.248 7     -1671.848 7        46.103               
G18  23122337.849 6 121508717.794 6     -1768.169 6        41.776               
G22  26336324.309 6 138398318.419 6      -905.464 6        40.654               
G23  22111439.420 6 116196435.583 6      1792.678 6        40.399               
G24  21384935.409 7 112378582.898 7       235.755 7        45.001               
> 2025 08 06 06 39 50.0000000  0  9                                             
G05  25397068.386 7 133462485.509 7     -3231.150 7        47.399               
G12  26260288.399 6 137998755.720 6      3236.793 6        41.790               
G13  25079580.127 7 131794086.824 7     -2877.340 7        43.360               
G14  26751768.818 7 140581536.868 7     -1490.170 7        44.397               
G15  22338036.125 7 117387186.246 7     -1672.270 7        46.162               
G18  23122674.287 6 121510486.386 6     -1769.013 6        41.834               
G22  26336499.264 6 138399224.309 6      -906.364 6        40.743               
G23  22111098.175 6 116194642.946 6      1792.411 6        40.456               
G24  21384888.699 7 112378347.466 7       235.013 7        45.061               
> 2025 08 06 06 39 51.0000000  0  9                                             
G05  25397682.223 7 133465716.733 7     -3231.272 7        47.572               
G12  26259673.062 6 137995518.806 6      3237.140 6        41.736               
G13  25080127.509 7 131796964.076 7     -2877.264 7        43.410               
G14  26752053.650 7 140583027.294 7     -1490.754 7        44.330               
G15  22338357.464 7 117388858.473 7     -1672.307 7        46.014               
G18  23123008.205 6 121512255.549 6     -1769.237 6        41.744               
G22  26336673.416 6 138400130.724 6      -906.613 6        40.821               
G23  22110759.147 6 116192850.671 6      1791.997 6        40.422               
G24  21384843.598 7 112378112.684 7       234.453 7        45.067               
> 2025 08 06 06 39 52.0000000  0  9                                             
G05  25398297.346 7 133468948.121 7     -3231.548 7        47.534               
G12  26259057.760 6 137992281.765 6      3236.861 6        41.677               
G13  25080676.499 7 131799841.275 7     -2877.307 7        43.513               
G14  26752339.054 7 140584518.159 7     -1491.207 7        44.169               
G15  22338677.480 7 117390530.898 7     -1672.674 7        45.998               
G18  23123344.518 6 121514025.234 6     -1770.092 6        41.813               
G22  26336849.068 6 138401037.620 6      -907.375 6        40.779               
G23  22110418.795 6 116191058.739 6      1791.490 6        40.512               
G24  21384797.317 7 112377878.514 7       233.818 7        44.953               
> 2025 08 06 06 39 53.0000000  0  9                                             
G05  25398913.362 7 133472179.775 7     -3231.797 7        47.636               
G12  26258441.832 6 137989044.718 6      3236.893 6        41.694               
G13  25081223.881 7 131802718.517 7     -2877.234 7        43.384               
G14  26752627.603 7 140586009.565 7     -1491.840 7        44.064               
G15  22338996.353 7 117392203.621 7     -1672.837 7        45.833               
G18  23123679.902 6 121515795.535 6     -1770.659 6        41.814               
G22  26337020.504 6 138401945.093 6      -907.753 6        40.950               
G23  22110079.552 6 116189267.240 6      1791.445 6        40.481               
G24  21384753.145 7 112377645.062 7       233.055 7        44.958               
> 2025 08 06 06 39 54.0000000  0  9                                             
G05  25399527.771 7 133475411.673 7     -3231.907 7        47.768               
G12  26257827.156 6 137985807.650 6      3237.066 6        41.665               
G13  25081773.496 7 131805595.795 7     -2876.971 7        43.452               
G14  26752913.561 7 140587501.485 7     -1492.088 7        43.983               
G15  22339313.528 7 117393876.618 7     -1673.029 7        45.759               
G18  23124017.341 6 121517566.440 6     -1771.210 6        41.745               
G22  26337191.188 6 138402853.119 6      -908.131 6        41.116               
G23  22109737.628 6 116187476.132 6      1790.915 6        40.459               
G24  21384710.545 7 112377412.309 7       232.521 7        44.923               
> 2025 08 06 06 39 55.0000000  0  9                                             
G05  25400141.822 7 133478643.769 7     -3232.308 7        47.857               
G12  26257211.103 6 137982570.479 6      3237.326 6        41.828               
G13  25082322.701 7 131808473.041 7     -2877.188 7        43.409               
G14  26753198.804 7 140588993.880 7     -1492.676 7        44.000               
G15  22339630.846 7 117395549.856 7     -1673.417 7        45.686               
G18  23124358.996 6 121519337.909 6     -1771.937 6        41.729               
G22  26337362.874 6 138403761.647 6      -908.810 6        41.139               
G23  22109396.616 6 116185685.417 6      1790.582 6        40.427               
G24  21384668.106 7 112377180.201 7       231.757 7        45.018               
> 2025 08 06 06 39 56.0000000  0  9                                             
G05  25400755.945 8 133481876.056 8     -3232.533 8        48.074               
G12  26256595.087 7 137979333.244 7      3237.147 7        42.031               
G13  25082870.190 7 131811350.280 7     -2877.340 7        43.531               
G14  26753483.922 7 140590486.728 7     -1493.298 7        43.934               
G15  22339947.360 7 117397223.321 7     -1673.656 7        45.553               
G18  23124695.899 6 121521109.925 6     -1772.406 6        41.693               
G22  26337535.900 6 138404670.696 6      -909.434 6        41.190               
G23  22109054.066 6 116183895.036 6      1790.018 6        40.465               
G24  21384626.024 7 112376948.753 7       231.084 7        44.983               
> 2025 08 06 06 39 57.0000000  0  9                                             
G05  25401370.925 8 133485108.610 8     -3232.696 8        48.053               
G12  26255978.748 7 137976095.986 7      3237.380 7        42.035               
G13  25083417.446 7 131814227.562 7     -2877.294 7        43.500               
G14  26753770.381 7 140591980.121 7     -1493.800 7        43.780               
G15  22340266.197 7 117398897.082 7     -1673.957 7        45.470               
G18  23125031.551 6 121522882.567 6     -1772.989 6        41.788               
G22  26337708.264 6 138405580.324 6      -909.995 6        41.121               
G23  22108714.233 6 116182105.117 6      1789.831 6        40.504               
G24  21384582.084 7 112376718.018 7       230.267 7        44.995               
> 2025 08 06 06 39 58.0000000  0  9                                             
G05  25401985.959 8 133488341.323 8     -3232.951 8        48.114               
G12  26255361.177 7 137972858.603 7      3237.324 7        42.273               
G13  25083965.739 7 131817104.783 7     -2877.511 7        43.621               
G14  26754052.390 7 140593473.938 7     -1494.178 7        43.744               
G15  22340586.875 7 117400571.038 7     -1674.137 7        45.466               
G18  23125370.812 6 121524655.721 6     -1773.714 6        41.877               
G22  26337885.364 6 138406490.416 6      -910.508 6        41.121               
G23  22108370.362 6 116180315.501 6      1789.105 6        40.626               
G24  21384535.929 7 112376487.887 7       229.651 7        45.078               
> 2025 08 06 06 39 59.0000000  0  9                                             
G05  25402601.993 8 133491574.289 8     -3233.071 8        48.138               
G12  26254745.982 7 137969621.200 7      3237.438 7        42.245               
G13  25084512.728 7 131819982.059 7     -2877.199 7        43.647               
G14  26754332.040 7 140594968.280 7     -1494.607 7        43.710               
G15  22340906.534 7 117402245.293 7     -1674.326 7        45.446               
G18  23125707.804 6 121526429.500 6     -1773.990 6        41.840               
G22  26338060.266 6 138407401.095 6      -910.921 6        41.163               
G23  22108029.010 6 116178526.321 6      1789.017 6        40.559               
G24  21384492.328 7 112376258.456 7       229.092 7        45.075               
> 2025 08 06 06 40 00.0000000  0  9                                             
G05  25403216.402 8 133494807.472 8     -3233.453 8        48.062               
G12  26254133.289 7 137966383.732 7      3237.472 7        42.251               
G13  25085058.519 7 131822859.324 7     -2877.498 7        43.606               
G14  26754614.603 7 140596463.114 7     -1495.171 7        43.686               
G15  22341226.711 7 117403919.780 7     -1674.713 7        45.409               
G18  23126048.959 6 121528203.849 6     -1774.901 6        41.863               
G22  26338231.827 6 138408312.296 6      -911.583 6        41.407               
G23  22107688.820 6 116176737.524 6      1788.525 6        40.548               
G24  21384449.907 7 112376029.693 7       228.318 7        45.138               
> 2025 08 06 06 40 01.0000000  0  9                                             
G05  25403831.436 8 133498040.876 8     -3233.403 8        48.035               
G12  26253515.718 7 137963146.202 7      3237.679 7        42.430               
G13  25085605.615 7 131825736.586 7     -2877.161 7        43.685               
G14  26754896.183 7 140597958.418 7     -1495.434 7        43.727               
G15  22341543.260 7 117405594.534 7     -1674.797 7        45.263               
G18  23126386.612 6 121529978.766 6     -1775.295 6        41.886               
G22  26338405.460 6 138409224.032 6      -911.857 6        41.473               
G23  22107352.060 6 116174949.118 6      1788.213 6        40.574               
G24  21384409.505 7 112375801.609 7       227.910 7        45.301               
> 2025 08 06 06 40 02.0000000  0  9                                             
G05  25404447.184 8 133501274.513 8     -3233.818 8        48.054               
G12  26252898.433 7 137959908.632 7      3237.515 7        42.503               
G13  25086152.443 7 131828613.875 7     -2877.277 7        43.773               
G14  26755180.979 7 140599454.237 7     -1496.067 7        43.697               
G15  22341858.970 7 117407269.550 7     -1675.035 7        45.235               
G18  23126722.836 6 121531754.288 6     -1775.972 6        41.867               
G22  26338579.433 6 138410136.311 6      -912.412 6        41.407               
G23  22107012.423 6 116173161.103 6      1787.741 6        40.465               
G24  21384366.906 7 112375574.200 7       227.098 7        45.261               
> 2025 08 06 06 40 03.0000000  0  9                                             
G05  25405062.165 8 133504508.417 8     -3234.139 8        48.076               
G12  26252282.309 7 137956671.052 7      3237.490 7        42.637               
G13  25086698.181 7 131831491.218 7     -2877.625 7        43.864               
G14  26755466.419 7 140600950.593 7     -1496.783 7        43.736               
G15  22342175.663 7 117408944.870 7     -1675.595 7        45.315               
G18  23127059.077 6 121533530.432 6     -1776.663 6        41.794               
G22  26338748.831 6 138411049.181 6      -913.222 6        41.489               
G23  22106673.662 6 116171373.535 6      1787.252 6        40.618               
G24  21384324.467 7 112375347.516 7       226.229 7        45.189               
> 2025 08 06 06 40 04.0000000  0  9                                             
G05  25405678.539 7 133507742.533 7     -3234.429 7        47.992               
G12  26251666.935 7 137953433.412 7      3237.637 7        42.675               
G13  25087246.849 7 131834368.556 7     -2877.537 7        43.790               
G14  26755754.486 7 140602447.442 7     -1497.233 7        43.715               
G15  22342492.677 7 117410620.449 7     -1675.849 7        45.349               
G18  23127398.249 6 121535307.143 6     -1777.340 6        41.953               
G22  26338921.035 6 138411962.579 6      -913.810 6        41.490               
G23  22106333.865 6 116169586.350 6      1786.965 6        40.733               
G24  21384280.294 7 112375121.495 7       225.583 7        45.151               
> 2025 08 06 06 40 05.0000000  0  9                                             
G05  25406295.092 7 133510976.840 7     -3234.432 7        47.866               
G12  26251050.919 7 137950195.674 7      3237.581 7        42.735               
G13  25087797.412 7 131837245.850 7     -2877.433 7        43.815               
G14  26756041.605 7 140603944.752 7     -1497.632 7        43.792               
G15  22342809.209 7 117412296.241 7     -1676.004 7        45.310               
G18  23127736.510 6 121537084.409 6     -1777.576 6        41.964               
G22  26339096.920 6 138412876.485 6      -914.315 6        41.617               
G23  22105996.730 6 116167799.514 6      1786.609 6        40.792               
G24  21384235.872 7 112374896.117 7       225.041 7        45.231               
> 2025 08 06 06 40 06.0000000  0  9                                             
G05  25406910.233 7 133514211.364 7     -3234.647 7        47.799               
G12  26250434.330 7 137946957.884 7      3237.781 7        42.646               
G13  25088344.043 7 131840123.151 7     -2877.370 7        43.761               
G14  26756330.636 7 140605442.541 7     -1498.095 7        44.045               
G15  22343130.870 7 117413972.286 7     -1676.180 7        45.357               
G18  23128073.895 6 121538862.244 6     -1778.255 6        41.996               
G22  26339271.911 6 138413790.921 6      -914.816 6        41.636               
G23  22105654.002 6 116166013.069 6      1786.191 6        40.979               
G24  21384191.682 7 112374671.397 7       224.364 7        45.204               
> 2025 08 06 06 40 07.0000000  0  9                                             
G05  25407524.177 7 133517446.135 7     -3234.879 7        47.732               
G12  26249817.938 7 137943720.058 7      3238.003 7        42.758               
G13  25088890.549 7 131843000.478 7     -2877.188 7        43.825               
G14  26756618.435 7 140606940.845 7     -1498.504 7        44.065               
G15  22343453.102 7 117415648.618 7     -1676.220 7        45.219               
G18  23128410.583 6 121540640.680 6     -1778.834 6        41.726               
G22  26339447.439 6 138414705.912 6      -915.177 6        41.543               
G23  22105315.599 6 116164227.020 6      1785.947 6        40.955               
G24  21384145.312 7 112374447.382 7       223.790 7        45.198               
> 2025 08 06 06 40 08.0000000  0  9                                             
G05  25408140.265 7 133520681.047 7     -3235.078 7        47.751               
G12  26249202.511 7 137940482.089 7      3238.133 7        42.842               
G13  25089437.627 7 131845877.735 7     -2877.125 7        43.728               
G14  26756905.179 7 140608439.566 7     -1498.927 7        44.062               
G15  22343772.385 7 117417325.110 7     -1676.692 7        44.996               
G18  23128746.378 6 121542419.613 6     -1779.135 6        41.671               
G22  26339623.627 6 138415621.353 6      -915.809 6        41.629               
G23  22104973.121 6 116162441.305 6      1785.489 6        40.957               
G24  21384102.140 7 112374223.951 7       222.990 7        45.348               
> 2025 08 06 06 40 09.0000000  0  9                                             
G05  25408756.353 7 133523916.295 7     -3235.295 7        47.768               
G12  26248585.941 7 137937244.175 7      3237.935 7        42.909               
G13  25089985.599 7 131848755.097 7     -2877.344 7        43.705               
G14  26757189.993 7 140609938.872 7     -1499.572 7        43.970               
G15  22344092.384 7 117419001.974 7     -1676.791 7        44.917               
G18  23129086.264 6 121544199.244 6     -1779.818 6        41.787               
G22  26339798.565 6 138416537.454 6      -916.307 6        41.702               
G23  22104629.964 6 116160656.078 6      1785.209 6        41.119               
G24  21384060.416 7 112374001.288 7       222.405 7        45.333               
> 2025 08 06 06 40 10.0000000  0  9                                             
G05  25409371.977 7 133527151.755 7     -3235.460 7        47.664               
G12  26247969.066 7 137934006.198 7      3237.994 7        42.792               
G13  25090532.784 7 131851632.462 7     -2877.398 7        43.703               
G14  26757472.664 7 140611438.668 7     -1500.066 7        43.809               
G15  22344410.595 7 117420679.074 7     -1677.142 7        44.854               
G18  23129424.900 6 121545979.431 6     -1780.551 6        41.937               
G22  26339973.092 6 138417454.074 6      -916.767 6        41.523               
G23  22104288.273 6 116158871.220 6      1784.689 6        41.086               
G24  21384018.781 7 112373779.307 7       221.751 7        45.203               
> 2025 08 06 06 40 11.0000000  0  9                                             
G05  25409988.226 7 133530387.465 7     -3235.813 7        47.429               
G12  26247352.031 7 137930768.212 7      3238.035 7        42.869               
G13  25091078.736 7 131854509.856 7     -2877.451 7        43.914               
G14  26757756.888 7 140612938.994 7     -1500.554 7        43.799               
G15  22344731.184 7 117422356.468 7     -1677.542 7        44.600               
G18  23129763.929 6 121547760.238 6     -1781.164 6        41.783               
G22  26340148.601 6 138418371.268 6      -917.329 6        41.632               
G23  22103951.513 6 116157086.796 6      1784.230 6        40.919               
G24  21383977.772 7 112373558.032 7       220.952 7        45.350               
> 2025 08 06 06 40 12.0000000  0  9                                             
G05  25410605.439 7 133533623.450 7     -3236.218 7        47.530               
G12  26246736.961 7 137927530.210 7      3237.980 7        42.901               
G13  25091625.546 7 131857387.310 7     -2877.518 7        43.850               
G14  26758039.201 7 140614439.867 7     -1501.177 7        43.801               
G15  22345050.396 7 117424034.171 7     -1677.842 7        44.640               
G18  23130103.977 6 121549541.678 6     -1781.844 6        41.993               
G22  26340320.358 6 138419289.047 6      -918.266 6        41.775               
G23  22103612.056 6 116155302.824 6      1783.836 6        40.688               
G24  21383936.459 7 112373337.476 7       220.204 7        45.325               
> 2025 08 06 06 40 13.0000000  0  9                                             
G05  25411220.009 7 133536859.619 7     -3236.358 7        47.529               
G12  26246120.659 7 137924292.118 7      3238.133 7        43.132               
G13  25092170.373 7 131860264.731 7     -2877.476 7        43.817               
G14  26758320.674 7 140615941.182 7     -1501.653 7        43.695               
G15  22345371.145 7 117425712.088 7     -1678.096 7        44.670               
G18  23130445.614 7 121551323.658 7     -1782.284 7        42.170               
G22  26340494.831 6 138420207.317 6      -918.521 6        41.815               
G23  22103274.903 6 116153519.185 6      1783.396 6        40.558               
G24  21383895.807 7 112373117.552 7       219.609 7        45.374               
> 2025 08 06 06 40 14.0000000  0  9                                             
G05  25411833.953 7 133540096.082 7     -3236.642 7        47.447               
G12  26245505.035 7 137921054.045 7      3237.881 7        43.134               
G13  25092716.111 7 131863142.243 7     -2877.512 7        43.825               
G14  26758603.469 7 140617443.068 7     -1502.233 7        43.502               
G15  22345691.375 7 117427390.346 7     -1678.467 7        44.741               
G18  23130785.751 7 121553106.288 7     -1782.985 7        42.037               
G22  26340668.071 6 138421126.210 6      -919.062 6        41.811               
G23  22102935.802 6 116151736.033 6      1782.804 6        40.496               
G24  21383852.331 7 112372898.387 7       218.800 7        45.399               
> 2025 08 06 06 40 15.0000000  0  9                                             
G05  25412450.720 7 133543332.738 7     -3236.817 7        47.575               
G12  26244887.821 7 137917815.888 7      3238.186 7        43.108               
G13  25093266.512 7 131866019.722 7     -2877.399 7        43.658               
G14  26758890.160 7 140618945.427 7     -1502.539 7        43.493               
G15  22346012.267 7 117429068.820 7     -1678.690 7        44.841               
G18  23131126.692 6 121554889.473 6     -1783.068 6        41.794               
G22  26340839.578 6 138422045.591 6      -919.610 6        41.808               
G23  22102594.450 6 116149953.232 6      1782.617 6        40.333               
G24  21383810.804 7 112372679.848 7       218.159 7        45.319               
> 2025 08 06 06 40 16.0000000  0  9                                             
G05  25413068.523 7 133546569.613 7     -3237.117 7        47.676               
G12  26244272.483 7 137914577.684 7      3238.224 7        43.124               
G13  25093812.840 7 131868897.223 7     -2877.667 7        43.661               
G14  26759179.280 7 140620448.270 7     -1503.214 7        43.391               
G15  22346332.623 7 117430747.554 7     -1679.048 7        45.002               
G18  23131465.560 6 121556673.238 6     -1784.042 6        41.661               
G22  26341016.714 6 138422965.525 6      -920.345 6        41.760               
G23  22102255.618 6 116148170.833 6      1782.095 6        40.143               
G24  21383767.007 7 112372461.999 7       217.269 7        45.351               
> 2025 08 06 06 40 17.0000000  0  9                                             
G05  25413684.361 7 133549806.747 7     -3237.366 7        47.678               
G12  26243656.485 7 137911339.456 7      3238.142 7        43.023               
G13  25094360.543 7 131871774.750 7     -2877.507 7        43.609               
G14  26759468.901 7 140621951.639 7     -1503.614 7        43.424               
G15  22346647.547 7 117432426.580 7     -1679.291 7        44.973               
G18  23131802.999 6 121558457.606 6     -1784.845 6        41.582               
G22  26341194.511 6 138423886.029 6      -921.002 6        41.753               
G23  22101918.019 6 116146388.842 6      1781.662 6        40.122               
G24  21383730.214 7 112372244.858 7       216.783 7        45.467               
> 2025 08 06 06 40 18.0000000  0  9                                             
G05  25414300.593 7 133553044.041 7     -3237.390 7        47.657               
G12  26243040.164 7 137908101.101 7      3238.312 7        42.993               
G13  25094909.998 7 131874652.226 7     -2877.477 7        43.544               
G14  26759759.720 7 140623455.437 7     -1504.145 7        43.629               
G15  22346965.044 7 117434105.799 7     -1679.394 7        45.059               
G18  23132141.706 6 121560242.503 6     -1785.091 6        41.861               
G22  26341373.612 6 138424807.006 6      -921.267 6        41.784               
G23  22101577.596 6 116144607.191 6      1781.453 6        40.049               
G24  21383689.473 7 112372028.323 7       216.211 7        45.497               
> 2025 08 06 06 40 19.0000000  0  9                                             
G05  25414916.341 7 133556281.565 7     -3237.661 7        47.788               
G12  26242423.576 7 137904862.709 7      3238.353 7        42.811               
G13  25095458.648 7 131877529.695 7     -2877.431 7        43.588               
G14  26760047.625 7 140624959.735 7     -1504.486 7        43.677               
G15  22347281.039 7 117435785.282 7     -1679.540 7        44.955               
G18  23132482.129 6 121562027.972 6     -1785.861 6        41.855               
G22  26341547.638 6 138425728.521 6      -921.853 6        41.820               
G23  22101236.440 6 116142825.940 6      1781.091 6        40.001               
G24  21383647.052 7 112371812.463 7       215.505 7        45.566               
> 2025 08 06 06 40 20.0000000  0  9                                             
G05  25415531.447 7 133559519.277 7     -3238.002 7        47.636               
G12  26241805.254 7 137901624.236 7      3238.347 7        42.759               
G13  25096008.782 7 131880407.152 7     -2877.684 7        43.693               
G14  26760333.691 7 140626464.498 7     -1505.214 7        43.695               
G15  22347598.501 7 117437464.995 7     -1680.015 7        44.893               
G18  23132820.390 6 121563814.012 6     -1786.479 6        41.975               
G22  26341727.097 7 138426650.557 7      -922.372 7        42.023               
G23  22100897.983 6 116141045.059 6      1780.539 6        39.831               
G24  21383604.470 7 112371597.255 7       214.661 7        45.708               
> 2025 08 06 06 40 21.0000000  0  9                                             
G05  25416147.642 7 133562757.222 7     -3238.126 7        47.626               
G12  26241187.665 7 137898385.723 7      3238.363 7        42.683               
G13  25096557.057 7 131883284.619 7     -2877.533 7        43.751               
G14  26760620.238 7 140627969.763 7     -1505.622 7        43.506               
G15  22347918.142 7 117439144.985 7     -1680.158 7        44.710               
G18  23133158.078 6 121565600.629 6     -1786.672 6        41.946               
G22  26341903.339 7 138427573.145 7      -922.979 7        42.026               
G23  22100558.025 6 116139264.575 6      1780.259 6        39.767               
G24  21383563.586 7 112371382.725 7       214.211 7        45.742               
> 2025 08 06 06 40 22.0000000  0  9                                             
G05  25416764.338 7 133565995.374 7     -3238.307 7        47.644               
G12  26240571.523 7 137895147.154 7      3238.782 7        42.879               
G13  25097107.298 7 131886162.089 7     -2877.493 7        43.718               
G14  26760906.518 7 140629475.512 7     -1505.987 7        43.410               
G15  22348237.890 7 117440825.208 7     -1680.300 7        44.742               
G18  23133498.430 6 121567387.821 6     -1787.355 6        41.886               
G22  26342076.419 6 138428496.265 6      -923.300 6        41.900               
G23  22100222.159 6 116137484.468 6      1779.734 6        39.679               
G24  21383523.720 7 112371168.852 7       213.497 7        45.641               
> 2025 08 06 06 40 23.0000000  0  9                                             
G05  25417380.640 7 133569233.795 7     -3238.370 7        47.640               
G12  26239954.273 7 137891908.564 7      3238.554 7        42.895               
G13  25097656.484 7 131889039.613 7     -2877.400 7        43.794               
G14  26761190.528 7 140630981.793 7     -1506.393 7        43.371               
G15  22348559.425 7 117442505.741 7     -1680.625 7        44.597               
G18  23133836.226 6 121569175.640 6     -1788.105 6        41.791               
G22  26342249.051 7 138429419.954 7      -923.854 7        42.084               
G23  22099887.722 6 116135704.803 6      1779.409 6        39.804               
G24  21383483.979 7 112370955.716 7       212.914 7        45.716               
> 2025 08 06 06 40 24.0000000  0  9                                             
G05  25417997.836 7 133572472.446 7     -3238.584 7        47.804               
G12  26239339.132 7 137888669.951 7      3238.730 7        42.800               
G13  25098206.493 7 131891917.160 7     -2877.371 7        43.883               
G14  26761470.983 7 140632488.584 7     -1507.063 7        43.294               
G15  22348879.709 7 117444186.547 7     -1680.757 7        44.401               
G18  23134174.772 6 121570964.058 6     -1788.504 6        41.717               
G22  26342422.470 7 138430344.198 7      -924.487 7        42.163               
G23  22099552.124 6 116133925.542 6      1779.141 6        39.770               
G24  21383444.846 7 112370743.251 7       212.172 7        45.845               
> 2025 08 06 06 40 25.0000000  0  9                                             
G05  25418615.211 7 133575711.255 7     -3238.936 7        47.907               
G12  26238722.883 7 137885431.205 7      3238.596 7        42.657               
G13  25098753.446 7 131894794.641 7     -2877.519 7        44.116               
G14  26761748.828 7 140633995.800 7     -1507.462 7        42.986               
G15  22349203.085 7 117445867.538 7     -1681.141 7        44.429               
G18  23134514.159 6 121572752.988 6     -1789.248 6        41.501               
G22  26342595.263 7 138431268.916 7      -925.062 7        42.253               
G23  22099213.685 6 116132146.624 6      1778.728 6        39.950               
G24  21383405.266 7 112370531.403 7       211.401 7        46.014               
> 2025 08 06 06 40 26.0000000  0  9                                             
G05  25419231.049 8 133578950.341 8     -3239.215 8        48.044               
G12  26238104.776 7 137882192.473 7      3238.822 7        42.650               
G13  25099298.219 7 131897672.188 7     -2877.438 7        44.116               
G14  26762035.036 7 140635503.560 7     -1508.057 7        42.772               
G15  22349525.585 7 117447548.842 7     -1681.478 7        44.448               
G18  23134858.798 6 121574542.543 6     -1789.868 6        41.433               
G22  26342770.952 7 138432194.218 7      -925.477 7        42.246               
G23  22098875.299 6 116130368.142 6      1778.150 6        39.914               
G24  21383366.169 7 112370320.287 7       210.828 7        45.962               
> 2025 08 06 06 40 27.0000000  0  9                                             
G05  25419846.262 8 133582189.625 8     -3239.401 8        48.157               
G12  26237490.617 7 137878953.651 7      3238.840 7        42.540               
G13  25099843.939 7 131900549.705 7     -2877.545 7        44.074               
G14  26762323.031 7 140637011.794 7     -1508.415 7        42.704               
G15  22349846.817 7 117449230.371 7     -1681.484 7        44.419               
G18  23135200.526 6 121576332.641 6     -1790.364 6        41.343               
G22  26342948.427 7 138433120.042 7      -926.116 7        42.128               
G23  22098534.412 6 116128590.019 6      1777.994 6        39.875               
G24  21383323.944 7 112370109.803 7       210.129 7        46.036               
> 2025 08 06 06 40 28.0000000  0  9                                             
G05  25420463.243 8 133585429.187 8     -3239.793 8        48.102               
G12  26236874.047 7 137875714.823 7      3238.648 7        42.638               
G13  25100390.749 7 131903427.287 7     -2877.644 7        44.122               
G14  26762615.958 7 140638520.564 7     -1509.264 7        42.701               
G15  22350167.208 7 117450912.202 7     -1681.961 7        44.438               
G18  23135539.430 6 121578123.376 6     -1791.200 6        41.517               
G22  26343126.921 7 138434046.425 7      -926.780 7        42.037               
G23  22098196.044 6 116126812.337 6      1777.395 6        39.651               
G24  21383284.775 7 112369900.045 7       209.337 7        45.936               
> 2025 08 06 06 40 29.0000000  0  9                                             
G05  25421079.707 8 133588668.962 8     -3239.887 8        48.088               
G12  26236257.369 7 137872475.933 7      3238.902 7        42.600               
G13  25100938.452 7 131906304.864 7     -2877.639 7        44.157               
G14  26762906.294 7 140640029.829 7     -1509.602 7        42.634               
G15  22350487.278 7 117452594.278 7     -1682.246 7        44.466               
G18  23135881.854 6 121579914.684 6     -1791.484 6        41.300               
G22  26343304.789 7 138434973.366 7      -927.190 7        42.035               
G23  22097857.158 6 116125035.046 6      1776.811 6        39.730               
G24  21383244.159 7 112369690.953 7       208.717 7        45.839               
> 2025 08 06 06 40 30.0000000  0  9                                             
G05  25421696.260 8 133591908.990 8     -3240.069 8        48.230               
G12  26235641.066 7 137869237.018 7      3238.855 7        42.593               
G13  25101486.459 7 131909182.476 7     -2877.632 7        44.139               
G14  26763199.149 7 140641539.611 7     -1510.032 7        42.519               
G15  22350806.616 7 117454276.647 7     -1682.329 7        44.675               
G18  23136224.796 6 121581706.602 6     -1792.150 6        41.245               
G22  26343484.515 6 138435900.869 6      -927.738 6        41.953               
G23  22097516.467 6 116123258.178 6      1776.843 6        39.812               
G24  21383205.205 7 112369482.566 7       208.074 7        45.874               
> 2025 08 06 06 40 31.0000000  0  9                                             
G05  25422312.115 8 133595149.252 8     -3240.250 8        48.213               
G12  26235024.907 7 137865998.056 7      3239.052 7        42.515               
G13  25102033.805 7 131912060.102 7     -2877.498 7        44.163               
G14  26763488.681 7 140643049.902 7     -1510.419 7        42.582               
G15  22351126.811 7 117455959.275 7     -1682.689 7        44.615               
G18  23136562.574 6 121583499.095 6     -1792.771 6        41.310               
G22  26343659.936 6 138436828.916 6      -928.085 6        41.793               
G23  22097174.526 6 116121481.715 6      1776.352 6        39.890               
G24  21383166.465 7 112369274.852 7       207.486 7        46.072               
> 2025 08 06 06 40 32.0000000  0  9                                             
G05  25422928.650 8 133598389.668 8     -3240.570 8        48.134               
G12  26234408.979 7 137862758.976 7      3238.948 7        42.498               
G13  25102580.437 7 131914937.676 7     -2877.802 7        44.144               
G14  26763779.839 7 140644560.612 7     -1511.156 7        42.500               
G15  22351447.006 7 117457642.095 7     -1683.138 7        44.409               
G18  23136901.960 6 121585292.126 6     -1793.443 6        41.200               
G22  26343836.678 6 138437757.440 6      -928.795 6        41.813               
G23  22096834.746 6 116119705.573 6      1775.640 6        39.873               
G24  21383128.386 7 112369067.760 7       206.641 7        46.069               
> 2025 08 06 06 40 33.0000000  0  9                                             
G05  25423545.435 8 133601630.326 8     -3240.761 8        48.091               
G12  26233793.141 7 137859519.866 7      3239.334 7        42.487               
G13  25103126.049 7 131917815.271 7     -2877.403 7        44.166               
G14  26764068.066 7 140646071.813 7     -1511.332 7        42.535               
G15  22351766.843 7 117459325.190 7     -1683.196 7        44.418               
G18  23137244.778 6 121587085.729 6     -1793.681 6        41.163               
G22  26344012.313 6 138438686.520 6      -929.311 6        41.737               
G23  22096498.844 6 116117929.844 6      1775.530 6        39.636               
G24  21383087.627 7 112368861.345 7       206.076 7        46.126               
> 2025 08 06 06 40 34.0000000  0  9                                             
G05  25424161.148 7 133604871.145 7     -3240.891 7        47.974               
G12  26233177.017 7 137856280.633 7      3239.506 7        42.449               
G13  25103673.699 7 131920692.805 7     -2877.386 7        44.104               
G14  26764353.024 7 140647583.438 7     -1511.869 7        42.420               
G15  22352087.896 7 117461008.485 7     -1683.339 7        44.363               
G18  23137589.275 6 121588879.854 6     -1794.273 6        41.024               
G22  26344185.338 6 138439616.064 6      -929.718 6        41.571               
G23  22096164.336 6 116116154.439 6      1775.161 6        39.824               
G24  21383048.082 7 112368655.549 7       205.506 7        46.081               
> 2025 08 06 06 40 35.0000000  0  9                                             
G05  25424777.129 7 133608112.248 7     -3241.260 7        47.901               
G12  26232558.964 7 137853041.408 7      3239.298 7        42.394               
G13  25104219.008 7 131923570.406 7     -2877.746 7        44.128               
G14  26764636.605 7 140649095.641 7     -1512.594 7        42.275               
G15  22352407.877 7 117462692.093 7     -1683.864 7        44.528               
G18  23137930.501 6 121590674.622 6     -1795.053 6        41.042               
G22  26344362.385 6 138440546.211 6      -930.552 6        41.406               
G23  22095828.220 6 116114379.502 6      1774.625 6        39.922               
G24  21383006.894 7 112368450.480 7       204.683 7        46.133               
> 2025 08 06 06 40 36.0000000  0  9                                             
G05  25425394.182 7 133611353.561 7     -3241.304 7        47.784               
G12  26231943.269 7 137849802.108 7      3239.313 7        42.362               
G13  25104767.444 7 131926448.000 7     -2877.569 7        44.141               
G14  26764916.523 7 140650608.291 7     -1512.999 7        42.045               
G15  22352729.412 7 117464375.949 7     -1683.903 7        44.422               
G18  23138272.961 6 121592469.942 6     -1795.492 6        41.071               
G22  26344541.307 6 138441476.884 6      -931.007 6        41.443               
G23  22095488.994 6 116112604.937 6      1774.283 6        39.804               
G24  21382967.136 7 112368246.071 7       204.079 7        46.166               
> 2025 08 06 06 40 37.0000000  0  9                                             
G05  25426010.413 7 133614595.085 7     -3241.743 7        47.755               
G12  26231327.663 7 137846562.769 7      3239.259 7        42.414               
G13  25105314.487 7 131929325.593 7     -2877.681 7        44.030               
G14  26765198.407 6 140652121.430 6     -1513.596 6        41.658               
G15  22353049.857 7 117466060.048 7     -1684.308 7        44.454               
G18  23138613.545 6 121594265.831 6     -1796.233 6        41.216               
G22  26344718.318 6 138442408.078 6      -931.639 6        41.485               
G23  22095150.305 6 116110830.752 6      1773.763 6        39.781               
G24  21382928.217 7 112368042.335 7       203.350 7        46.126               
> 2025 08 06 06 40 38.0000000  0  9                                             
G05  25426627.395 7 133617836.840 7     -3241.751 7        47.633               
G12  26230708.805 7 137843323.380 7      3239.509 7        42.260               
G13  25105862.386 7 131932203.195 7     -2877.536 7        44.114               
G14  26765488.314 6 140653635.078 6     -1513.823 6        41.408               
G15  22353369.462 7 117467744.409 7     -1684.326 7        44.413               
G18  23138955.594 6 121596062.328 6     -1796.736 6        41.091               
G22  26344899.724 6 138443339.831 6      -931.946 6        41.370               
G23  22094816.851 6 116109056.987 6      1773.590 6        39.909               
G24  21382889.191 7 112367839.283 7       202.883 7        46.249               
> 2025 08 06 06 40 39.0000000  0  9                                             
G05  25427245.002 7 133621078.728 7     -3242.212 7        47.523               
G12  26230092.145 7 137840083.873 7      3239.331 7        42.230               
G13  25106408.357 7 131935080.727 7     -2877.696 7        44.048               
G14  26765780.169 6 140655149.142 6     -1514.549 6        40.973               
G15  22353687.745 7 117469428.958 7     -1684.968 7        44.479               
G18  23139297.946 6 121597859.303 6     -1797.307 6        40.867               
G22  26345078.736 6 138444272.043 6      -932.693 6        41.481               
G23  22094479.234 6 116107283.512 6      1773.070 6        39.997               
G24  21382852.113 7 112367636.821 7       201.896 7        46.243               
> 2025 08 06 06 40 40.0000000  0  9                                             
G05  25427861.573 7 133624320.806 7     -3242.236 7        47.276               
G12  26229475.557 7 137836844.284 7      3239.593 7        42.209               
G13  25106954.613 7 131937958.232 7     -2877.542 7        43.935               
G14  26766073.257 6 140656663.677 6     -1514.654 6        40.697               
G15  22354003.920 7 117471113.727 7     -1685.043 7        44.482               
G18  23139638.476 6 121599656.830 6     -1797.877 6        40.722               
G22  26345254.299 6 138445204.739 6      -933.112 6        41.478               
G23  22094143.778 6 116105510.419 6      1772.731 6        40.010               
G24  21382813.980 7 112367435.000 7       201.439 7        46.335               
> 2025 08 06 06 40 41.0000000  0  9                                             
G05  25428478.483 7 133627563.156 7     -3242.433 7        47.165               
G12  26228857.842 6 137833604.683 6      3239.531 6        41.929               
G13  25107502.745 7 131940835.800 7     -2877.607 7        43.871               
G14  26766368.560 6 140658178.747 6     -1515.265 6        40.349               
G15  22354324.168 7 117472798.811 7     -1685.304 7        44.615               
G18  23139979.649 6 121601454.976 6     -1798.541 6        40.659               
G22  26345433.025 6 138446138.038 6      -933.691 6        41.551               
G23  22093803.052 6 116103737.762 6      1772.207 6        39.935               
G24  21382775.240 7 112367233.898 7       200.801 7        46.372               
> 2025 08 06 06 40 42.0000000  0  9                                             
G05  25429095.393 7 133630805.745 7     -3242.678 7        47.209               
G12  26228241.468 6 137830365.039 6      3239.685 6        41.958               
G13  25108051.717 7 131943713.359 7     -2877.652 7        43.823               
G14  26766662.934 6 140659694.297 6     -1515.929 6        40.034               
G15  22354645.239 7 117474484.140 7     -1685.429 7        44.597               
G18  23140322.163 6 121603253.711 6     -1799.100 6        40.752               
G22  26345609.535 6 138447071.868 6      -934.139 6        41.574               
G23  22093464.220 6 116101965.503 6      1771.956 6        39.955               
G24  21382734.678 7 112367033.462 7       200.128 7        46.457               
> 2025 08 06 06 40 43.0000000  0  9                                             
G05  25429713.000 7 133634048.571 7     -3242.971 7        47.134               
G12  26227626.256 7 137827125.340 7      3239.779 7        42.028               
G13  25108599.939 7 131946590.925 7     -2877.597 7        43.775               
G14  26766953.431 6 140661210.373 6     -1516.408 6        39.770               
G15  22354968.454 7 117476169.741 7     -1685.782 7        44.530               
G18  23140661.335 6 121605053.024 6     -1799.668 6        40.777               
G22  26345785.438 6 138448006.228 6      -934.690 6        41.671               
G23  22093127.996 6 116100193.643 6      1771.543 6        39.886               
G24  21382696.938 7 112366833.708 7       199.286 7        46.546               
> 2025 08 06 06 40 44.0000000  0  9                                             
G05  25430329.392 7 133637291.622 7     -3243.239 7        47.056               
G12  26227010.704 7 137823885.591 7      3239.806 7        42.114               
G13  25109148.393 7 131949468.503 7     -2877.783 7        43.713               
G14  26767240.193 6 140662726.937 6     -1517.081 6        39.544               
G15  22355289.400 7 117477855.583 7     -1686.068 7        44.405               
G18  23141005.278 6 121606852.919 6     -1800.347 6        40.824               
G22  26345959.786 6 138448941.133 6      -935.367 6        41.465               
G23  22092790.825 6 116098422.177 6      1771.155 6        39.884               
G24  21382657.644 7 112366634.632 7       198.614 7        46.577               
> 2025 08 06 06 40 45.0000000  0  9                                             
G05  25430946.713 7 133640534.876 7     -3243.379 7        47.002               
G12  26226395.598 7 137820645.769 7      3239.952 7        42.266               
G13  25109697.150 7 131952346.063 7     -2877.616 7        43.674               
G14  26767524.525 6 140664243.958 6     -1517.376 6        39.389               
G15  22355610.595 7 117479541.654 7     -1686.230 7        44.549               
G18  23141348.095 6 121608653.357 6     -1801.030 6        40.756               
G22  26346133.830 6 138449876.540 6      -935.677 6        41.281               
G23  22092452.100 6 116096651.072 6      1770.955 6        39.942               
G24  21382622.478 7 112366436.189 7       198.062 7        46.757               
> 2025 08 06 06 40 46.0000000  0  9                                             
G05  25431564.034 7 133643778.337 7     -3243.676 7        46.978               
G12  26225778.295 7 137817405.893 7      3239.784 7        42.288               
G13  25110244.889 7 131955223.623 7     -2877.779 7        43.697               
G14  26767809.232 6 140665761.436 6     -1517.922 6        39.189               
G15  22355932.470 7 117481227.982 7     -1686.642 7        44.504               
G18  23141691.627 6 121610454.374 6     -1801.318 6        40.818               
G22  26346312.771 6 138450812.480 6      -936.404 6        41.291               
G23  22092113.589 6 116094880.364 6      1770.366 6        39.856               
G24  21382585.096 7 112366238.426 7       197.343 7        46.846               
> 2025 08 06 06 40 47.0000000  0  9                                             
G05  25432181.641 7 133647022.037 7     -3243.821 7        47.023               
G12  26225162.904 7 137814165.982 7      3240.077 7        42.247               
G13  25110791.789 7 131958101.202 7     -2877.586 7        43.891               
G14  26768095.226 6 140667279.438 6     -1518.361 6        38.920               
G15  22356255.327 7 117482914.578 7     -1686.680 7        44.465               
G18  23142034.498 6 121612255.987 6     -1801.876 6        40.682               
G22  26346494.266 6 138451748.983 6      -936.815 6        41.420               
G23  22091776.383 6 116093110.072 6      1770.193 6        39.916               
G24  21382550.037 7 112366041.350 7       196.654 7        46.876               
> 2025 08 06 06 40 48.0000000  0  9                                             
G05  25432799.070 7 133650265.918 7     -3244.035 7        47.100               
G12  26224546.458 7 137810925.985 7      3239.918 7        42.391               
G13  25111341.029 7 131960978.746 7     -2877.692 7        44.167               
G14  26768383.614 6 140668797.889 6     -1518.733 6        38.804               
G15  22356575.433 7 117484601.407 7     -1686.885 7        44.570               
G18  23142380.871 6 121614058.124 6     -1802.642 6        40.559               
G22  26346678.407 6 138452685.987 6      -937.311 6        41.325               
G23  22091441.285 6 116091340.118 6      1769.843 6        39.930               
G24  21382511.333 7 112365844.911 7       196.074 7        46.749               
> 2025 08 06 06 40 49.0000000  0  9                                             
G05  25433415.622 7 133653510.001 7     -3244.198 7        47.155               
G12  26223928.958 7 137807685.919 7      3240.101 7        42.460               
G13  25111887.857 7 131963856.280 7     -2877.488 7        44.055               
G14  26768672.574 6 140670316.820 6     -1519.172 6        38.603               
G15  22356895.950 7 117486288.472 7     -1687.256 7        44.447               
G18  23142722.866 6 121615860.850 6     -1802.958 6        40.418               
G22  26346858.634 6 138453623.499 6      -937.809 6        41.451               
G23  22091105.312 6 116089570.549 6      1769.516 6        39.883               
G24  21382474.308 7 112365649.140 7       195.533 7        46.669               
> 2025 08 06 06 40 50.0000000  0  9                                             
G05  25434034.016 7 133656754.274 7     -3244.356 7        47.351               
G12  26223311.298 7 137804445.768 7      3240.266 7        42.610               
G13  25112434.577 7 131966733.790 7     -2877.510 7        44.107               
G14  26768966.948 6 140671836.201 6     -1519.507 6        38.537               
G15  22357216.663 7 117487975.756 7     -1687.367 7        44.681               
G18  23143067.846 6 121617664.106 6     -1803.465 6        40.569               
G22  26347035.501 6 138454561.547 6      -938.266 6        41.693               
G23  22090767.427 6 116087801.360 6      1769.052 6        39.933               
G24  21382437.319 7 112365453.993 7       194.887 7        46.773               
> 2025 08 06 06 40 51.0000000  0  9                                             
G05  25434652.820 7 133659998.766 7     -3244.567 7        47.318               
G12  26222693.601 7 137801205.572 7      3240.319 7        42.606               
G13  25112982.853 7 131969611.307 7     -2877.581 7        44.112               
G14  26769255.479 6 140673356.095 6     -1520.336 6        38.385               
G15  22357537.877 7 117489663.303 7     -1687.681 7        44.901               
G18  23143410.109 6 121619467.934 6     -1804.148 6        40.641               
G22  26347214.138 6 138455500.109 6      -938.852 6        41.717               
G23  22090428.255 6 116086032.549 6      1768.875 6        39.807               
G24  21382400.009 7 112365259.524 7       194.104 7        46.823               
> 2025 08 06 06 40 52.0000000  0  9                                             
G05  25435270.052 7 133663243.462 7     -3244.854 7        47.415               
G12  26222079.014 7 137797965.311 7      3240.293 7        42.573               
G13  25113528.519 7 131972488.813 7     -2877.633 7        44.168               
G14  26769544.404 6 140674876.452 6     -1520.398 6        38.257               
G15  22357857.428 7 117491351.074 7     -1687.890 7        44.932               
G18  23143752.336 6 121621272.344 6     -1804.783 6        40.601               
G22  26347389.219 6 138456439.189 6      -939.357 6        41.520               
G23  22090089.672 6 116084264.119 6      1768.282 6        39.623               
G24  21382362.448 7 112365065.703 7       193.417 7        46.823               
> 2025 08 06 06 40 53.0000000  0  9                                             
G05  25435887.444 7 133666488.417 7     -3245.045 7        47.472               
G12  26221463.998 7 137794725.041 7      3240.252 7        42.471               
G13  25114077.366 7 131975366.370 7     -2877.556 7        44.091               
G14  26769838.063 6 140676397.346 6     -1521.026 6        38.037               
G15  22358179.803 7 117493039.156 7     -1688.360 7        44.962               
G18  23144095.725 6 121623077.355 6     -1805.488 6        40.413               
G22  26347563.727 6 138457378.844 6      -939.982 6        41.398               
G23  22089756.594 6 116082496.122 6      1767.555 6        39.576               
G24  21382326.245 7 112364872.606 7       192.754 7        46.776               
> 2025 08 06 06 40 54.0000000  0  9                                             
G05  25436505.391 7 133669733.530 7     -3245.382 7        47.454               
G12  26220849.572 7 137791484.668 7      3240.286 7        42.624               
G13  25114625.212 7 131978243.881 7     -2877.775 7        44.118               
G14  26770129.739 6 140677918.665 6     -1521.576 6        37.906               
G15  22358500.713 7 117494727.437 7     -1688.498 7        45.008               
G18  23144438.453 6 121624882.888 6     -1805.912 6        40.168               
G22  26347739.827 6 138458318.992 6      -940.484 6        41.125               
G23  22089421.496 6 116080728.488 6      1767.530 6        39.287               
G24  21382289.364 7 112364680.128 7       192.007 7        46.803               
> 2025 08 06 06 40 55.0000000  0  9                                             
G05  25437123.373 7 133672978.829 7     -3245.375 7        47.433               
G12  26220233.108 7 137788244.206 7      3240.548 7        42.730               
G13  25115174.042 7 131981121.352 7     -2877.489 7        44.095               
G14  26770421.630 6 140679440.446 6     -1521.639 6        37.697               
G15  22358821.158 7 117496415.954 7     -1688.630 7        45.065               
G18  23144783.343 6 121626688.959 6     -1806.495 6        40.263               
G22  26347917.731 6 138459259.637 6      -940.943 6        41.000               
G23  22089086.345 6 116078961.201 6      1767.191 6        39.144               
G24  21382251.124 7 112364488.292 7       191.487 7        46.894               
> 2025 08 06 06 40 56.0000000  0  9                                             
G05  25437741.195 7 133676224.367 7     -3245.547 7        47.671               
G12  26219616.877 7 137785003.723 7      3240.617 7        42.952               
G13  25115724.157 7 131983998.854 7     -2877.423 7        44.158               
G14  26770712.109 6 140680962.779 6     -1522.720 6        37.423               
G15  22359143.265 7 117498104.729 7     -1688.880 7        45.214               
G18  23145128.698 6 121628495.640 6     -1806.851 6        40.150               
G22  26348101.728 6 138460200.852 6      -941.280 6        40.979               
G23  22088749.960 6 116077194.333 6      1766.631 6        39.193               
G24  21382212.420 7 112364297.156 7       190.847 7        46.949               
> 2025 08 06 06 40 57.0000000  0  9                                             
G05  25438358.873 7 133679470.123 7     -3245.886 7        47.822               
G12  26218998.680 7 137781763.180 7      3240.476 7        43.155               
G13  25116271.664 7 131986876.359 7     -2877.647 7        44.215               
G14  26771000.157 6 140682485.547 6     -1522.765 6        37.128               
G15  22359466.248 7 117499793.774 7     -1689.274 7        45.229               
G18  23145472.212 6 121630302.879 6     -1807.837 6        40.223               
G22  26348282.294 6 138461142.598 6      -942.141 6        40.849               
G23  22088413.076 6 116075427.861 6      1766.094 6        39.239               
G24  21382176.378 7 112364106.679 7       190.061 7        46.901               
> 2025 08 06 06 40 58.0000000  0  9                                             
G05  25438976.480 7 133682716.153 7     -3246.205 7        47.966               
G12  26218381.913 7 137778522.646 7      3240.575 7        43.291               
G13  25116818.706 7 131989753.941 7     -2877.493 7        44.135               
G14  26771291.690 6 140684008.867 6     -1523.780 6        36.743               
G15  22359788.158 7 117501483.129 7     -1689.521 7        44.991               
G18  23145816.834 6 121632110.769 6     -1808.112 6        40.356               
G22  26348466.149 6 138462084.956 6      -942.685 6        40.718               
G23  22088080.873 6 116073661.852 6      1765.920 6        39.276               
G24  21382139.854 7 112363916.935 7       189.432 7        46.906               
> 2025 08 06 06 40 59.0000000  0  9                                             
G05  25439594.963 7 133685962.364 7     -3246.453 7        47.983               
G12  26217765.074 7 137775282.037 7      3240.514 7        43.256               
G13  25117366.178 7 131992631.480 7     -2877.718 7        44.127               
G14  26771582.473 6 140685532.707 6     -1524.254 6        36.524               
G15  22360110.212 7 117503172.704 7     -1689.768 7        44.930               
G18  23146163.028 6 121633919.182 6     -1808.709 6        40.471               
G22  26348647.948 6 138463027.796 6      -943.347 6        40.672               
G23  22087746.025 6 116071896.188 6      1765.307 6        39.331               
G24  21382104.848 7 112363727.827 7       188.694 7        46.726               
> 2025 08 06 06 41 00.0000000  0  9                                             
G05  25440214.446 8 133689208.870 8     -3246.524 8        48.132               
G12  26217147.378 7 137772041.443 7      3240.605 7        43.277               
G13  25117910.218 7 131995509.104 7     -2877.513 7        44.029               
G14  26771876.365 6 140687057.079 6     -1524.618 6        36.441               
G15  22360434.088 7 117504862.600 7     -1689.989 7        45.016               
G18  23146505.470 6 121635728.266 6     -1809.264 6        40.587               
G22  26348824.584 6 138463971.268 6      -943.508 6        40.761               
G23  22087408.229 6 116070131.002 6      1764.946 6        39.217               
G24  21382068.842 7 112363539.470 7       188.059 7        46.615               
> 2025 08 06 06 41 01.0000000  0  9                                             
G05  25440831.231 8 133692455.572 8     -3246.767 8        48.124               
G12  26216530.432 7 137768800.787 7      3240.774 7        43.110               
G13  25118457.492 7 131998386.698 7     -2877.666 7        44.033               
G14  26772162.984 6 140688581.911 6     -1525.168 6        36.255               
G15  22360756.016 7 117506552.737 7     -1690.094 7        44.992               
G18  23146848.931 6 121637537.885 6     -1809.815 6        40.499               
G22  26349002.041 6 138464915.246 6      -944.325 6        40.594               
G23  22087069.504 6 116068366.180 6      1764.502 6        39.043               
G24  21382033.926 7 112363351.751 7       187.479 7        46.629               
> 2025 08 06 06 41 02.0000000  0  9                                             
G05  25441448.445 8 133695702.437 8     -3246.948 8        48.135               
G12  26215913.987 7 137765560.022 7      3240.812 7        43.144               
G13  25119005.589 7 132001264.256 7     -2877.533 7        44.159               
G14  26772450.622 5 140690107.144 5     -1525.353 5        35.948               
G15  22361076.622 7 117508243.059 7     -1690.489 7        45.005               
G18  23147192.141 6 121639348.040 6     -1810.328 6        40.467               
G22  26349175.192 6 138465859.704 6      -944.823 6        40.656               
G23  22086730.707 6 116066601.711 6      1764.210 6        38.919               
G24  21382000.154 7 112363164.660 7       186.715 7        46.672               
> 2025 08 06 06 41 03.0000000  0  9                                             
G05  25442066.445 8 133698949.559 8     -3247.021 8        48.259               
G12  26215297.916 7 137762319.239 7      3240.931 7        43.163               
G13  25119552.238 7 132004141.852 7     -2877.363 7        44.063               
G14  26772729.486 5 140691632.947 5     -1525.780 5        35.731               
G15  22361395.405 7 117509933.683 7     -1690.554 7        44.832               
G18  23147538.014 6 121641158.791 6     -1810.942 6        40.288               
G22  26349355.562 6 138466804.718 6      -944.937 6        40.561               
G23  22086396.610 6 116064837.658 6      1764.060 6        38.949               
G24  21381961.860 7 112362978.280 7       186.381 7        46.661               
> 2025 08 06 06 41 04.0000000  0  9                                             
G05  25442684.249 8 133702196.854 8     -3247.406 8        48.117               
G12  26214680.434 7 137759078.377 7      3240.871 7        43.173               
G13  25120100.906 7 132007019.409 7     -2877.449 7        43.947               
G14  26773013.299 5 140693159.175 5     -1526.180 5        35.498               
G15  22361715.207 7 117511624.522 7     -1690.950 7        44.834               
G18  23147879.634 6 121642970.081 6     -1811.672 6        40.203               
G22  26349535.556 6 138467750.227 6      -945.589 6        40.457               
G23  22086062.281 6 116063073.955 6      1763.680 6        38.952               
G24  21381924.800 7 112362792.508 7       185.489 7        46.532               
> 2025 08 06 06 41 05.0000000  0  9                                             
G05  25443301.088 8 133705444.394 8     -3247.590 8        48.021               
G12  26214063.417 7 137755837.476 7      3240.983 7        43.156               
G13  25120650.004 7 132009896.989 7     -2877.573 7        43.914               
G14  26773308.120 5 140694685.944 5     -1527.081 5        35.246               
G15  22362037.332 7 117513315.635 7     -1691.262 7        44.984               
G18  23148222.433 6 121644781.979 6     -1812.071 6        40.056               
G22  26349716.569 6 138468696.302 6      -946.355 6        40.441               
G23  22085727.719 6 116061310.692 6      1763.003 6        38.866               
G24  21381888.436 7 112362607.451 7       184.819 7        46.496               
> 2025 08 06 06 41 06.0000000  0  9                                             
G05  25443918.337 7 133708692.101 7     -3247.776 7        47.908               
G12  26213445.953 7 137752596.475 7      3241.086 7        43.231               
G13  25121199.315 7 132012774.515 7     -2877.523 7        43.736               
G14  26773605.782 5 140696213.105 5     -1527.560 5        35.014               
G15  22362356.437 7 117515006.950 7     -1691.414 7        44.905               
G18  23148570.057 6 121646594.375 6     -1812.666 6        39.956               
G22  26349900.209 6 138469642.846 6      -947.004 6        40.387               
G23  22085392.961 6 116059547.750 6      1762.700 6        38.742               
G24  21381854.950 7 112362423.001 7       184.147 7        46.478               
> 2025 08 06 06 41 07.0000000  0  9                                             
G05  25444536.820 7 133711940.016 7     -3248.060 7        47.863               
G12  26212830.133 7 137749355.400 7      3241.090 7        43.155               
G13  25121746.911 7 132015652.016 7     -2877.481 7        43.751               
G14  26773900.800 5 140697740.754 5     -1528.127 5        34.896               
G15  22362677.097 7 117516698.498 7     -1691.714 7        44.771               
G18  23148914.715 6 121648407.328 6     -1813.178 6        39.899               
G22  26350080.561 6 138470589.915 6      -947.369 6        40.286               
G23  22085057.773 6 116057785.188 6      1762.193 6        39.032               
G24  21381820.606 7 112362239.206 7       183.371 7        46.466               
> 2025 08 06 06 41 08.0000000  0  9                                             
G05  25445154.159 7 133715188.224 7     -3248.304 7        47.733               
G12  26212210.864 7 137746114.346 7      3241.146 7        43.062               
G13  25122292.363 7 132018529.594 7     -2877.508 7        43.808               
G14  26774192.780 5 140699268.986 5     -1528.422 5        34.772               
G15  22363000.991 7 117518390.358 7     -1692.023 7        44.747               
G18  23149259.337 6 121650220.931 6     -1813.502 6        39.915               
G22  26350263.290 6 138471537.581 6      -947.953 6        40.215               
G23  22084721.353 6 116056023.098 6      1761.907 6        39.074               
G24  21381788.745 7 112362056.151 7       182.738 7        46.477               
> 2025 08 06 06 41 09.0000000  0  9                                             
G05  25445771.659 7 133718436.613 7     -3248.596 7        47.588               
G12  26211593.114 7 137742873.213 7      3241.010 7        42.860               
G13  25122838.834 7 132021407.160 7     -2877.578 7        43.817               
G14  26774487.940 5 140700797.682 5     -1528.996 5        34.791               
G15  22363322.508 7 117520082.447 7     -1692.274 7        44.789               
G18  23149604.763 6 121652035.078 6     -1814.504 6        39.888               
G22  26350448.628 6 138472485.765 6      -948.709 6        40.126               
G23  22084383.682 6 116054261.357 6      1761.463 6        38.858               
G24  21381754.490 7 112361873.741 7       181.934 7        46.418               
> 2025 08 06 06 41 10.0000000  0  9                                             
G05  25446387.854 7 133721685.185 7     -3248.717 7        47.466               
G12  26210974.149 7 137739631.995 7      3241.089 7        42.691               
G13  25123388.467 7 132024284.680 7     -2877.440 7        43.824               
G14  26774780.706 5 140702326.801 5     -1529.307 5        34.666               
G15  22363645.187 7 117521774.752 7     -1692.543 7        44.813               
G18  23149952.351 6 121653849.775 6     -1814.607 6        39.820               
G22  26350631.660 6 138473434.451 6      -948.804 6        40.274               
G23  22084047.691 6 116052499.989 6      1761.143 6        38.852               
G24  21381719.806 7 112361691.961 7       181.438 7        46.469               
> 2025 08 06 06 41 11.0000000  0  9                                             
G05  25447006.909 7 133724933.960 7     -3248.823 7        47.385               
G12  26210357.257 7 137736390.704 7      3241.453 7        42.735               
G13  25123935.581 7 132027162.184 7     -2877.489 7        43.815               
G14  26775072.186 5 140703856.399 5     -1529.531 5        34.570               
G15  22363965.793 7 117523467.295 7     -1692.529 7        44.528               
G18  23150298.063 6 121655664.999 6     -1815.526 6        39.400               
G22  26350809.653 6 138474383.647 6      -949.507 6        40.397               
G23  22083712.486 6 116050738.990 6      1760.850 6        38.832               
G24  21381683.711 7 112361510.831 7       180.887 7        46.379               
> 2025 08 06 06 41 12.0000000  0  9                                             
G05  25447627.053 7 133728182.964 7     -3249.202 7        47.306               
G12  26209741.419 7 137733149.376 7      3241.396 7        42.769               
G13  25124482.498 7 132030039.699 7     -2877.442 7        43.973               
G14  26775355.714 5 140705386.454 5     -1530.236 5        34.535               
G15  22364287.364 7 117525160.096 7     -1692.984 7        44.442               
G18  23150643.382 6 121657480.825 6     -1815.940 6        39.281               
G22  26350984.841 6 138475333.395 6      -950.089 6        40.444               
G23  22083375.977 6 116048978.397 6      1760.256 6        38.815               
G24  21381649.796 7 112361330.378 7       180.076 7        46.442               
> 2025 08 06 06 41 13.0000000  0  9                                             
G05  25448245.160 7 133731432.145 7     -3249.337 7        47.355               
G12  26209125.295 7 137729907.958 7      3241.314 7        42.707               
G13  25125029.487 7 132032917.163 7     -2877.542 7        43.930               
G14  26775648.015 5 140706916.997 5     -1530.824 5        34.522               
G15  22364611.240 7 117526853.114 7     -1693.068 7        44.551               
G18  23150987.396 6 121659297.174 6     -1816.585 6        39.187               
G22  26351159.261 6 138476283.637 6      -950.448 6        40.275               
G23  22083042.112 6 116047218.157 6      1760.197 6        38.859               
G24  21381616.738 7 112361150.550 7       179.420 7        46.442               
> 2025 08 06 06 41 14.0000000  0  9                                             
G05  25448863.411 7 133734681.554 7     -3249.474 7        47.210               
G12  26208507.152 7 137726666.498 7      3241.644 7        42.793               
G13  25125574.671 7 132035794.654 7     -2877.472 7        43.966               
G14  26775933.991 5 140708448.027 5     -1531.257 5        34.614               
G15  22364934.651 7 117528546.389 7     -1693.397 7        44.680               
G18  23151335.360 6 121661114.109 6     -1816.908 6        39.011               
G22  26351335.378 6 138477234.398 6      -951.059 6        40.155               
G23  22082706.978 6 116045458.317 6      1759.552 6        38.993               
G24  21381582.626 7 112360971.408 7       178.814 7        46.441               
> 2025 08 06 06 41 15.0000000  0  9                                             
G05  25449481.947 7 133737931.171 7     -3249.611 7        47.215               
G12  26207890.760 7 137723424.975 7      3241.550 7        42.799               
G13  25126122.553 7 132038672.136 7     -2877.362 7        43.953               
G14  26776225.846 5 140709979.524 5     -1531.526 5        34.719               
G15  22365258.527 7 117530239.927 7     -1693.457 7        44.559               
G18  23151681.983 6 121662931.600 6     -1817.830 6        39.146               
G22  26351514.336 6 138478185.703 6      -951.237 6        40.097               
G23  22082374.829 6 116043698.870 6      1759.320 6        39.053               
G24  21381549.175 7 112360792.925 7       178.266 7        46.442               
> 2025 08 06 06 41 16.0000000  0  9                                             
G05  25450100.858 7 133741180.999 7     -3249.905 7        47.077               
G12  26207275.190 7 137720183.411 7      3241.614 7        42.671               
G13  25126671.936 7 132041549.636 7     -2877.372 7        43.893               
G14  26776518.237 5 140711511.498 5     -1532.615 5        34.480               
G15  22365580.920 7 117531933.706 7     -1693.912 7        44.426               
G18  23152030.465 6 121664749.663 6     -1818.446 6        39.241               
G22  26351699.727 6 138479137.536 6      -952.134 6        40.004               
G23  22082043.323 6 116041939.823 6      1758.795 6        39.064               
G24  21381515.367 7 112360615.112 7       177.356 7        46.316               
> 2025 08 06 06 41 17.0000000  0  9                                             
G05  25450720.306 7 133744431.003 7     -3250.179 7        47.143               
G12  26206658.262 7 137716941.751 7      3241.670 7        42.650               
G13  25127220.676 7 132044427.083 7     -2877.317 7        44.038               
G14  26776816.095 5 140713043.917 5     -1532.764 5        34.266               
G15  22365905.136 7 117533627.694 7     -1694.186 7        44.618               
G18  23152376.820 6 121666568.264 6     -1818.884 6        39.170               
G22  26351885.208 6 138480089.859 6      -952.859 6        39.832               
G23  22081708.154 6 116040181.122 6      1758.477 6        39.127               
G24  21381481.112 7 112360437.927 7       176.777 7        46.282               
> 2025 08 06 06 41 18.0000000  0  9                                             
G05  25451339.736 7 133747681.275 7     -3250.471 7        47.074               
G12  26206042.406 7 137713700.084 7      3241.771 7        42.638               
G13  25127768.183 7 132047304.571 7     -2877.537 7        43.953               
G14  26777111.238 5 140714576.862 5     -1532.753 5        34.033               
G15  22366229.762 7 117535321.974 7     -1694.323 7        44.798               
G18  23152720.870 6 121668387.465 6     -1819.629 6        39.091               
G22  26352068.740 6 138481042.784 6      -953.189 6        39.585               
G23  22081372.555 6 116038422.852 6      1758.244 6        39.230               
G24  21381444.320 7 112360261.459 7       176.127 7        46.212               
> 2025 08 06 06 41 19.0000000  0  9                                             
G05  25451958.022 7 133750931.770 7     -3250.495 7        47.103               
G12  26205425.102 7 137710458.363 7      3241.811 7        42.677               
G13  25128317.280 7 132050182.051 7     -2877.406 7        43.864               
G14  26777407.953 5 140716110.323 5     -1533.580 5        33.916               
G15  22366550.529 7 117537016.501 7     -1694.539 7        44.914               
G18  23153067.226 6 121670207.252 6     -1819.771 6        39.014               
G22  26352253.899 6 138481996.223 6      -953.584 6        39.625               
G23  22081036.493 6 116036664.969 6      1757.982 6        39.136               
G24  21381411.887 7 112360085.642 7       175.552 7        46.201               
> 2025 08 06 06 41 20.0000000  0  9                                             
G05  25452577.916 7 133754182.495 7     -3250.887 7        47.089               
G12  26204809.711 7 137707216.612 7      3241.809 7        42.804               
G13  25128862.642 7 132053059.559 7     -2877.398 7        43.794               
G14  26777700.219 5 140717644.286 5     -1534.296 5        33.932               
G15  22366870.849 7 117538711.295 7     -1695.091 7        45.000               
G18  23153411.705 6 121672027.615 6     -1820.616 6        39.003               
G22  26352435.609 6 138482950.217 6      -954.189 6        39.587               
G23  22080704.290 6 116034907.504 6      1757.285 6        39.256               
G24  21381377.847 7 112359910.524 7       174.780 7        46.141               
> 2025 08 06 06 41 21.0000000  0  9                                             
G05  25453197.542 7 133757433.423 7     -3251.173 7        47.161               
G12  26204192.426 7 137703974.812 7      3241.758 7        42.827               
G13  25129410.792 7 132055937.057 7     -2877.558 7        43.815               
G14  26777989.304 5 140719178.716 5     -1534.934 5        34.012               
G15  22367193.403 7 117540406.350 7     -1695.385 7        45.031               
G18  23153756.130 6 121673848.546 6     -1821.484 6        38.981               
G22  26352617.462 6 138483904.738 6      -955.027 6        39.796               
G23  22080366.637 6 116033150.442 6      1756.926 6        39.230               
G24  21381345.629 7 112359736.074 7       173.867 7        46.045               
> 2025 08 06 06 41 22.0000000  0  9                                             
G05  25453815.775 7 133760684.598 7     -3251.234 7        47.211               
G12  26203576.284 7 137700732.987 7      3241.745 7        42.748               
G13  25129958.139 7 132058814.598 7     -2877.637 7        43.658               
G14  26778282.284 5 140720713.686 5     -1535.296 5        34.350               
G15  22367515.260 7 117542101.684 7     -1695.508 7        45.105               
G18  23154100.770 6 121675670.090 6     -1821.930 6        38.833               
G22  26352799.530 6 138484859.812 6      -955.375 6        39.761               
G23  22080032.629 6 116031393.795 6      1756.281 6        39.186               
G24  21381312.857 7 112359562.321 7       173.492 7        46.116               
> 2025 08 06 06 41 23.0000000  0  9                                             
G05  25454434.204 7 133763936.042 7     -3251.654 7        47.370               
G12  26202960.232 7 137697491.176 7      3241.777 7        42.741               
G13  25130503.394 7 132061692.200 7     -2877.798 7        43.721               
G14  26778572.370 5 140722249.176 5     -1535.633 5        34.418               
G15  22367837.742 7 117543797.323 7     -1695.961 7        44.964               
G18  23154448.805 6 121677492.260 6     -1822.612 6        38.640               
G22  26352977.273 6 138485815.489 6      -956.132 6        39.752               
G23  22079698.675 6 116029637.603 6      1756.096 6        39.405               
G24  21381280.854 7 112359389.296 7       172.624 7        46.130               
> 2025 08 06 06 41 24.0000000  0  9                                             
G05  25455053.169 7 133767187.719 7     -3251.784 7        47.466               
G12  26202341.767 7 137694249.329 7      3242.034 7        42.956               
G13  25131048.614 7 132064569.801 7     -2877.718 7        43.495               
G14  26778865.654 5 140723785.176 5     -1536.329 5        34.570               
G15  22368161.565 7 117545493.235 7     -1695.958 7        45.102               
G18  23154792.248 6 121679315.010 6     -1822.988 6        38.635               
G22  26353152.890 6 138486771.693 6      -956.411 6        39.688               
G23  22079362.630 6 116027881.813 6      1755.435 6        39.245               
G24  21381247.600 7 112359216.949 7       171.957 7        46.122               
> 2025 08 06 06 41 25.0000000  0  9                                             
G05  25455671.455 7 133770439.550 7     -3251.937 7        47.597               
G12  26201726.858 7 137691007.377 7      3242.053 7        42.880               
G13  25131596.388 7 132067447.365 7     -2877.497 7        43.498               
G14  26779144.304 5 140725321.607 5     -1536.415 5        34.728               
G15  22368484.797 7 117547189.343 7     -1696.064 7        44.960               
G18  23155140.390 6 121681138.284 6     -1823.312 6        38.774               
G22  26353333.510 6 138487728.383 6      -956.905 6        39.714               
G23  22079030.498 6 116026126.378 6      1755.208 6        39.272               
G24  21381213.005 7 112359045.221 7       171.408 7        46.018               
> 2025 08 06 06 41 26.0000000  0  9                                             
G05  25456290.080 7 133773691.661 7     -3252.200 7        47.644               
G12  26201109.358 7 137687765.433 7      3242.051 7        42.841               
G13  25132146.397 7 132070324.981 7     -2877.652 7        43.416               
G14  26779429.601 5 140726858.558 5     -1536.884 5        34.615               
G15  22368806.422 7 117548885.756 7     -1696.444 7        44.956               
G18  23155487.317 6 121682962.202 6     -1824.190 6        38.549               
G22  26353515.685 6 138488685.667 6      -957.537 6        39.623               
G23  22078698.831 6 116024371.387 6      1754.787 6        39.553               
G24  21381180.573 7 112358874.217 7       170.733 7        45.960               
> 2025 08 06 06 41 27.0000000  0  9                                             
G05  25456907.848 7 133776944.036 7     -3252.542 7        47.665               
G12  26200492.412 7 137684523.491 7      3241.933 7        43.114               
G13  25132694.136 7 132073202.657 7     -2877.631 7        43.284               
G14  26779726.870 5 140728396.092 5     -1537.972 5        34.622               
G15  22369130.191 7 117550582.490 7     -1697.078 7        45.032               
G18  23155836.442 6 121684786.712 6     -1824.931 6        38.544               
G22  26353706.883 6 138489643.536 6      -958.323 6        39.384               
G23  22078365.503 6 116022616.842 6      1754.210 6        39.561               
G24  21381149.409 7 112358703.927 7       169.856 7        46.134               
> 2025 08 06 06 41 28.0000000  0  9                                             
G05  25457527.296 7 133780196.568 7     -3252.651 7        47.663               
G12  26199875.395 7 137681281.443 7      3242.075 7        43.221               
G13  25133239.606 7 132076080.281 7     -2877.533 7        43.210               
G14  26780019.046 5 140729934.019 5     -1538.337 5        34.699               
G15  22369451.905 7 117552279.421 7     -1696.942 7        45.041               
G18  23156183.172 6 121686611.763 6     -1825.063 6        38.545               
G22  26353894.883 6 138490601.888 6      -958.668 6        39.314               
G23  22078033.603 6 116020862.648 6      1754.125 6        39.670               
G24  21381119.336 7 112358534.258 7       169.321 7        46.168               
> 2025 08 06 06 41 29.0000000  0  9                                             
G05  25458145.850 7 133783449.325 7     -3252.862 7        47.705               
G12  26199258.467 7 137678039.343 7      3242.119 7        43.166               
G13  25133786.630 7 132078957.896 7     -2877.528 7        43.173               
G14  26780314.618 5 140731472.451 5     -1538.612 5        34.842               
G15  22369774.065 7 117553976.598 7     -1697.269 7        44.916               
G18  23156532.512 6 121688437.379 6     -1825.948 6        38.485               
G22  26354081.561 6 138491560.766 6      -959.018 6        39.127               
G23  22077698.077 6 116019108.839 6      1753.497 6        39.806               
G24  21381088.565 7 112358365.272 7       168.606 7        46.224               
> 2025 08 06 06 41 30.0000000  0  9                                             
G05  25458765.119 7 133786702.271 7     -3253.053 7        47.766               
G12  26198643.058 7 137674797.175 7      3242.145 7        43.311               
G13  25134335.585 7 132081835.505 7     -2877.563 7        43.038               
G14  26780613.120 5 140733011.363 5     -1539.435 5        35.123               
G15  22370097.155 7 117555674.015 7     -1697.476 7        44.856               
G18  23156879.385 6 121690263.544 6     -1826.456 6        38.581               
G22  26354261.341 6 138492520.198 6      -959.707 6        39.189               
G23  22077362.175 6 116017355.412 6      1753.360 6        39.901               
G24  21381057.813 7 112358196.929 7       167.963 7        46.421               
> 2025 08 06 06 41 31.0000000  0  9                                             
G05  25459384.334 7 133789955.382 7     -3253.152 7        47.884               
G12  26198025.754 7 137671554.906 7      3242.234 7        43.313               
G13  25134884.753 7 132084713.039 7     -2877.422 7        42.953               
G14  26780906.958 5 140734550.686 5     -1539.528 5        35.454               
G15  22370421.192 7 117557371.633 7     -1697.771 7        44.839               
G18  23157228.921 6 121692090.223 6     -1826.827 6        38.602               
G22  26354438.298 6 138493480.107 6      -960.103 6        39.288               
G23  22077030.294 6 116015602.330 6      1752.969 6        40.079               
G24  21381027.525 7 112358029.203 7       167.445 7        46.600               
> 2025 08 06 06 41 32.0000000  0  9                                             
G05  25460002.799 8 133793208.720 8     -3253.305 8        48.007               
G12  26197408.058 7 137668312.600 7      3242.287 7        43.513               
G13  25135430.956 7 132087590.609 7     -2877.596 7        42.925               
G14  26781198.473 5 140736090.514 5     -1539.847 5        35.726               
G15  22370743.317 7 117559069.514 7     -1697.860 7        44.863               
G18  23157577.885 6 121693917.492 6     -1827.393 6        38.561               
G22  26354624.082 6 138494440.553 6      -960.719 6        39.267               
G23  22076698.644 6 116013849.664 6      1752.521 6        40.101               
G24  21380993.395 7 112357862.165 7       166.691 7        46.791               
> 2025 08 06 06 41 33.0000000  0  9                                             
G05  25460621.657 8 133796462.302 8     -3253.706 8        48.044               
G12  26196790.844 7 137665070.274 7      3242.298 7        43.742               
G13  25135977.873 7 132090468.195 7     -2877.404 7        42.774               
G14  26781490.614 5 140737630.857 5     -1540.391 5        35.951               
G15  22371066.299 7 117560767.672 7     -1698.288 7        44.533               
G18  23157924.580 6 121695745.346 6     -1828.070 6        38.454               
G22  26354804.613 6 138495401.530 6      -961.257 6        39.168               
G23  22076364.440 6 116012097.399 6      1752.032 6        39.994               
G24  21380960.141 7 112357695.805 7       166.062 7        46.749               
> 2025 08 06 06 41 34.0000000  0  9                                             
G05  25461239.585 7 133799716.036 7     -3253.664 7        47.968               
G12  26196174.595 7 137661827.842 7      3242.507 7        43.729               
G13  25136524.075 7 132093345.727 7     -2877.483 7        42.637               
G14  26781779.163 6 140739171.637 6     -1540.981 6        36.110               
G15  22371390.872 7 117562466.030 7     -1698.347 7        44.552               
G18  23158274.616 6 121697573.709 6     -1828.440 6        38.348               
G22  26354986.073 6 138496363.010 6      -961.776 6        39.200               
G23  22076031.987 6 116010345.478 6      1751.975 6        40.149               
G24  21380926.404 7 112357530.052 7       165.520 7        46.807               
> 2025 08 06 06 41 35.0000000  0  9                                             
G05  25461858.711 7 133802969.958 7     -3253.911 7        47.828               
G12  26195557.846 7 137658585.332 7      3242.589 7        43.854               
G13  25137068.830 7 132096223.223 7     -2877.377 7        42.407               
G14  26782064.799 6 140740712.847 6     -1541.490 6        36.521               
G15  22371714.570 7 117564164.599 7     -1698.630 7        44.339               
G18  23158622.723 6 121699402.608 6     -1829.489 6        38.394               
G22  26355161.976 6 138497324.979 6      -962.080 6        39.001               
G23  22075698.944 6 116008593.918 6      1751.299 6        40.464               
G24  21380895.580 7 112357364.938 7       164.863 7        46.883               
> 2025 08 06 06 41 36.0000000  0  9                                             
G05  25462477.891 7 133806224.123 7     -3254.294 7        47.885               
G12  26194939.685 7 137655342.784 7      3242.502 7        43.861               
G13  25137616.337 7 132099100.740 7     -2877.640 7        42.385               
G14  26782352.151 6 140742254.580 6     -1541.745 6        36.687               
G15  22372037.785 7 117565863.452 7     -1698.967 7        44.261               
G18  23158969.721 6 121701232.110 6     -1829.638 6        38.506               
G22  26355340.451 6 138498287.487 6      -962.624 6        38.830               
G23  22075367.098 6 116006842.774 6      1751.057 6        40.482               
G24  21380864.309 7 112357200.515 7       164.103 7        46.977               
> 2025 08 06 06 41 37.0000000  0  9                                             
G05  25463097.213 7 133809478.510 7     -3254.545 7        47.796               
G12  26194321.256 7 137652100.211 7      3242.647 7        43.790               
G13  25138164.720 7 132101978.266 7     -2877.554 7        42.220               
G14  26782647.597 6 140743796.781 6     -1542.505 6        36.846               
G15  22372362.161 7 117567562.562 7     -1699.235 7        44.293               
G18  23159318.417 6 121703062.173 6     -1830.461 6        38.622               
G22  26355530.774 6 138499250.544 6      -963.339 6        38.675               
G23  22075031.447 6 116005092.047 6      1750.513 6        40.454               
G24  21380833.807 7 112357036.765 7       163.348 7        47.112               
> 2025 08 06 06 41 38.0000000  0  9                                             
G05  25463717.090 7 133812733.124 7     -3254.617 7        47.621               
G12  26193703.274 7 137648857.588 7      3242.729 7        43.834               
G13  25138712.995 7 132104855.810 7     -2877.506 7        42.029               
G14  26782944.598 6 140745339.505 6     -1543.002 6        36.965               
G15  22372685.322 7 117569261.929 7     -1699.381 7        44.417               
G18  23159664.505 6 121704892.837 6     -1830.819 6        38.602               
G22  26355716.273 6 138500214.141 6      -963.756 6        38.605               
G23  22074694.937 6 116003341.706 6      1750.206 6        40.612               
G24  21380801.696 7 112356873.706 7       162.801 7        47.110               
> 2025 08 06 06 41 39.0000000  0  9                                             
G05  25464335.858 7 133815987.953 7     -3254.901 7        47.410               
G12  26193087.650 7 137645614.911 7      3242.776 7        43.593               
G13  25139260.823 6 132107733.350 6     -2877.511 6        41.980               
G14  26783242.636 6 140746882.704 6     -1543.350 6        37.151               
G15  22373007.769 7 117570961.544 7     -1699.767 7        44.559               
G18  23160010.163 6 121706724.050 6     -1831.526 6        38.422               
G22  26355900.216 6 138501178.295 6      -964.290 6        38.501               
G23  22074362.270 6 116001591.771 6      1749.740 6        40.707               
G24  21380769.210 7 112356711.305 7       162.088 7        46.990               
> 2025 08 06 06 41 40.0000000  0  9                                             
G05  25464955.288 7 133819242.978 7     -3255.173 7        47.388               
G12  26192470.311 7 137642372.172 7      3242.789 7        43.615               
G13  25139809.510 6 132110610.875 6     -2877.602 6        41.849               
G14  26783539.458 6 140748426.390 6     -1544.013 6        37.300               
G15  22373330.162 7 117572661.391 7     -1700.200 7        44.609               
G18  23160359.502 6 121708555.815 6     -1832.025 6        38.462               
G22  26356089.467 6 138502142.946 6      -964.866 6        38.302               
G23  22074030.567 6 115999842.215 6      1749.242 6        40.965               
G24  21380737.546 7 112356549.557 7       161.291 7        47.077               
> 2025 08 06 06 41 41.0000000  0  9                                             
G05  25465574.539 7 133822498.201 7     -3255.301 7        47.334               
G12  26191853.437 7 137639129.367 7      3242.766 7        43.617               
G13  25140359.536 6 132113488.378 6     -2877.482 6        41.944               
G14  26783832.474 6 140749970.518 6     -1544.450 6        37.424               
G15  22373651.518 7 117574361.476 7     -1700.208 7        44.512               
G18  23160706.715 6 121710388.154 6     -1832.480 6        38.480               
G22  26356271.320 6 138503108.126 6      -965.473 6        38.273               
G23  22073697.417 6 115998093.035 6      1748.998 6        40.970               
G24  21380706.454 7 112356388.467 7       160.808 7        46.997               
> 2025 08 06 06 41 42.0000000  0  9                                             
G05  25466194.326 7 133825753.688 7     -3255.466 7        47.195               
G12  26191236.723 7 137635886.568 7      3242.802 7        43.695               
G13  25140909.866 6 132116365.936 6     -2877.443 6        41.949               
G14  26784124.883 6 140751515.210 6     -1544.937 6        37.393               
G15  22373975.251 7 117576061.872 7     -1700.552 7        44.548               
G18  23161055.412 6 121712221.091 6     -1833.369 6        38.483               
G22  26356450.368 6 138504073.877 6      -965.987 6        38.138               
G23  22073365.857 6 115996344.304 6      1748.532 6        41.080               
G24  21380677.524 7 112356228.090 7       159.987 7        46.947               
> 2025 08 06 06 41 43.0000000  0  9                                             
G05  25466814.756 7 133829009.382 7     -3255.918 7        47.170               
G12  26190620.045 7 137632643.724 7      3242.701 7        43.516               
G13  25141458.963 7 132119243.476 7     -2877.741 7        42.006               
G14  26784413.611 6 140753060.370 6     -1545.660 6        37.247               
G15  22374298.770 7 117577762.511 7     -1700.860 7        44.674               
G18  23161403.107 6 121714054.605 6     -1833.831 6        38.372               
G22  26356633.275 6 138505040.153 6      -966.738 6        38.226               
G23  22073033.994 6 115994595.964 6      1748.058 6        41.307               
G24  21380647.808 7 112356068.385 7       159.214 7        46.796               
> 2025 08 06 06 41 44.0000000  0  9                                             
G05  25467433.864 7 133832265.333 7     -3256.115 7        46.956               
G12  26190003.028 7 137629400.863 7      3242.826 7        43.606               
G13  25142000.895 6 132122121.075 6     -2877.692 6        41.900               
G14  26784707.610 6 140754606.060 6     -1546.327 6        37.209               
G15  22374622.396 7 117579463.435 7     -1701.233 7        44.685               
G18  23161750.802 6 121715888.732 6     -1834.881 6        38.111               
G22  26356810.857 6 138506007.013 6      -967.344 6        38.095               
G23  22072701.880 6 115992848.073 6      1747.587 6        41.231               
G24  21380618.556 7 112355909.385 7       158.529 7        46.684               
> 2025 08 06 06 41 45.0000000  0  9                                             
G05  25468052.258 7 133835521.495 7     -3256.385 7        46.752               
G12  26189384.760 7 137626157.962 7      3242.878 7        43.675               
G13  25142544.328 6 132124998.669 6     -2877.664 6        41.939               
G14  26784997.159 6 140756152.251 6     -1546.348 6        37.194               
G15  22374947.630 7 117581164.619 7     -1701.381 7        44.873               
G18  23162103.644 6 121717723.420 6     -1834.829 6        37.957               
G22  26356991.978 6 138506974.367 6      -967.754 6        37.954               
G23  22072372.858 6 115991100.557 6      1747.237 6        41.388               
G24  21380590.305 7 112355751.055 7       157.869 7        46.653               
> 2025 08 06 06 41 46.0000000  0  9                                             
G05  25468672.884 7 133838777.842 7     -3256.444 7        46.600               
G12  26188766.402 7 137622914.973 7      3242.848 7        43.761               
G13  25143091.585 6 132127876.224 6     -2877.717 6        41.792               
G14  26785292.070 6 140757698.874 6     -1546.752 6        37.205               
G15  22375271.149 7 117582866.014 7     -1701.559 7        44.847               
G18  23162453.412 6 121719558.644 6     -1835.276 6        37.840               
G22  26357178.102 6 138507942.247 6      -968.181 6        37.820               
G23  22072040.387 6 115989353.409 6      1746.987 6        41.464               
G24  21380560.929 7 112355593.362 7       157.346 7        46.594               
> 2025 08 06 06 41 47.0000000  0  9                                             
G05  25469292.654 7 133842034.394 7     -3256.674 7        46.536               
G12  26188149.474 7 137619671.938 7      3243.203 7        43.713               
G13  25143638.984 6 132130753.779 6     -2877.628 6        41.719               
G14  26785585.962 6 140759245.986 6     -1547.465 6        37.356               
G15  22375596.418 7 117584567.652 7     -1701.721 7        44.878               
G18  23162801.858 6 121721394.421 6     -1835.853 6        37.844               
G22  26357366.405 6 138508910.644 6      -968.367 6        37.827               
G23  22071706.576 6 115987606.654 6      1746.527 6        41.500               
G24  21380530.623 7 112355436.312 7       156.772 7        46.551               
> 2025 08 06 06 41 48.0000000  0  9                                             
G05  25469912.048 7 133845291.183 7     -3256.833 7        46.569               
G12  26187533.618 7 137616428.854 7      3243.018 7        43.725               
G13  25144187.527 6 132133631.345 6     -2877.330 6        41.759               
G14  26785881.569 6 140760793.583 6     -1547.980 6        37.460               
G15  22375921.456 7 117586269.539 7     -1701.955 7        44.906               
G18  23163151.645 6 121723230.770 6     -1836.532 6        37.905               
G22  26357555.960 6 138509879.575 6      -969.459 6        37.827               
G23  22071373.425 6 115985860.291 6      1746.276 6        41.701               
G24  21380499.370 7 112355279.940 7       155.970 7        46.565               
> 2025 08 06 06 41 49.0000000  0  9                                             
G05  25470532.264 7 133848548.147 7     -3257.212 7        46.643               
G12  26186915.189 7 137613185.701 7      3242.987 7        43.856               
G13  25144734.427 6 132136508.870 6     -2877.521 6        41.758               
G14  26786178.052 6 140762341.663 6     -1548.450 6        37.587               
G15  22376246.011 7 117587971.657 7     -1702.507 7        44.886               
G18  23163501.431 6 121725067.673 6     -1837.108 6        37.893               
G22  26357742.727 6 138510849.034 6      -969.979 6        37.702               
G23  22071040.829 6 115984114.310 6      1745.606 6        41.720               
G24  21380468.224 7 112355124.223 7       155.219 7        46.505               
> 2025 08 06 06 41 50.0000000  0  9                                             
G05  25471152.337 7 133851805.388 7     -3257.256 7        46.680               
G12  26186297.725 7 137609942.571 7      3243.171 7        43.910               
G13  25145282.166 6 132139386.454 6     -2877.450 6        41.693               
G14  26786477.751 6 140763890.285 6     -1548.771 6        37.752               
G15  22376570.262 7 117589674.088 7     -1702.502 7        45.001               
G18  23163850.484 6 121726905.216 6     -1837.957 6        37.737               
G22  26357931.853 6 138511819.086 6      -970.215 6        37.623               
G23  22070709.252 6 115982368.790 6      1745.223 6        41.804               
G24  21380441.921 7 112354969.228 7       154.680 7        46.562               
> 2025 08 06 06 41 51.0000000  0  9                                             
G05  25471773.678 7 133855062.807 7     -3257.466 7        46.900               
G12  26185681.440 7 137606699.360 7      3243.304 7        43.931               
G13  25145829.887 6 132142264.021 6     -2877.564 6        41.641               
G14  26786772.322 6 140765439.339 6     -1549.116 6        38.059               
G15  22376895.639 7 117591376.742 7     -1702.550 7        44.906               
G18  23164200.610 6 121728743.289 6     -1838.262 6        37.877               
G22  26358118.405 6 138512789.646 6      -970.771 6        37.628               
G23  22070377.353 6 115980623.630 6      1745.142 6        41.968               
G24  21380412.634 7 112354814.871 7       154.039 7        46.608               
> 2025 08 06 06 41 52.0000000  0  9                                             
G05  25472394.359 7 133858320.445 7     -3257.794 7        47.096               
G12  26185066.085 7 137603456.116 7      3243.396 7        44.065               
G13  25146376.233 6 132145141.595 6     -2877.557 6        41.593               
G14  26787064.873 6 140766988.898 6     -1549.672 6        38.409               
G15  22377219.998 7 117593079.660 7     -1703.119 7        44.959               
G18  23164552.165 6 121730581.946 6     -1838.933 6        37.970               
G22  26358303.064 6 138513760.748 6      -971.414 6        37.580               
G23  22070044.989 7 115978878.886 7      1744.550 7        42.170               
G24  21380383.346 7 112354661.205 7       153.314 7        46.706               
> 2025 08 06 06 41 53.0000000  0  9                                             
G05  25473014.217 7 133861578.319 7     -3258.056 7        47.202               
G12  26184448.996 7 137600212.843 7      3243.167 7        44.088               
G13  25146924.758 6 132148019.209 6     -2877.713 6        41.586               
G14  26787361.356 6 140768538.954 6     -1550.428 6        38.563               
G15  22377545.643 7 117594782.848 7     -1703.431 7        45.024               
G18  23164905.632 6 121732421.181 6     -1839.620 6        38.227               
G22  26358483.023 6 138514732.413 6      -971.951 6        37.501               
G23  22069712.661 7 115977134.561 7      1744.063 7        42.209               
G24  21380354.041 7 112354508.227 7       152.551 7        46.733               
> 2025 08 06 06 41 54.0000000  0  9                                             
G05  25473633.558 7 133864836.450 7     -3258.250 7        47.394               
G12  26183830.960 7 137596969.560 7      3243.353 7        44.167               
G13  25147475.588 6 132150896.872 6     -2877.843 6        41.575               
G14  26787657.196 6 140770089.544 6     -1550.848 6        38.732               
G15  22377870.037 7 117596486.336 7     -1703.622 7        45.206               
G18  23165259.939 6 121734261.033 6     -1840.097 6        38.239               
G22  26358665.448 6 138515704.635 6      -972.629 6        37.407               
G23  22069380.726 7 115975390.671 7      1743.616 7        42.190               
G24  21380322.520 7 112354355.953 7       151.857 7        46.759               
> 2025 08 06 06 41 55.0000000  0  9                                             
G05  25474253.345 7 133868094.758 7     -3258.499 7        47.624               
G12  26183214.479 7 137593726.203 7      3243.310 7        44.332               
G13  25148023.220 6 132153774.503 6     -2877.522 6        41.476               
G14  26787955.251 6 140771640.597 6     -1551.342 6        38.971               
G15  22378193.967 7 117598190.043 7     -1703.918 7        45.161               
G18  23165610.565 6 121736101.422 6     -1840.771 6        38.376               
G22  26358850.124 6 138516677.349 6      -973.252 6        37.390               
G23  22069047.790 7 115973647.156 7      1743.150 7        42.211               
G24  21380295.645 7 112354204.322 7       151.268 7        46.753               
> 2025 08 06 06 41 56.0000000  0  9                                             
G05  25474874.079 7 133871353.338 7     -3258.671 7        47.806               
G12  26182598.140 7 137590482.850 7      3243.268 7        44.446               
G13  25148572.746 6 132156652.190 6     -2877.814 6        41.350               
G14  26788249.304 6 140773192.196 6     -1551.909 6        38.966               
G15  22378516.449 7 117599894.048 7     -1704.200 7        45.448               
G18  23165964.836 6 121737942.427 6     -1841.308 6        38.419               
G22  26359033.710 6 138517650.667 6      -973.690 6        37.331               
G23  22068717.070 7 115971904.083 7      1742.896 7        42.362               
G24  21380265.607 7 112354053.403 7       150.576 7        46.896               
> 2025 08 06 06 41 57.0000000  0  9                                             
G05  25475493.562 7 133874612.078 7     -3258.991 7        47.913               
G12  26181981.337 7 137587239.394 7      3243.382 7        44.434               
G13  25149118.431 6 132159529.821 6     -2877.838 6        41.516               
G14  26788545.358 6 140774744.209 6     -1552.445 6        39.148               
G15  22378840.003 7 117601598.257 7     -1704.457 7        45.390               
G18  23166317.035 6 121739783.943 6     -1842.014 6        38.527               
G22  26359220.567 6 138518624.480 6      -974.273 6        37.297               
G23  22068384.099 7 115970161.351 7      1742.355 7        42.482               
G24  21380237.982 7 112353903.100 7       149.831 7        46.887               
> 2025 08 06 06 41 58.0000000  0  9                                             
G05  25476113.867 7 133877871.052 7     -3259.051 7        47.916               
G12  26181364.213 7 137583995.911 7      3243.574 7        44.422               
G13  25149662.257 6 132162407.480 6     -2877.765 6        41.274               
G14  26788837.856 6 140776296.739 6     -1552.634 6        39.347               
G15  22379163.093 7 117603302.737 7     -1704.740 7        45.385               
G18  23166665.141 6 121741626.048 6     -1842.734 6        38.627               
G22  26359406.190 6 138519598.812 6      -974.733 6        37.035               
G23  22068053.200 7 115968419.047 7      1742.109 7        42.432               
G24  21380212.143 7 112353753.495 7       149.237 7        46.934               
> 2025 08 06 06 41 59.0000000  0  9                                             
G05  25476733.351 7 133881130.224 7     -3259.243 7        47.890               
G12  26180747.714 7 137580752.378 7      3243.467 7        44.421               
G13  25150208.548 6 132165285.133 6     -2877.736 6        41.027               
G14  26789129.871 6 140777849.727 6     -1553.147 6        39.650               
G15  22379486.487 7 117605007.459 7     -1704.798 7        45.510               
G18  23167012.819 6 121743468.723 6     -1842.953 6        38.702               
G22  26359592.510 6 138520573.685 6      -975.264 6        36.780               
G23  22067722.516 7 115966677.132 7      1741.635 7        42.580               
G24  21380183.392 7 112353604.552 7       148.572 7        46.913               
> 2025 08 06 06 42 00.0000000  0  9                                             
G05  25477353.531 8 133884389.611 8     -3259.383 8        48.151               
G12  26180131.072 7 137577508.794 7      3243.684 7        44.496               
G13  25150755.483 6 132168162.769 6     -2877.586 6        41.003               
G14  26789423.799 6 140779403.191 6     -1553.709 6        39.914               
G15  22379810.273 7 117606712.431 7     -1705.026 7        45.593               
G18  23167360.943 6 121745311.959 6     -1843.550 6        38.751               
G22  26359779.492 6 138521549.100 6      -975.398 6        36.532               
G23  22067392.118 7 115964935.597 7      1741.382 7        42.626               
G24  21380155.981 7 112353456.263 7       148.047 7        47.045               
> 2025 08 06 06 42 01.0000000  0  9                                             
G05  25477974.265 8 133887649.253 8     -3259.818 8        48.318               
G12  26179513.250 7 137574265.198 7      3243.555 7        44.491               
G13  25151302.204 6 132171040.442 6     -2877.656 6        40.938               
G14  26789721.122 6 140780957.176 6     -1554.400 6        40.123               
G15  22380136.955 7 117608417.689 7     -1705.460 7        45.711               
G18  23167710.282 6 121747155.802 6     -1844.234 6        38.680               
G22  26359962.792 6 138522525.060 6      -976.638 6        36.521               
G23  22067059.522 7 115963194.506 7      1740.979 7        42.760               
G24  21380124.835 7 112353308.678 7       147.186 7        46.979               
> 2025 08 06 06 42 02.0000000  0  9                                             
G05  25478593.194 8 133890909.106 8     -3260.206 8        48.511               
G12  26178895.715 7 137571021.549 7      3243.583 7        44.380               
G13  25151849.872 6 132173918.118 6     -2877.881 6        40.922               
G14  26790016.943 6 140782511.656 6     -1554.875 6        40.173               
G15  22380460.652 7 117610123.193 7     -1705.797 7        45.674               
G18  23168061.730 6 121749000.208 6     -1845.024 6        38.683               
G22  26360145.056 6 138523501.565 6      -976.772 6        36.438               
G23  22066729.123 7 115961453.795 7      1740.325 7        42.912               
G24  21380093.993 7 112353161.754 7       146.407 7        46.974               
> 2025 08 06 06 42 03.0000000  0  9                                             
G05  25479214.071 8 133894169.250 8     -3260.276 8        48.504               
G12  26178278.590 7 137567777.923 7      3243.633 7        44.443               
G13  25152397.664 6 132176795.846 6     -2877.809 6        40.561               
G14  26790316.339 6 140784066.695 6     -1555.130 6        40.162               
G15  22380783.974 7 117611829.014 7     -1705.928 7        45.705               
G18  23168414.018 6 121750845.237 6     -1845.547 6        38.723               
G22  26360326.427 6 138524478.660 6      -977.437 6        36.312               
G23  22066397.635 7 115959713.551 7      1740.066 7        42.792               
G24  21380066.868 7 112353015.565 7       145.829 7        46.896               
> 2025 08 06 06 42 04.0000000  0  9                                             
G05  25479835.377 8 133897429.527 8     -3260.403 8        48.435               
G12  26177662.270 7 137564534.186 7      3243.761 7        44.485               
G13  25152945.940 6 132179673.508 6     -2877.843 6        40.648               
G14  26790612.982 6 140785622.141 6     -1555.622 6        40.278               
G15  22381109.959 7 117613535.021 7     -1706.189 7        45.797               
G18  23168762.643 6 121752690.769 6     -1845.889 6        38.914               
G22  26360511.389 6 138525456.222 6      -977.950 6        36.278               
G23  22066064.414 7 115957973.649 7      1739.745 7        42.825               
G24  21380039.118 7 112352869.967 7       145.278 7        46.965               
> 2025 08 06 06 42 05.0000000  0  9                                             
G05  25480455.003 8 133900690.059 8     -3260.719 8        48.298               
G12  26177044.823 7 137561290.434 7      3243.650 7        44.499               
G13  25153495.341 6 132182551.207 6     -2877.838 6        40.692               
G14  26790910.430 6 140787178.104 6     -1556.209 6        40.347               
G15  22381436.051 7 117615241.308 7     -1706.449 7        45.825               
G18  23169115.002 6 121754536.906 6     -1846.754 6        39.251               
G22  26360690.812 6 138526434.339 6      -978.459 6        36.006               
G23  22065734.498 7 115956234.159 7      1739.085 7        42.796               
G24  21380012.886 7 112352725.075 7       144.495 7        47.209               
> 2025 08 06 06 42 06.0000000  0  9                                             
G05  25481076.685 8 133903950.804 8     -3260.887 8        48.272               
G12  26176427.842 7 137558046.648 7      3243.810 7        44.644               
G13  25154044.170 6 132185428.921 6     -2878.047 6        40.736               
G14  26791207.753 6 140788734.568 6     -1556.664 6        40.437               
G15  22381761.678 7 117616947.856 7     -1706.698 7        45.764               
G18  23169469.059 6 121756383.612 6     -1847.076 6        39.322               
G22  26360882.100 5 138527412.986 5      -978.777 5        35.661               
G23  22065403.278 7 115954495.084 7      1738.727 7        42.895               
G24  21379988.459 7 112352580.855 7       143.875 7        47.318               
> 2025 08 06 06 42 07.0000000  0  9                                             
G05  25481697.848 8 133907211.800 8     -3261.120 8        48.136               
G12  26175810.378 7 137554802.846 7      3243.733 7        44.795               
G13  25154592.928 6 132188306.647 6     -2877.943 6        40.700               
G14  26791501.573 6 140790291.529 6     -1557.291 6        40.483               
G15  22382086.019 7 117618654.687 7     -1706.978 7        45.845               
G18  23169821.704 6 121758230.915 6     -1847.565 6        39.256               
G22  26361068.313 5 138528392.185 5      -979.384 5        35.454               
G23  22065072.504 7 115952756.438 7      1738.433 7        43.120               
G24  21379962.406 7 112352437.350 7       143.209 7        47.405               
> 2025 08 06 06 42 08.0000000  0  9                                             
G05  25482318.171 8 133910473.009 8     -3261.417 8        48.145               
G12  26175193.521 7 137551559.001 7      3243.762 7        44.588               
G13  25155140.113 6 132191184.394 6     -2877.913 6        40.605               
G14  26791798.503 6 140791848.991 6     -1557.818 6        40.526               
G15  22382408.769 7 117620361.766 7     -1707.286 7        45.921               
G18  23170174.993 6 121760078.787 6     -1848.178 6        39.024               
G22  26361258.279 5 138529371.930 5      -979.990 5        35.218               
G23  22064742.999 7 115951018.192 7      1738.036 7        43.265               
G24  21379935.888 7 112352294.517 7       142.477 7        47.466               
> 2025 08 06 06 42 09.0000000  0  9                                             
G05  25482937.797 8 133913734.419 8     -3261.544 8        48.085               
G12  26174575.056 7 137548315.109 7      3243.881 7        44.659               
G13  25155690.389 6 132194062.125 6     -2877.739 6        40.597               
G14  26792096.129 6 140793406.932 6     -1558.286 6        40.661               
G15  22382732.466 7 117622069.098 7     -1707.696 7        45.826               
G18  23170526.405 6 121761927.221 6     -1848.767 6        39.221               
G22  26361441.847 5 138530352.253 5      -980.299 5        34.839               
G23  22064411.118 7 115949280.343 7      1737.602 7        43.329               
G24  21379907.530 7 112352152.332 7       141.758 7        47.457               
> 2025 08 06 06 42 10.0000000  0  9                                             
G05  25483559.353 7 133916996.102 7     -3261.856 7        47.952               
G12  26173957.253 7 137545071.230 7      3243.868 7        44.564               
G13  25156237.485 6 132196939.908 6     -2877.973 6        40.469               
G14  26792389.699 6 140794965.398 6     -1558.761 6        40.777               
G15  22383057.414 7 117623776.740 7     -1707.894 7        45.595               
G18  23170877.031 6 121763776.283 6     -1849.444 6        39.180               
G22  26361640.336 5 138531333.141 5      -980.862 5        34.821               
G23  22064082.060 7 115947542.945 7      1737.029 7        43.226               
G24  21379877.457 7 112352010.876 7       141.130 7        47.366               
> 2025 08 06 06 42 11.0000000  0  9                                             
G05  25484179.319 7 133920257.997 7     -3262.109 7        47.751               
G12  26173340.128 7 137541827.300 7      3243.883 7        44.659               
G13  25156783.670 6 132199817.690 6     -2877.705 6        40.461               
G14  26792684.949 6 140796524.348 6     -1559.301 6        40.875               
G15  22383381.541 7 117625484.625 7     -1708.079 7        45.705               
G18  23171228.103 6 121765625.909 6     -1849.994 6        39.161               
G22  26361828.962 5 138532314.551 5      -981.464 5        34.638               
G23  22063751.358 7 115945805.944 7      1736.653 7        43.257               
G24  21379851.654 7 112351870.084 7       140.421 7        47.310               
> 2025 08 06 06 42 12.0000000  0  9                                             
G05  25484799.624 7 133923520.131 7     -3262.222 7        47.597               
G12  26172721.306 7 137538583.337 7      3243.980 7        44.669               
G13  25157332.517 6 132202695.484 6     -2877.565 6        40.287               
G14  26792980.967 6 140798083.803 6     -1559.576 6        41.069               
G15  22383705.578 7 117627192.779 7     -1708.208 7        45.777               
G18  23171577.711 6 121767476.108 6     -1850.430 6        39.131               
G22  26362004.292 5 138533296.497 5      -982.411 5        34.698               
G23  22063419.798 7 115944069.344 7      1736.521 7        43.283               
G24  21379824.010 7 112351729.962 7       139.773 7        47.203               
> 2025 08 06 06 42 13.0000000  0  9                                             
G05  25485418.643 7 133926782.491 7     -3262.466 7        47.407               
G12  26172103.985 7 137535339.326 7      3244.012 7        44.752               
G13  25157882.418 6 132205573.262 6     -2877.488 6        40.436               
G14  26793278.576 6 140799643.726 6     -1560.213 6        41.243               
G15  22384032.777 7 117628901.168 7     -1708.602 7        45.831               
G18  23171926.782 6 121769326.870 6     -1851.389 6        39.007               
G22  26362187.039 5 138534278.934 5      -982.661 5        34.577               
G23  22063088.596 7 115942333.138 7      1735.860 7        43.357               
G24  21379798.082 7 112351590.497 7       138.884 7        47.408               
> 2025 08 06 06 42 14.0000000  0  9                                             
G05  25486039.109 7 133930045.113 7     -3262.739 7        47.173               
G12  26171487.432 7 137532095.297 7      3244.019 7        44.892               
G13  25158428.638 6 132208451.071 6     -2877.766 6        40.442               
G14  26793574.487 6 140801204.172 6     -1560.613 6        41.584               
G15  22384357.582 7 117630609.837 7     -1708.882 7        45.953               
G18  23172276.265 6 121771178.232 6     -1851.584 6        38.952               
G22  26362377.826 5 138535261.984 5      -983.436 5        34.459               
G23  22062756.554 7 115940597.365 7      1735.549 7        43.415               
G24  21379773.119 7 112351451.745 7       138.362 7        47.394               
> 2025 08 06 06 42 15.0000000  0  9                                             
G05  25486660.111 7 133933307.891 7     -3262.755 7        47.069               
G12  26170870.343 7 137528851.162 7      3244.156 7        44.989               
G13  25158977.217 6 132211328.839 6     -2877.806 6        40.470               
G14  26793870.881 6 140802765.030 6     -1561.061 6        41.751               
G15  22384683.817 7 117632318.705 7     -1708.952 7        46.146               
G18  23172628.534 6 121773030.089 6     -1852.287 6        38.972               
G22  26362564.790 5 138536245.482 5      -983.295 5        34.323               
G23  22062426.817 7 115938861.931 7      1735.327 7        43.538               
G24  21379745.780 7 112351313.597 7       137.846 7        47.369               
> 2025 08 06 06 42 16.0000000  0  9                                             
G05  25487280.631 7 133936570.917 7     -3263.250 7        46.861               
G12  26170252.289 7 137525607.031 7      3243.872 7        44.897               
G13  25159524.135 6 132214206.645 6     -2877.901 6        40.573               
G14  26794166.881 6 140804326.422 6     -1561.867 6        41.746               
G15  22385008.730 7 117634027.871 7     -1709.478 7        46.123               
G18  23172982.145 6 121774882.571 6     -1853.021 6        39.065               
G22  26362750.771 5 138537229.554 5      -984.438 5        34.197               
G23  22062098.205 7 115937126.939 7      1734.437 7        43.414               
G24  21379719.566 7 112351176.164 7       136.923 7        47.355               
> 2025 08 06 06 42 17.0000000  0  9                                             
G05  25487901.901 7 133939834.162 7     -3263.459 7        46.669               
G12  26169634.825 7 137522362.866 7      3244.343 7        44.879               
G13  25160072.410 6 132217084.444 6     -2877.856 6        40.552               
G14  26794463.775 6 140805888.305 6     -1562.252 6        41.700               
G15  22385334.357 7 117635737.298 7     -1709.733 7        46.231               
G18  23173336.630 6 121776735.618 6     -1853.480 6        39.121               
G22  26362931.623 5 138538214.190 5      -984.931 5        34.024               
G23  22061767.718 7 115935392.348 7      1734.165 7        43.310               
G24  21379695.175 7 112351039.413 7       136.304 7        47.374               
> 2025 08 06 06 42 18.0000000  0  9                                             
G05  25488523.761 7 133943097.673 7     -3263.748 7        46.484               
G12  26169017.415 7 137519118.709 7      3244.220 7        44.844               
G13  25160620.399 6 132219962.319 6     -2877.911 6        40.494               
G14  26794759.453 6 140807450.737 6     -1562.894 6        41.769               
G15  22385660.091 7 117637447.041 7     -1709.994 7        46.376               
G18  23173690.616 6 121778589.289 6     -1853.928 6        39.247               
G22  26363117.890 5 138539199.402 5      -985.514 5        33.800               
G23  22061437.891 7 115933658.228 7      1733.876 7        43.410               
G24  21379668.728 7 112350903.393 7       135.673 7        47.412               
> 2025 08 06 06 42 19.0000000  0  9                                             
G05  25489145.031 7 133946361.334 7     -3263.748 7        46.449               
G12  26168399.325 7 137515874.446 7      3244.390 7        44.798               
G13  25161167.245 6 132222840.126 6     -2877.750 6        40.467               
G14  26795056.365 6 140809013.597 6     -1563.121 6        41.724               
G15  22385984.664 7 117639156.966 7     -1710.034 7        46.490               
G18  23174043.690 6 121780443.472 6     -1854.436 6        39.347               
G22  26363311.894 5 138540185.110 5      -985.658 5        33.838               
G23  22061107.618 7 115931924.437 7      1733.524 7        43.443               
G24  21379643.176 7 112350767.974 7       135.146 7        47.425               
> 2025 08 06 06 42 20.0000000  0  9                                             
G05  25489765.515 7 133949625.224 7     -3264.023 7        46.537               
G12  26167782.773 7 137512630.158 7      3244.266 7        44.687               
G13  25161716.378 6 132225717.955 6     -2877.735 6        40.192               
G14  26795353.741 6 140810576.942 6     -1563.856 6        41.603               
G15  22386311.131 7 117640867.154 7     -1710.301 7        46.527               
G18  23174397.711 6 121782298.239 6     -1855.060 6        39.236               
G22  26363506.291 5 138541171.345 5      -986.633 5        33.854               
G23  22060776.273 7 115930191.077 7      1733.187 7        43.580               
G24  21379618.284 7 112350633.240 7       134.283 7        47.371               
> 2025 08 06 06 42 21.0000000  0  9                                             
G05  25490386.874 7 133952889.339 7     -3264.157 7        46.444               
G12  26167163.307 7 137509385.852 7      3244.411 7        44.508               
G13  25162265.028 6 132228595.786 6     -2877.816 6        40.195               
G14  26795655.228 6 140812140.790 6     -1563.923 6        41.694               
G15  22386638.170 7 117642577.621 7     -1710.581 7        46.504               
G18  23174754.627 6 121784153.573 6     -1855.575 6        38.900               
G22  26363696.006 5 138542158.149 5      -987.043 5        33.833               
G23  22060441.890 7 115928458.132 7      1732.899 7        43.510               
G24  21379592.088 7 112350499.191 7       133.784 7        47.245               
> 2025 08 06 06 42 22.0000000  0  9                                             
G05  25491008.734 7 133956153.595 7     -3264.410 7        46.297               
G12  26166546.218 7 137506141.434 7      3244.300 7        44.378               
G13  25162813.286 6 132231473.537 6     -2877.761 6        40.197               
G14  26795954.569 6 140813705.049 6     -1564.683 6        41.787               
G15  22386964.869 7 117644288.267 7     -1710.838 7        46.428               
G18  23175111.614 6 121786009.411 6     -1856.002 6        39.073               
G22  26363885.329 5 138543145.411 5      -987.089 5        33.984               
G23  22060109.883 7 115926725.501 7      1732.385 7        43.437               
G24  21379566.196 7 112350365.737 7       133.069 7        47.139               
> 2025 08 06 06 42 23.0000000  0  9                                             
G05  25491630.308 7 133959418.103 7     -3264.716 7        46.340               
G12  26165929.594 7 137502897.021 7      3244.430 7        44.262               
G13  25163357.665 6 132234351.353 6     -2877.926 6        40.186               
G14  26796254.555 7 140815269.847 7     -1565.059 7        42.000               
G15  22387291.068 7 117645999.196 7     -1711.195 7        46.292               
G18  23175464.027 6 121787865.862 6     -1856.959 6        39.067               
G22  26364067.218 5 138544133.226 5      -987.777 5        34.004               
G23  22059783.023 7 115924993.322 7      1731.795 7        43.373               
G24  21379540.500 7 112350232.994 7       132.376 7        47.013               
> 2025 08 06 06 42 24.0000000  0  9                                             
G05  25492250.989 7 133962682.808 7     -3264.699 7        46.396               
G12  26165311.719 7 137499652.547 7      3244.624 7        44.358               
G13  25163903.439 6 132237229.155 6     -2877.756 6        40.121               
G14  26796554.397 7 140816835.106 7     -1565.471 7        42.229               
G15  22387616.731 7 117647710.378 7     -1711.241 7        46.351               
G18  23175818.906 6 121789722.868 6     -1857.143 6        39.403               
G22  26364251.251 5 138545121.579 5      -988.376 5        33.780               
G23  22059454.644 7 115923261.531 7      1731.595 7        43.560               
G24  21379512.339 7 112350100.900 7       131.895 7        46.975               
> 2025 08 06 06 42 25.0000000  0  9                                             
G05  25492871.902 7 133965947.743 7     -3265.079 7        46.529               
G12  26164694.970 7 137496408.058 7      3244.600 7        44.122               
G13  25164452.769 6 132240106.973 6     -2877.616 6        40.166               
G14  26796852.148 7 140818400.877 7     -1566.042 7        42.503               
G15  22387942.877 7 117649421.833 7     -1711.629 7        46.402               
G18  23176172.891 6 121791580.457 6     -1857.826 6        39.472               
G22  26364430.316 5 138546110.465 5      -989.073 5        33.544               
G23  22059126.587 7 115921530.169 7      1731.103 7        43.676               
G24  21379486.768 7 112349969.493 7       130.988 7        47.072               
> 2025 08 06 06 42 26.0000000  0  9                                             
G05  25493493.976 7 133969212.827 7     -3265.155 7        46.553               
G12  26164077.130 7 137493163.453 7      3244.394 7        43.894               
G13  25164997.202 6 132242984.743 6     -2877.755 6        40.100               
G14  26797148.738 7 140819967.069 7     -1566.543 7        42.762               
G15  22388266.556 7 117651133.467 7     -1711.804 7        46.303               
G18  23176525.983 6 121793438.550 6     -1858.493 6        39.503               
G22  26364616.940 5 138547099.806 5      -989.831 5        33.410               
G23  22058798.708 7 115919799.136 7      1730.634 7        43.664               
G24  21379461.448 7 112349838.701 7       130.398 7        46.971               
> 2025 08 06 06 42 27.0000000  0  9                                             
G05  25494115.514 7 133972478.139 7     -3265.341 7        46.617               
G12  26163460.077 7 137489918.831 7      3244.851 7        43.871               
G13  25165544.405 6 132245862.517 6     -2877.848 6        40.176               
G14  26797443.613 7 140821533.752 7     -1566.910 7        43.027               
G15  22388589.753 7 117652845.380 7     -1711.983 7        46.258               
G18  23176877.306 6 121795297.223 6     -1858.807 6        39.793               
G22  26364812.695 5 138548089.751 5      -990.267 5        33.291               
G23  22058470.812 7 115918068.520 7      1730.581 7        43.713               
G24  21379436.538 7 112349708.585 7       129.799 7        46.917               
> 2025 08 06 06 42 28.0000000  0  9                                             
G05  25494736.766 7 133975743.666 7     -3265.685 7        46.693               
G12  26162842.845 7 137486674.164 7      3244.749 7        43.897               
G13  25166093.020 6 132248740.305 6     -2877.801 6        40.218               
G14  26797738.863 7 140823100.915 7     -1567.451 7        43.271               
G15  22388913.844 7 117654557.536 7     -1712.257 7        46.244               
G18  23177228.092 6 121797156.468 6     -1859.308 6        39.782               
G22  26365005.931 5 138549080.182 5      -990.789 5        33.266               
G23  22058141.485 7 115916338.307 7      1730.010 7        43.591               
G24  21379414.256 7 112349579.141 7       129.112 7        47.011               
> 2025 08 06 06 42 29.0000000  0  9                                             
G05  25495358.323 7 133979009.376 7     -3265.763 7        46.809               
G12  26162224.720 7 137483429.416 7      3244.868 7        43.835               
G13  25166641.009 6 132251618.044 6     -2877.605 6        40.124               
G14  26798036.096 7 140824668.521 7     -1567.769 7        43.592               
G15  22389239.971 7 117656269.909 7     -1712.451 7        46.247               
G18  23177579.934 6 121799016.236 6     -1860.150 6        39.809               
G22  26365192.877 5 138550071.120 5      -991.249 5        33.600               
G23  22057811.820 7 115914608.453 7      1729.700 7        43.574               
G24  21379391.830 7 112349450.334 7       128.520 7        47.049               
> 2025 08 06 06 42 30.0000000  0  9                                             
G05  25495981.362 7 133982275.225 7     -3266.326 7        47.121               
G12  26161609.329 7 137480184.565 7      3244.562 7        43.889               
G13  25167189.642 6 132254495.714 6     -2878.143 6        40.159               
G14  26798334.795 7 140826236.548 7     -1568.471 7        43.708               
G15  22389565.902 7 117657982.469 7     -1712.963 7        46.240               
G18  23177934.044 6 121800876.517 6     -1860.798 6        39.910               
G22  26365382.646 5 138551062.542 5      -991.943 5        33.722               
G23  22057482.011 7 115912878.936 7      1729.168 7        43.591               
G24  21379365.902 7 112349322.124 7       127.556 7        47.010               
> 2025 08 06 06 42 31.0000000  0  9                                             
G05  25496601.864 7 133985541.340 7     -3266.363 7        47.179               
G12  26160992.312 7 137476939.709 7      3244.735 7        43.782               
G13  25167739.275 6 132257373.423 6     -2877.695 6        40.228               
G14  26798635.495 7 140827805.095 7     -1568.907 7        43.819               
G15  22389894.246 7 117659695.322 7     -1713.077 7        46.171               
G18  23178290.781 6 121802737.394 6     -1861.073 6        39.891               
G22  26365582.261 5 138552054.543 5      -992.109 5        33.724               
G23  22057152.489 7 115911149.864 7      1728.756 7        43.545               
G24  21379340.117 7 112349194.623 7       127.049 7        47.010               
> 2025 08 06 06 42 32.0000000  0  9                                             
G05  25497224.224 7 133988807.671 7     -3266.401 7        47.320               
G12  26160374.508 7 137473694.819 7      3244.893 7        43.816               
G13  25168286.871 6 132260251.160 6     -2877.617 6        40.153               
G14  26798935.480 7 140829374.153 7     -1569.346 7        43.926               
G15  22390222.482 7 117661408.427 7     -1713.301 7        46.182               
G18  23178645.678 6 121804598.832 6     -1861.966 6        39.719               
G22  26365779.463 5 138553047.064 5      -992.625 5        33.767               
G23  22056823.949 7 115909421.203 7      1728.520 7        43.566               
G24  21379316.048 7 112349067.809 7       126.487 7        47.003               
> 2025 08 06 06 42 33.0000000  0  9                                             
G05  25497846.530 7 133992074.240 7     -3266.586 7        47.483               
G12  26159756.990 7 137470449.913 7      3245.139 7        43.768               
G13  25168833.109 6 132263128.891 6     -2877.612 6        40.032               
G14  26799239.628 7 140830943.697 7     -1569.746 7        44.108               
G15  22390549.306 7 117663121.814 7     -1713.422 7        46.291               
G18  23179004.488 6 121806460.874 6     -1862.189 6        39.760               
G22  26365967.231 5 138554040.139 5      -993.247 5        34.018               
G23  22056495.516 7 115907692.959 7      1728.020 7        43.537               
G24  21379290.959 7 112348941.666 7       125.853 7        46.843               
> 2025 08 06 06 42 34.0000000  0  9                                             
G05  25498468.587 7 133995340.986 7     -3266.866 7        47.718               
G12  26159139.455 7 137467204.924 7      3245.012 7        43.694               
G13  25169381.438 6 132266006.598 6     -2877.900 6        39.888               
G14  26799542.526 7 140832513.695 7     -1570.209 7        44.281               
G15  22390875.523 7 117664835.413 7     -1713.769 7        46.275               
G18  23179359.599 6 121808323.446 6     -1862.891 6        39.826               
G22  26366149.995 5 138555033.729 5      -993.730 5        34.276               
G23  22056169.353 7 115905965.088 7      1727.779 7        43.492               
G24  21379268.927 7 112348816.166 7       125.099 7        46.739               
> 2025 08 06 06 42 35.0000000  0  9                                             
G05  25499091.090 7 133998607.915 7     -3267.050 7        47.690               
G12  26158521.276 7 137463959.885 7      3245.044 7        43.689               
G13  25169929.142 6 132268884.306 6     -2877.641 6        39.950               
G14  26799842.887 7 140834084.170 7     -1570.727 7        44.269               
G15  22391201.007 7 117666549.241 7     -1713.992 7        46.289               
G18  23179712.923 6 121810186.566 6     -1863.484 6        39.916               
G22  26366334.546 5 138556027.833 5      -994.229 5        34.505               
G23  22055839.312 7 115904237.595 7      1727.153 7        43.417               
G24  21379247.645 7 112348691.312 7       124.434 7        46.684               
> 2025 08 06 06 42 36.0000000  0  9                                             
G05  25499713.164 7 134001875.131 7     -3267.238 7        47.673               
G12  26157902.758 7 137460714.872 7      3245.058 7        43.756               
G13  25170475.469 6 132271762.054 6     -2877.677 6        40.046               
G14  26800139.012 7 140835655.200 7     -1571.214 7        44.462               
G15  22391527.224 7 117668263.398 7     -1714.115 7        46.371               
G18  23180068.195 6 121812050.319 6     -1864.086 6        40.036               
G22  26366525.852 5 138557022.526 5      -995.212 5        34.736               
G23  22055509.575 7 115902510.571 7      1726.870 7        43.291               
G24  21379224.397 7 112348567.209 7       123.875 7        46.588               
> 2025 08 06 06 42 37.0000000  0  9                                             
G05  25500334.792 7 134005142.460 7     -3267.572 7        47.673               
G12  26157285.490 7 137457469.733 7      3245.067 7        43.828               
G13  25171020.456 6 132274639.719 6     -2877.867 6        40.005               
G14  26800433.172 7 140837226.603 7     -1571.744 7        44.397               
G15  22391852.762 7 117669977.708 7     -1714.501 7        46.407               
G18  23180420.447 6 121813914.553 6     -1864.607 6        40.336               
G22  26366712.887 5 138558017.679 5      -995.906 5        34.825               
G23  22055179.480 7 115900783.864 7      1726.471 7        43.149               
G24  21379202.311 7 112348443.678 7       123.061 7        46.773               
> 2025 08 06 06 42 38.0000000  0  9                                             
G05  25500956.312 7 134008410.056 7     -3267.729 7        47.688               
G12  26156668.240 7 137454224.580 7      3244.998 7        43.882               
G13  25171567.499 6 132277517.449 6     -2877.823 6        39.729               
G14  26800728.404 7 140838798.548 7     -1572.266 7        44.402               
G15  22392178.639 7 117671692.315 7     -1714.765 7        46.615               
G18  23180773.467 6 121815779.393 6     -1865.255 6        40.486               
G22  26366903.568 5 138559013.377 5      -996.096 5        35.022               
G23  22054850.315 7 115899057.597 7      1725.968 7        43.035               
G24  21379179.189 7 112348320.863 7       122.442 7        46.698               
> 2025 08 06 06 42 39.0000000  0  9                                             
G05  25501577.475 7 134011677.858 7     -3267.954 7        47.581               
G12  26156050.669 7 137450979.390 7      3245.292 7        43.894               
G13  25172115.899 6 132280395.168 6     -2877.769 6        39.808               
G14  26801024.244 7 140840370.970 7     -1572.645 7        44.319               
G15  22392504.195 7 117673407.181 7     -1714.965 7        46.636               
G18  23181128.525 6 121817644.799 6     -1865.831 6        40.477               
G22  26367091.764 5 138560009.641 5      -996.431 5        35.164               
G23  22054522.294 7 115897331.742 7      1725.790 7        42.803               
G24  21379154.923 7 112348198.713 7       121.735 7        46.740               
> 2025 08 06 06 42 40.0000000  0  9                                             
G05  25502199.371 7 134014945.868 7     -3268.172 7        47.566               
G12  26155434.706 7 137447734.184 7      3245.323 7        43.844               
G13  25172661.083 6 132283272.891 6     -2877.895 6        39.776               
G14  26801323.889 7 140841943.879 7     -1573.103 7        44.304               
G15  22392831.842 7 117675122.272 7     -1715.291 7        46.711               
G18  23181482.600 6 121819510.751 6     -1866.294 6        40.563               
G22  26367279.371 5 138561006.395 5      -997.222 5        35.332               
G23  22054195.076 7 115895606.263 7      1725.313 7        42.602               
G24  21379129.692 7 112348077.216 7       121.206 7        46.819               
> 2025 08 06 06 42 41.0000000  0  9                                             
G05  25502821.320 7 134018214.028 7     -3268.197 7        47.650               
G12  26154816.956 7 137444488.862 7      3245.373 7        43.888               
G13  25173212.396 6 132286150.552 6     -2877.696 6        39.807               
G14  26801625.929 7 140843517.207 7     -1573.491 7        44.252               
G15  22393158.648 7 117676837.562 7     -1715.207 7        46.676               
G18  23181836.442 6 121821377.225 6     -1866.619 6        40.600               
G22  26367470.248 5 138562003.645 5      -997.582 5        35.391               
G23  22053866.572 7 115893881.135 7      1724.957 7        42.464               
G24  21379108.106 7 112347956.333 7       120.575 7        46.795               
> 2025 08 06 06 42 42.0000000  0  9                                             
G05  25503441.321 7 134021482.389 7     -3268.427 7        47.568               
G12  26154200.117 7 137441243.498 7      3245.371 7        44.007               
G13  25173763.137 6 132289028.195 6     -2877.551 6        39.925               
G14  26801928.291 7 140845091.009 7     -1574.084 7        44.414               
G15  22393483.846 7 117678553.103 7     -1715.594 7        46.520               
G18  23182191.053 6 121823244.252 6     -1867.393 6        40.509               
G22  26367662.465 5 138563001.426 5      -997.925 5        35.675               
G23  22053538.264 7 115892156.406 7      1724.565 7        42.379               
G24  21379084.394 7 112347836.106 7       119.881 7        46.795               
> 2025 08 06 06 42 43.0000000  0  9                                             
G05  25504063.110 7 134024750.966 7     -3268.834 7        47.550               
G12  26153582.099 7 137437998.096 7      3245.356 7        44.033               
G13  25174312.163 6 132291905.840 6     -2877.882 6        39.968               
G14  26802230.295 7 140846665.307 7     -1574.793 7        44.432               
G15  22393809.706 7 117680268.886 7     -1715.999 7        46.513               
G18  23182544.520 6 121825111.830 6     -1868.152 6        40.434               
G22  26367848.875 5 138563999.713 5      -998.851 5        35.833               
G23  22053210.207 7 115890432.070 7      1723.888 7        42.494               
G24  21379060.002 7 112347716.550 7       119.116 7        46.786               
> 2025 08 06 06 42 44.0000000  0  9                                             
G05  25504685.059 7 134028019.767 7     -3268.993 7        47.383               
G12  26152964.617 7 137434752.660 7      3245.486 7        43.993               
G13  25174859.223 6 132294783.488 6     -2877.737 6        39.958               
G14  26802532.746 7 140848240.090 7     -1575.103 7        44.562               
G15  22394136.423 7 117681984.937 7     -1716.203 7        46.480               
G18  23182899.220 6 121826979.993 6     -1868.668 6        40.539               
G22  26368040.645 5 138564998.586 5      -999.064 5        35.949               
G23  22052880.666 7 115888708.152 7      1723.740 7        42.638               
G24  21379037.630 7 112347597.666 7       118.594 7        46.707               
> 2025 08 06 06 42 45.0000000  0  9                                             
G05  25505305.204 7 134031288.786 7     -3269.249 7        47.287               
G12  26152347.814 7 137431507.181 7      3245.522 7        44.046               
G13  25175409.910 6 132297661.150 6     -2877.793 6        40.085               
G14  26802833.143 7 140849815.369 7     -1575.565 7        44.715               
G15  22394462.265 7 117683701.233 7     -1716.436 7        46.565               
G18  23183254.492 6 121828848.715 6     -1868.955 6        40.533               
G22  26368226.036 6 138565997.951 6      -999.466 6        36.100               
G23  22052551.233 7 115886984.632 7      1723.248 7        42.701               
G24  21379014.669 7 112347479.451 7       117.867 7        46.656               
> 2025 08 06 06 42 46.0000000  0  9                                             
G05  25505926.313 7 134034558.052 7     -3269.424 7        47.163               
G12  26151729.975 7 137428261.694 7      3245.552 7        43.976               
G13  25175955.380 6 132300538.832 6     -2877.747 6        40.215               
G14  26803130.823 7 140851391.156 7     -1576.016 7        44.974               
G15  22394787.910 7 117685417.810 7     -1716.744 7        46.516               
G18  23183608.263 6 121830718.042 6     -1869.612 6        40.285               
G22  26368417.735 6 138566997.894 6     -1000.167 6        36.227               
G23  22052221.460 7 115885261.555 7      1723.024 7        42.705               
G24  21378990.277 7 112347361.933 7       117.197 7        46.539               
> 2025 08 06 06 42 47.0000000  0  9                                             
G05  25506547.762 7 134037827.533 7     -3269.633 7        46.915               
G12  26151111.796 7 137425016.170 7      3245.656 7        43.784               
G13  25176501.279 6 132303416.525 6     -2877.450 6        40.121               
G14  26803428.789 7 140852967.432 7     -1576.476 7        45.090               
G15  22395116.736 7 117687134.651 7     -1717.013 7        46.350               
G18  23183963.874 6 121832587.938 6     -1870.271 6        40.181               
G22  26368607.129 6 138567998.368 6     -1000.567 6        36.181               
G23  22051892.652 7 115883538.884 7      1722.392 7        42.535               
G24  21378969.496 7 112347245.090 7       116.395 7        46.520               
> 2025 08 06 06 42 48.0000000  0  9                                             
G05  25507170.497 7 134041097.243 7     -3269.738 7        46.762               
G12  26150493.117 7 137421770.603 7      3245.589 7        43.955               
G13  25177048.982 6 132306294.211 6     -2877.677 6        40.172               
G14  26803725.825 7 140854544.184 7     -1576.938 7        45.135               
G15  22395445.669 7 117688851.751 7     -1717.173 7        46.242               
G18  23184320.683 6 121834458.396 6     -1870.617 6        40.150               
G22  26368800.311 6 138568999.392 6     -1001.351 6        36.291               
G23  22051565.488 7 115881816.618 7      1722.173 7        42.715               
G24  21378949.858 7 112347128.925 7       115.868 7        46.652               
> 2025 08 06 06 42 49.0000000  0  9                                             
G05  25507792.822 7 134044367.157 7     -3270.118 7        46.511               
G12  26149875.564 7 137418524.985 7      3245.463 7        43.813               
G13  25177596.221 6 132309171.899 6     -2877.442 6        40.209               
G14  26804024.631 7 140856121.418 7     -1577.590 7        44.985               
G15  22395772.690 7 117690569.092 7     -1717.464 7        46.300               
G18  23184676.419 6 121836329.402 6     -1871.435 6        39.941               
G22  26368996.030 6 138570000.924 6     -1001.951 6        36.412               
G23  22051239.897 7 115880094.751 7      1721.647 7        42.749               
G24  21378930.095 7 112347013.408 7       115.135 7        46.403               
> 2025 08 06 06 42 50.0000000  0  9                                             
G05  25508415.218 7 134047637.280 7     -3270.204 7        46.400               
G12  26149257.921 7 137415279.317 7      3245.700 7        43.933               
G13  25178144.353 6 132312049.573 6     -2877.798 6        40.413               
G14  26804322.418 7 140857699.120 7     -1577.864 7        45.154               
G15  22396098.210 7 117692286.672 7     -1717.620 7        46.188               
G18  23185032.799 6 121838200.991 6     -1871.677 6        39.786               
G22  26369186.746 6 138571003.001 6     -1002.246 6        36.593               
G23  22050914.341 7 115878373.269 7      1721.256 7        42.857               
G24  21378907.705 7 112346898.558 7       114.596 7        46.430               
> 2025 08 06 06 42 51.0000000  0  9                                             
G05  25509038.150 7 134050907.590 7     -3270.287 7        46.315               
G12  26148640.778 7 137412033.603 7      3245.785 7        43.912               
G13  25178690.877 6 132314927.247 6     -2877.478 6        40.429               
G14  26804624.298 7 140859277.273 7     -1578.289 7        45.060               
G15  22396424.123 7 117694004.483 7     -1718.046 7        46.039               
G18  23185388.607 6 121840073.097 6     -1872.333 6        39.693               
G22  26369377.319 6 138572005.584 6     -1002.995 6        36.616               
G23  22050591.859 7 115876652.175 7      1721.088 7        42.817               
G24  21378886.816 7 112346784.354 7       113.899 7        46.612               
> 2025 08 06 06 42 52.0000000  0  9                                             
G05  25509660.635 7 134054178.113 7     -3270.586 7        46.157               
G12  26148024.797 7 137408787.839 7      3245.755 7        44.082               
G13  25179239.456 6 132317804.898 6     -2877.552 6        40.294               
G14  26804925.963 7 140860855.915 7     -1578.761 7        44.987               
G15  22396748.910 7 117695722.545 7     -1718.116 7        45.826               
G18  23185746.631 6 121841945.783 6     -1872.712 6        39.629               
G22  26369569.590 6 138573008.696 6     -1003.286 6        36.678               
G23  22050265.588 7 115874931.469 7      1720.566 7        42.837               
G24  21378864.962 7 112346670.826 7       113.254 7        46.673               
> 2025 08 06 06 42 53.0000000  0  9                                             
G05  25510283.978 7 134057448.865 7     -3270.781 7        45.951               
G12  26147408.316 7 137405542.062 7      3245.999 7        44.144               
G13  25179786.767 6 132320682.564 6     -2877.711 6        40.147               
G14  26805230.308 7 140862435.064 7     -1579.357 7        45.092               
G15  22397073.054 7 117697440.886 7     -1718.432 7        45.684               
G18  23186105.477 6 121843819.050 6     -1873.242 6        39.553               
G22  26369761.700 6 138574012.373 6     -1003.909 6        36.792               
G23  22049940.104 7 115873211.199 7      1720.118 7        42.992               
G24  21378842.447 7 112346557.978 7       112.529 7        46.604               
> 2025 08 06 06 42 54.0000000  0  9                                             
G05  25510906.070 7 134060719.817 7     -3271.103 7        45.831               
G12  26146789.565 7 137402296.235 7      3245.857 7        44.188               
G13  25180332.415 6 132323560.238 6     -2877.911 6        40.204               
G14  26805533.080 7 140864014.696 7     -1579.971 7        44.980               
G15  22397399.200 7 117699159.472 7     -1718.829 7        45.565               
G18  23186461.660 6 121845692.856 6     -1874.157 6        39.455               
G22  26369953.327 6 138575016.558 6     -1004.569 6        37.065               
G23  22049610.492 7 115871491.314 7      1719.638 7        43.089               
G24  21378820.164 7 112346445.784 7       111.784 7        46.672               
> 2025 08 06 06 42 55.0000000  0  9                                             
G05  25511528.484 7 134063990.927 7     -3271.408 7        45.786               
G12  26146172.191 7 137399050.307 7      3245.751 7        44.148               
G13  25180880.226 6 132326437.848 6     -2877.801 6        40.310               
G14  26805835.996 7 140865594.740 7     -1580.353 7        45.181               
G15  22397728.365 7 117700878.250 7     -1718.944 7        45.539               
G18  23186820.291 6 121847567.178 6     -1874.765 6        39.532               
G22  26370146.527 6 138576021.232 6     -1004.930 6        37.377               
G23  22049281.255 7 115869771.778 7      1719.214 7        43.251               
G24  21378798.168 7 112346334.204 7       111.095 7        46.751               
> 2025 08 06 06 42 56.0000000  0  9                                             
G05  25512152.756 7 134067262.295 7     -3271.559 7        45.711               
G12  26145555.727 7 137395804.385 7      3245.852 7        44.218               
G13  25181427.876 6 132329315.510 6     -2877.637 6        40.117               
G14  26806136.911 7 140867175.333 7     -1580.870 7        45.199               
G15  22398057.780 7 117702597.316 7     -1719.159 7        45.533               
G18  23187177.368 6 121849442.107 6     -1875.249 6        39.611               
G22  26370336.832 6 138577026.464 6     -1005.556 6        37.448               
G23  22048951.215 7 115868052.695 7      1718.957 7        43.206               
G24  21378777.171 7 112346223.331 7       110.514 7        46.758               
> 2025 08 06 06 42 57.0000000  0  9                                             
G05  25512775.188 7 134070533.875 7     -3271.811 7        45.700               
G12  26144936.941 7 137392558.436 7      3245.821 7        44.150               
G13  25181973.828 6 132332193.177 6     -2877.874 6        39.960               
G14  26806436.145 7 140868756.413 7     -1581.619 7        45.346               
G15  22398386.731 7 117704316.647 7     -1719.606 7        45.481               
G18  23187535.213 6 121851317.608 6     -1875.848 6        39.706               
G22  26370527.245 6 138578032.240 6     -1006.227 6        37.485               
G23  22048624.587 7 115866334.012 7      1718.395 7        43.106               
G24  21378756.032 7 112346113.141 7       109.702 7        46.691               
> 2025 08 06 06 42 58.0000000  0  9                                             
G05  25513397.995 7 134073805.638 7     -3271.733 7        45.655               
G12  26144318.887 7 137389312.420 7      3246.024 7        44.368               
G13  25182521.067 6 132335070.825 6     -2877.441 6        39.913               
G14  26806735.237 7 140870337.962 7     -1581.813 7        45.330               
G15  22398714.002 7 117706036.203 7     -1719.632 7        45.443               
G18  23187893.683 6 121853193.653 6     -1876.321 6        39.789               
G22  26370718.354 6 138579038.525 6     -1006.317 6        37.699               
G23  22048298.960 7 115864615.722 7      1718.078 7        43.096               
G24  21378736.502 7 112346003.607 7       109.223 7        46.797               
> 2025 08 06 06 42 59.0000000  0  9                                             
G05  25514021.999 7 134077077.598 7     -3272.073 7        45.741               
G12  26143700.690 7 137386066.348 7      3246.211 7        44.352               
G13  25183063.946 6 132337948.445 6     -2877.402 6        39.751               
G14  26807034.311 7 140871919.970 7     -1582.267 7        45.431               
G15  22399039.647 7 117707755.996 7     -1719.900 7        45.340               
G18  23188253.029 6 121855070.242 6     -1876.796 6        39.562               
G22  26370906.961 6 138580045.329 6     -1007.129 6        37.625               
G23  22047974.154 7 115862897.816 7      1717.642 7        43.138               
G24  21378717.257 7 112345894.715 7       108.589 7        46.817               
> 2025 08 06 06 43 00.0000000  0  9                                             
G05  25514644.645 7 134080349.794 7     -3272.321 7        45.742               
G12  26143083.798 7 137382820.274 7      3246.057 7        44.455               
G13  25183612.239 6 132340826.113 6     -2877.401 6        39.679               
G14  26807331.330 7 140873502.487 7     -1582.728 7        45.401               
G15  22399363.970 7 117709476.063 7     -1720.234 7        45.385               
G18  23188609.141 6 121856947.418 6     -1877.370 6        39.513               
G22  26371103.878 6 138581052.705 6     -1007.587 6        37.819               
G23  22047649.260 7 115861180.342 7      1717.273 7        43.110               
G24  21378694.080 7 112345786.530 7       107.802 7        46.884               
> 2025 08 06 06 43 01.0000000  0  9                                             
G05  25515267.345 7 134083622.162 7     -3272.428 7        45.885               
G12  26142465.030 7 137379574.112 7      3246.283 7        44.458               
G13  25184160.550 6 132343703.714 6     -2877.290 6        39.741               
G14  26807630.403 7 140875085.452 7     -1583.218 7        45.444               
G15  22399690.241 7 117711196.377 7     -1720.412 7        45.408               
G18  23188965.986 6 121858825.121 6     -1877.983 6        39.577               
G22  26371297.328 6 138582060.560 6     -1008.128 6        37.906               
G23  22047320.988 7 115859463.225 7      1716.824 7        42.990               
G24  21378670.565 7 112345678.958 7       107.297 7        46.961               
> 2025 08 06 06 43 02.0000000  0  9                                             
G05  25515890.402 7 134086894.690 7     -3272.453 7        46.001               
G12  26141847.280 7 137376327.860 7      3246.330 7        44.649               
G13  25184708.843 6 132346581.291 6     -2877.507 6        39.766               
G14  26807931.050 7 140876668.862 7     -1583.612 7        45.375               
G15  22400019.477 7 117712916.884 7     -1720.431 7        45.532               
G18  23189323.062 6 121860703.341 6     -1878.787 6        39.619               
G22  26371486.668 6 138583068.907 6     -1008.660 6        38.167               
G23  22046995.915 7 115857746.477 7      1716.671 7        43.011               
G24  21378650.176 7 112345572.007 7       106.767 7        47.066               
> 2025 08 06 06 43 03.0000000  0  9                                             
G05  25516514.388 7 134090167.453 7     -3272.894 7        46.113               
G12  26141228.904 7 137373081.595 7      3246.267 7        44.720               
G13  25185257.904 6 132349458.901 6     -2877.532 6        39.734               
G14  26808231.964 7 140878252.752 7     -1584.039 7        45.472               
G15  22400349.947 7 117714637.667 7     -1721.027 7        45.513               
G18  23189680.443 6 121862582.147 6     -1879.102 6        39.503               
G22  26371680.904 6 138584077.803 6     -1009.087 6        38.240               
G23  22046669.019 7 115856030.145 7      1716.079 7        43.056               
G24  21378628.412 7 112345465.747 7       105.951 7        46.977               
> 2025 08 06 06 43 04.0000000  0  9                                             
G05  25517137.588 7 134093440.448 7     -3273.098 7        46.365               
G12  26140610.993 7 137369835.305 7      3246.202 7        45.024               
G13  25185806.483 6 132352336.498 6     -2877.641 6        39.588               
G14  26808533.879 7 140879837.143 7     -1584.760 7        45.355               
G15  22400678.362 7 117716358.712 7     -1721.258 7        45.481               
G18  23190035.607 6 121864461.537 6     -1880.047 6        39.693               
G22  26371869.834 6 138585087.245 6     -1010.036 6        38.359               
G23  22046342.087 7 115854314.237 7      1715.754 7        42.996               
G24  21378608.738 7 112345360.170 7       105.140 7        46.933               
> 2025 08 06 06 43 05.0000000  0  9                                             
G05  25517759.734 7 134096713.662 7     -3273.334 7        46.429               
G12  26139992.368 7 137366588.982 7      3246.386 7        45.067               
G13  25186356.831 6 132355214.103 6     -2877.842 6        39.730               
G14  26808837.492 7 140881422.013 7     -1585.150 7        45.200               
G15  22401008.331 7 117718080.004 7     -1721.450 7        45.324               
G18  23190391.058 6 121866341.486 6     -1880.069 6        39.688               
G22  26372060.442 6 138586097.221 6     -1010.267 6        38.679               
G23  22046016.031 7 115852598.730 7      1715.339 7        42.874               
G24  21378590.601 7 112345255.263 7       104.533 7        47.102               
> 2025 08 06 06 43 06.0000000  0  9                                             
G05  25518382.737 7 134099987.068 7     -3273.549 7        46.531               
G12  26139374.100 7 137363342.600 7      3246.450 7        45.160               
G13  25186904.052 6 132358091.701 6     -2877.655 6        39.668               
G14  26809142.391 7 140883007.353 7     -1585.589 7        45.092               
G15  22401337.336 7 117719801.532 7     -1721.718 7        45.326               
G18  23190748.635 6 121868221.971 6     -1880.895 6        39.701               
G22  26372249.264 6 138587107.713 6     -1010.778 6        38.648               
G23  22045687.491 7 115850883.617 7      1714.949 7        42.834               
G24  21378574.036 7 112345151.009 7       103.859 7        47.000               
> 2025 08 06 06 43 07.0000000  0  9                                             
G05  25519005.169 7 134103260.720 7     -3273.801 7        46.580               
G12  26138756.332 7 137360096.218 7      3246.388 7        44.983               
G13  25187454.490 6 132360969.339 6     -2877.493 6        39.731               
G14  26809447.361 7 140884593.215 7     -1586.080 7        45.007               
G15  22401663.338 7 117721523.349 7     -1721.945 7        45.319               
G18  23191104.443 6 121870103.064 6     -1881.256 6        39.630               
G22  26372442.018 6 138588118.763 6     -1011.183 6        38.450               
G23  22045359.755 7 115849168.936 7      1714.437 7        42.642               
G24  21378552.737 7 112345047.449 7       103.283 7        47.012               
> 2025 08 06 06 43 08.0000000  0  9                                             
G05  25519627.476 7 134106534.577 7     -3274.059 7        46.729               
G12  26138139.529 7 137356849.787 7      3246.509 7        44.958               
G13  25188001.300 6 132363846.960 6     -2877.652 6        39.684               
G14  26809753.404 7 140886179.548 7     -1586.675 7        45.061               
G15  22401989.055 7 117723245.396 7     -1722.206 7        45.356               
G18  23191464.307 6 121871984.715 6     -1882.112 6        39.618               
G22  26372636.576 6 138589130.336 6     -1011.731 6        38.404               
G23  22045034.807 7 115847454.651 7      1713.993 7        42.704               
G24  21378532.795 7 112344944.548 7       102.503 7        47.024               
> 2025 08 06 06 43 09.0000000  0  9                                             
G05  25520250.783 7 134109808.678 7     -3274.150 7        46.950               
G12  26137523.441 7 137353603.351 7      3246.610 7        44.822               
G13  25188546.233 6 132366724.620 6     -2877.673 6        39.611               
G14  26810059.233 7 140887766.423 7     -1587.123 7        44.842               
G15  22402315.504 7 117724967.749 7     -1722.395 7        45.348               
G18  23191822.385 6 121873866.959 6     -1882.801 6        39.544               
G22  26372832.027 6 138590142.505 6     -1012.323 6        38.575               
G23  22044710.359 7 115845740.820 7      1713.653 7        42.748               
G24  21378513.818 7 112344842.358 7       101.881 7        47.036               
> 2025 08 06 06 43 10.0000000  0  9                                             
G05  25520873.929 7 134113082.994 7     -3274.371 7        46.951               
G12  26136904.404 7 137350356.873 7      3246.446 7        45.034               
G13  25189095.599 6 132369602.270 6     -2877.573 6        39.476               
G14  26810362.255 7 140889353.771 7     -1587.584 7        44.772               
G15  22402642.167 7 117726690.347 7     -1722.784 7        45.407               
G18  23192185.876 6 121875749.767 6     -1883.011 6        39.492               
G22  26373024.173 6 138591155.187 6     -1012.967 6        38.586               
G23  22044384.303 7 115844027.388 7      1713.197 7        42.476               
G24  21378496.395 7 112344740.834 7       101.170 7        47.132               
> 2025 08 06 06 43 11.0000000  0  9                                             
G05  25521497.237 7 134116357.592 7     -3274.680 7        47.151               
G12  26136287.047 7 137347110.425 7      3246.429 7        44.808               
G13  25189641.301 6 132372479.986 6     -2877.704 6        39.526               
G14  26810662.008 7 140890941.651 7     -1588.230 7        44.835               
G15  22402966.722 7 117728413.259 7     -1722.983 7        45.358               
G18  23192546.366 6 121877633.192 6     -1883.527 6        39.327               
G22  26373217.837 6 138592168.463 6     -1013.522 6        38.935               
G23  22044057.836 7 115842314.419 7      1712.688 7        42.529               
G24  21378476.614 7 112344640.029 7       100.477 7        47.227               
> 2025 08 06 06 43 12.0000000  0  9                                             
G05  25522119.722 7 134119632.439 7     -3274.960 7        47.125               
G12  26135669.958 7 137343863.947 7      3246.415 7        44.693               
G13  25190191.220 6 132375357.723 6     -2877.819 6        39.478               
G14  26810959.653 7 140892530.044 7     -1588.631 7        44.703               
G15  22403294.744 7 117730136.429 7     -1723.239 7        45.283               
G18  23192904.211 6 121879517.203 6     -1884.299 6        38.913               
G22  26373409.000 6 138593182.296 6     -1014.095 6        39.077               
G23  22043729.779 7 115840601.875 7      1712.322 7        42.431               
G24  21378455.636 7 112344539.921 7        99.823 7        47.167               
> 2025 08 06 06 43 13.0000000  0  9                                             
G05  25522742.672 7 134122907.478 7     -3275.204 7        47.233               
G12  26135052.655 7 137340617.433 7      3246.503 7        44.588               
G13  25190741.729 6 132378235.423 6     -2877.869 6        39.405               
G14  26811257.726 7 140894118.912 7     -1589.215 7        44.724               
G15  22403622.962 7 117731859.834 7     -1723.681 7        45.262               
G18  23193262.932 6 121881401.749 6     -1884.783 6        38.817               
G22  26373597.572 6 138594196.622 6     -1014.594 6        39.142               
G23  22043402.150 7 115838889.704 7      1711.944 7        42.476               
G24  21378436.731 7 112344440.457 7        99.081 7        47.135               
> 2025 08 06 06 43 14.0000000  0  9                                             
G05  25523366.104 7 134126182.709 7     -3275.298 7        47.158               
G12  26134432.368 7 137337370.838 7      3246.573 7        44.473               
G13  25191289.021 6 132381113.100 6     -2877.478 6        39.344               
G14  26811558.122 7 140895708.236 7     -1589.597 7        45.028               
G15  22403951.109 7 117733583.457 7     -1723.715 7        45.168               
G18  23193619.544 6 121883286.839 6     -1885.381 6        38.814               
G22  26373788.055 6 138595211.485 6     -1015.012 6        39.210               
G23  22043077.131 7 115837177.927 7      1711.401 7        42.526               
G24  21378418.522 7 112344341.647 7        98.455 7        47.090               
> 2025 08 06 06 43 15.0000000  0  9                                             
G05  25523989.179 7 134129458.055 7     -3275.431 7        47.082               
G12  26133813.957 7 137334124.132 7      3246.780 7        44.511               
G13  25191832.597 6 132383990.705 6     -2877.726 6        39.371               
G14  26811859.090 7 140897297.956 7     -1590.005 7        45.159               
G15  22404279.774 7 117735307.247 7     -1723.841 7        45.094               
G18  23193975.709 6 121885172.426 6     -1885.817 6        38.834               
G22  26373982.131 6 138596226.786 6     -1015.346 6        39.146               
G23  22042752.290 7 115835466.472 7      1711.391 7        42.527               
G24  21378397.830 7 112344243.405 7        97.882 7        47.001               
> 2025 08 06 06 43 16.0000000  0  9                                             
G05  25524612.594 7 134132733.672 7     -3275.694 7        47.097               
G12  26133198.011 7 137330877.443 7      3246.665 7        44.643               
G13  25192380.390 6 132386868.371 6     -2877.671 6        39.362               
G14  26812162.006 7 140898888.202 7     -1590.403 7        45.193               
G15  22404607.152 7 117737031.347 7     -1724.226 7        45.174               
G18  23194337.575 6 121887058.616 6     -1886.540 6        38.851               
G22  26374178.994 6 138597242.661 6     -1016.100 6        39.160               
G23  22042427.234 7 115833755.473 7      1710.941 7        42.666               
G24  21378379.389 7 112344145.890 7        97.166 7        47.120               
> 2025 08 06 06 43 17.0000000  0  9                                             
G05  25525235.597 7 134136009.467 7     -3275.803 7        47.016               
G12  26132578.707 7 137327630.682 7      3246.932 7        44.753               
G13  25192928.361 6 132389745.995 6     -2877.496 6        39.365               
G14  26812465.011 7 140900478.908 7     -1590.853 7        45.046               
G15  22404936.175 7 117738755.658 7     -1724.366 7        45.170               
G18  23194696.331 6 121888945.311 6     -1887.061 6        38.874               
G22  26374374.767 6 138598259.057 6     -1016.722 6        39.221               
G23  22042101.947 7 115832044.846 7      1710.555 7        42.687               
G24  21378362.896 7 112344049.011 7        96.595 7        47.188               
> 2025 08 06 06 43 18.0000000  0  9                                             
G05  25525859.476 7 134139285.510 7     -3276.050 7        46.906               
G12  26131960.599 7 137324383.914 7      3246.872 7        44.677               
G13  25193473.777 6 132392623.675 6     -2877.645 6        39.213               
G14  26812768.534 7 140902070.122 7     -1591.394 7        44.961               
G15  22405265.697 7 117740480.269 7     -1724.663 7        45.178               
G18  23195056.767 6 121890832.630 6     -1887.501 6        38.745               
G22  26374572.595 6 138599276.013 6     -1017.173 6        39.330               
G23  22041778.160 7 115830334.662 7      1709.920 7        42.817               
G24  21378345.813 7 112343952.834 7        95.868 7        47.164               
> 2025 08 06 06 43 19.0000000  0  9                                             
G05  25526481.390 7 134142561.719 7     -3276.282 7        46.727               
G12  26131344.583 7 137321137.068 7      3247.041 7        44.627               
G13  25194023.428 6 132395501.276 6     -2877.547 6        39.122               
G14  26813073.522 7 140903661.776 7     -1591.792 7        44.993               
G15  22405594.880 7 117742205.080 7     -1724.720 7        45.185               
G18  23195412.111 6 121892720.466 6     -1887.945 6        38.699               
G22  26374766.116 6 138600293.447 6     -1017.470 6        39.311               
G23  22041452.711 7 115828624.832 7      1709.683 7        42.903               
G24  21378327.783 7 112343857.283 7        95.353 7        47.079               
> 2025 08 06 06 43 20.0000000  0  9                                             
G05  25527103.500 7 134145838.127 7     -3276.554 7        46.512               
G12  26130726.636 7 137317890.167 7      3246.814 7        44.773               
G13  25194566.325 6 132398378.888 6     -2877.757 6        39.002               
G14  26813379.565 7 140905253.902 7     -1592.478 7        45.141               
G15  22405924.135 7 117743930.121 7     -1725.225 7        45.376               
G18  23195776.710 6 121894608.843 6     -1888.559 6        38.625               
G22  26374956.940 6 138601311.408 6     -1018.279 6        39.289               
G23  22041130.283 7 115826915.397 7      1709.213 7        43.015               
G24  21378309.486 7 112343762.382 7        94.586 7        47.135               
> 2025 08 06 06 43 21.0000000  0  9                                             
G05  25527725.806 7 134149114.770 7     -3276.767 7        46.482               
G12  26130109.226 7 137314643.245 7      3246.718 7        44.685               
G13  25195111.777 6 132401256.523 6     -2877.848 6        38.971               
G14  26813682.767 7 140906846.527 7     -1592.967 7        45.337               
G15  22406251.639 7 117745655.435 7     -1725.575 7        45.200               
G18  23196140.220 6 121896497.792 6     -1889.494 6        38.834               
G22  26375149.746 6 138602329.928 6     -1018.991 6        39.455               
G23  22040803.869 7 115825206.384 7      1708.737 7        43.239               
G24  21378291.634 7 112343668.167 7        93.820 7        47.103               
> 2025 08 06 06 43 22.0000000  0  9                                             
G05  25528349.739 7 134152391.646 7     -3276.841 7        46.269               
G12  26129491.172 7 137311396.330 7      3247.220 7        44.815               
G13  25195662.214 6 132404134.185 6     -2877.549 6        38.927               
G14  26813986.075 7 140908439.670 7     -1593.258 7        45.558               
G15  22406579.607 7 117747381.032 7     -1725.738 7        45.210               
G18  23196501.817 6 121898387.339 6     -1889.490 6        38.969               
G22  26375341.124 6 138603348.997 6     -1019.166 6        39.609               
G23  22040477.099 7 115823497.809 7      1708.539 7        43.258               
G24  21378273.587 7 112343574.657 7        93.366 7        46.949               
> 2025 08 06 06 43 23.0000000  0  9                                             
G05  25528972.528 7 134155668.637 7     -3276.953 7        45.977               
G12  26128873.386 7 137308149.279 7      3247.158 7        44.727               
G13  25196211.901 6 132407011.735 6     -2877.502 6        39.105               
G14  26814288.884 7 140910033.191 7     -1593.640 7        45.854               
G15  22406908.307 7 117749106.783 7     -1725.674 7        45.212               
G18  23196857.947 6 121900277.345 6     -1890.092 6        38.920               
G22  26375533.073 6 138604368.493 6     -1019.679 6        39.827               
G23  22040151.489 7 115821789.543 7      1708.088 7        43.184               
G24  21378255.950 7 112343481.709 7        92.666 7        46.790               
> 2025 08 06 06 43 24.0000000  0  9                                             
G05  25529596.425 7 134158945.873 7     -3277.363 7        45.973               
G12  26128257.083 7 137304902.212 7      3247.072 7        44.876               
G13  25196759.444 6 132409889.317 6     -2877.504 6        39.337               
G14  26814590.995 7 140911627.207 7     -1594.362 7        45.923               
G15  22407237.437 7 117750832.802 7     -1726.105 7        45.122               
G18  23197213.380 6 121902167.933 6     -1891.012 6        38.852               
G22  26375729.418 6 138605388.545 6     -1020.522 6        39.925               
G23  22039825.773 7 115820081.705 7      1707.640 7        43.438               
G24  21378237.670 7 112343389.447 7        91.840 7        46.867               
> 2025 08 06 06 43 25.0000000  0  9                                             
G05  25530220.518 7 134162223.323 7     -3277.506 7        45.820               
G12  26127639.619 7 137301655.117 7      3247.168 7        44.840               
G13  25197304.806 6 132412766.895 6     -2877.724 6        39.382               
G14  26814893.125 7 140913221.727 7     -1594.767 7        45.964               
G15  22407566.602 7 117752559.086 7     -1726.353 7        44.916               
G18  23197567.955 6 121904059.090 6     -1891.386 6        38.837               
G22  26375923.046 6 138606409.150 6     -1020.808 6        39.921               
G23  22039499.216 7 115818374.282 7      1707.181 7        43.579               
G24  21378222.553 7 112343297.864 7        91.200 7        46.797               
> 2025 08 06 06 43 26.0000000  0  9                                             
G05  25530846.274 7 134165500.958 7     -3277.759 7        45.819               
G12  26127022.388 7 137298407.961 7      3247.099 7        44.890               
G13  25197854.690 6 132415644.454 6     -2877.416 6        39.571               
G14  26815194.772 7 140914816.699 7     -1595.113 7        45.963               
G15  22407896.500 7 117754285.590 7     -1726.517 7        44.963               
G18  23197924.674 6 121905950.797 6     -1892.108 6        38.449               
G22  26376120.481 6 138607430.266 6     -1021.391 6        39.886               
G23  22039173.589 7 115816667.250 7      1706.869 7        43.510               
G24  21378207.400 7 112343206.936 7        90.623 7        46.794               
> 2025 08 06 06 43 27.0000000  0  9                                             
G05  25531470.046 7 134168778.790 7     -3277.994 7        45.669               
G12  26126405.674 7 137295160.757 7      3247.331 7        44.972               
G13  25198402.304 6 132418522.002 6     -2877.593 6        39.677               
G14  26815498.367 7 140916412.134 7     -1595.713 7        45.980               
G15  22408225.219 7 117756012.331 7     -1726.877 7        44.806               
G18  23198280.339 6 121907843.052 6     -1892.489 6        38.025               
G22  26376320.453 6 138608451.885 6     -1022.010 6        40.073               
G23  22038849.731 7 115814960.600 7      1706.476 7        43.505               
G24  21378190.621 7 112343116.647 7        89.942 7        46.909               
> 2025 08 06 06 43 28.0000000  0  9                                             
G05  25532093.889 7 134172056.843 7     -3278.314 7        45.819               
G12  26125786.566 7 137291913.520 7      3247.101 7        45.106               
G13  25198947.881 6 132421399.553 6     -2877.976 6        39.482               
G14  26815802.319 7 140918008.069 7     -1596.284 7        45.996               
G15  22408552.901 7 117757739.328 7     -1727.278 7        44.938               
G18  23198646.279 6 121909735.880 6     -1893.120 6        37.920               
G22  26376514.350 6 138609474.058 6     -1022.711 6        40.115               
G23  22038527.177 7 115813254.367 7      1705.879 7        43.581               
G24  21378171.572 7 112343027.042 7        89.155 7        46.968               
> 2025 08 06 06 43 29.0000000  0  9                                             
G05  25532718.232 7 134175335.136 7     -3278.571 7        45.827               
G12  26125167.101 7 137288666.278 7      3247.169 7        45.110               
G13  25199493.547 6 132424277.139 6     -2877.693 6        39.324               
G14  26816106.324 7 140919604.520 7     -1596.733 7        45.897               
G15  22408883.424 7 117759466.604 7     -1727.340 7        44.940               
G18  23199008.627 6 121911629.276 6     -1893.521 6        37.753               
G22  26376707.586 6 138610496.793 6     -1022.994 6        40.233               
G23  22038203.498 7 115811548.571 7      1705.498 7        43.517               
G24  21378152.256 7 112342938.132 7        88.443 7        46.719               
> 2025 08 06 06 43 30.0000000  0  9                                             
G05  25533342.540 7 134178613.615 7     -3278.696 7        45.744               
G12  26124550.065 7 137285418.973 7      3247.229 7        45.086               
G13  25200042.091 6 132427154.694 6     -2877.444 6        39.388               
G14  26816410.491 7 140921201.423 7     -1597.271 7        45.923               
G15  22409213.161 7 117761194.104 7     -1727.622 7        44.882               
G18  23199368.151 6 121913523.210 6     -1894.640 6        37.580               
G22  26376901.197 6 138611520.049 6     -1023.605 6        40.297               
G23  22037879.228 7 115809843.155 7      1705.272 7        43.598               
G24  21378135.423 7 112342849.861 7        87.931 7        46.733               
> 2025 08 06 06 43 31.0000000  0  9                                             
G05  25533965.901 7 134181892.326 7     -3278.873 7        45.859               
G12  26123933.513 7 137282171.662 7      3247.315 7        45.215               
G13  25200593.171 6 132430032.254 6     -2877.749 6        39.351               
G14  26816714.318 7 140922798.828 7     -1597.632 7        46.047               
G15  22409542.076 7 117762921.880 7     -1727.883 7        44.979               
G18  23199727.819 6 121915417.738 6     -1894.918 6        37.317               
G22  26377096.934 6 138612543.849 6     -1023.910 6        40.448               
G23  22037554.066 7 115808138.158 7      1704.868 7        43.540               
G24  21378118.573 7 112342762.283 7        87.210 7        46.782               
> 2025 08 06 06 43 32.0000000  0  9                                             
G05  25534590.263 7 134185171.227 7     -3279.024 7        45.808               
G12  26123314.816 7 137278924.298 7      3247.407 7        45.324               
G13  25201142.965 6 132432909.817 6     -2877.815 6        39.600               
G14  26817018.770 7 140924396.706 7     -1598.154 7        46.294               
G15  22409869.383 7 117764649.887 7     -1728.119 7        44.927               
G18  23200087.862 6 121917312.829 6     -1895.302 6        36.846               
G22  26377290.777 6 138613568.144 6     -1024.683 6        40.559               
G23  22037228.099 7 115806433.562 7      1704.515 7        43.559               
G24  21378100.454 7 112342675.350 7        86.495 7        46.835               
> 2025 08 06 06 43 33.0000000  0  9                                             
G05  25535214.088 7 134188450.340 7     -3279.223 7        45.889               
G12  26122695.743 7 137275676.895 7      3247.539 7        45.159               
G13  25201694.671 6 132435787.362 6     -2877.674 6        39.688               
G14  26817321.632 7 140925995.046 7     -1598.590 7        46.396               
G15  22410196.583 7 117766378.151 7     -1728.343 7        44.861               
G18  23200449.102 6 121919208.458 6     -1895.855 6        36.579               
G22  26377484.173 6 138614592.993 6     -1025.069 6        40.507               
G23  22036902.311 7 115804729.367 7      1703.999 7        43.530               
G24  21378084.675 7 112342589.093 7        85.877 7        46.880               
> 2025 08 06 06 43 34.0000000  0  9                                             
G05  25535838.503 7 134191729.705 7     -3279.428 7        46.157               
G12  26122077.672 7 137272429.504 7      3247.520 7        45.258               
G13  25202242.965 6 132438664.963 6     -2877.552 6        39.702               
G14  26817624.351 7 140927593.914 7     -1599.039 7        46.547               
G15  22410522.960 7 117768106.709 7     -1728.623 7        44.929               
G18  23200808.359 6 121921104.698 6     -1896.388 6        36.243               
G22  26377679.124 6 138615618.408 6     -1025.584 6        40.573               
G23  22036577.470 7 115803025.627 7      1703.731 7        43.610               
G24  21378071.059 7 112342503.546 7        85.283 7        46.917               
> 2025 08 06 06 43 35.0000000  0  9                                             
G05  25536462.668 7 134195009.243 7     -3279.486 7        46.307               
G12  26121457.563 7 137269182.049 7      3247.641 7        45.068               
G13  25202790.686 6 132441542.514 6     -2877.510 6        39.851               
G14  26817927.946 7 140929193.227 7     -1599.399 7        46.627               
G15  22410851.107 7 117769835.486 7     -1728.738 7        44.960               
G18  23201166.025 6 121923001.472 6     -1896.470 6        36.021               
G22  26377874.308 6 138616644.311 6     -1026.003 6        40.774               
G23  22036252.808 7 115801322.258 7      1703.189 7        43.402               
G24  21378056.192 7 112342418.618 7        84.609 7        46.973               
> 2025 08 06 06 43 36.0000000  0  9                                             
G05  25537086.976 7 134198288.979 7     -3279.893 7        46.316               
G12  26120840.456 7 137265934.544 7      3247.443 7        45.006               
G13  25203339.265 6 132444420.068 6     -2877.523 6        40.045               
G14  26818233.542 7 140930793.000 7     -1600.151 7        46.607               
G15  22411179.075 7 117771564.493 7     -1729.263 7        44.854               
G18  23201527.944 5 121924898.774 5     -1897.539 5        35.820               
G22  26378069.831 6 138617670.746 6     -1026.949 6        40.906               
G23  22035929.218 7 115799619.283 7      1702.640 7        43.301               
G24  21378039.109 7 112342334.350 7        83.792 7        46.910               
> 2025 08 06 06 43 37.0000000  0  9                                             
G05  25537711.231 7 134201568.931 7     -3280.048 7        46.606               
G12  26120222.081 7 137262687.016 7      3247.474 7        44.959               
G13  25203886.289 6 132447297.605 6     -2877.635 6        40.228               
G14  26818540.014 7 140932393.264 7     -1600.499 7        46.643               
G15  22411508.491 7 117773293.765 7     -1729.348 7        44.805               
G18  23201886.451 5 121926796.650 5     -1897.888 5        35.531               
G22  26378267.605 6 138618697.714 6     -1027.237 6        40.977               
G23  22035607.111 7 115797916.721 7      1702.279 7        43.269               
G24  21378021.008 7 112342250.757 7        83.221 7        46.873               
> 2025 08 06 06 43 38.0000000  0  9                                             
G05  25538335.306 7 134204849.076 7     -3280.148 7        46.607               
G12  26119604.063 7 137259439.421 7      3247.670 7        45.066               
G13  25204433.367 6 132450175.136 6     -2877.421 6        40.140               
G14  26818846.932 7 140933993.981 7     -1600.874 7        46.636               
G15  22411838.424 7 117775023.265 7     -1729.395 7        44.821               
G18  23202251.050 5 121928695.070 5     -1898.394 5        35.400               
G22  26378463.253 6 138619725.195 6     -1027.546 6        41.130               
G23  22035284.664 7 115796214.545 7      1702.113 7        43.226               
G24  21378006.355 7 112342167.811 7        82.789 7        46.959               
> 2025 08 06 06 43 39.0000000  0  9                                             
G05  25538959.757 7 134208129.352 7     -3280.362 7        46.720               
G12  26118985.955 7 137256191.722 7      3247.690 7        45.251               
G13  25204980.642 6 132453052.593 6     -2877.490 6        40.275               
G14  26819152.957 7 140935595.109 7     -1601.455 7        46.675               
G15  22412171.449 7 117776752.936 7     -1729.949 7        44.690               
G18  23202614.774 5 121930593.979 5     -1899.320 5        35.104               
G22  26378659.937 6 138620753.124 6     -1028.229 6        41.195               
G23  22034961.574 7 115794512.698 7      1701.376 7        43.254               
G24  21377992.042 7 112342085.446 7        81.932 7        47.037               
> 2025 08 06 06 43 40.0000000  0  9                                             
G05  25539584.583 7 134211409.865 7     -3280.644 7        46.709               
G12  26118367.741 7 137252944.019 7      3247.652 7        45.220               
G13  25205525.879 6 132455930.074 6     -2877.669 6        40.391               
G14  26819458.035 7 140937196.753 7     -1601.891 7        46.830               
G15  22412500.472 7 117778482.888 7     -1730.136 7        44.583               
G18  23202974.138 5 121932493.456 5     -1899.666 5        34.763               
G22  26378852.958 6 138621781.623 6     -1028.702 6        41.330               
G23  22034638.538 7 115792811.289 7      1701.165 7        43.230               
G24  21377977.979 7 112342003.784 7        81.305 7        47.003               
> 2025 08 06 06 43 41.0000000  0  9                                             
G05  25540208.266 7 134214690.571 7     -3280.837 7        46.821               
G12  26117749.598 7 137249696.273 7      3247.757 7        45.183               
G13  25206070.295 6 132458807.546 6     -2877.445 6        40.285               
G14  26819761.898 7 140938798.853 7     -1602.279 7        46.963               
G15  22412829.780 7 117780213.083 7     -1730.273 7        44.564               
G18  23203339.202 5 121934393.500 5     -1900.280 5        34.788               
G22  26379045.998 6 138622810.636 6     -1029.195 6        41.532               
G23  22034313.215 7 115791110.271 7      1700.845 7        43.142               
G24  21377963.363 7 112341922.785 7        80.651 7        46.944               
> 2025 08 06 06 43 42.0000000  0  9                                             
G05  25540833.825 7 134217971.488 7     -3280.954 7        46.912               
G12  26117131.044 7 137246448.492 7      3247.795 7        45.128               
G13  25206619.803 6 132461685.020 6     -2877.364 6        40.309               
G14  26820064.974 7 140940401.427 7     -1602.707 7        47.040               
G15  22413159.803 7 117781943.522 7     -1730.539 7        44.350               
G18  23203695.278 5 121936294.106 5     -1900.536 5        34.487               
G22  26379240.752 6 138623840.192 6     -1029.910 6        41.707               
G23  22033989.785 7 115789409.666 7      1700.498 7        43.290               
G24  21377946.351 7 112341842.446 7        80.098 7        46.758               
> 2025 08 06 06 43 43.0000000  0  9                                             
G05  25541458.204 7 134221252.541 7     -3281.078 7        47.146               
G12  26116512.579 7 137243200.593 7      3248.120 7        44.795               
G13  25207171.027 6 132464562.388 6     -2877.438 6        40.322               
G14  26820365.692 7 140942004.400 7     -1603.164 7        46.977               
G15  22413489.665 7 117783674.138 7     -1730.561 7        44.203               
G18  23204055.500 5 121938195.174 5     -1901.534 5        34.149               
G22  26379437.633 6 138624870.184 6     -1030.240 6        41.732               
G23  22033663.890 7 115787709.387 7      1700.128 7        43.298               
G24  21377929.590 7 112341762.694 7        79.465 7        46.901               
> 2025 08 06 06 43 44.0000000  0  9                                             
G05  25542081.833 7 134224533.846 7     -3281.356 7        47.238               
G12  26115894.882 7 137239952.695 7      3247.887 7        44.699               
G13  25207722.340 6 132467439.809 6     -2877.389 6        40.471               
G14  26820669.287 7 140943607.900 7     -1603.819 7        46.854               
G15  22413819.509 7 117785405.032 7     -1731.036 7        44.257               
G18  23204417.794 5 121940096.865 5     -1901.851 5        33.928               
G22  26379633.460 6 138625900.750 6     -1030.710 6        41.785               
G23  22033339.621 7 115786009.550 7      1699.664 7        43.301               
G24  21377913.651 7 112341683.651 7        78.646 7        47.022               
> 2025 08 06 06 43 45.0000000  0  9                                             
G05  25542706.587 7 134227815.358 7     -3281.781 7        47.251               
G12  26115277.007 7 137236704.747 7      3247.761 7        44.565               
G13  25208268.435 6 132470317.205 6     -2877.430 6        40.362               
G14  26820973.078 7 140945211.852 7     -1604.351 7        46.792               
G15  22414147.263 7 117787136.177 7     -1731.424 7        44.308               
G18  23204775.443 5 121941999.090 5     -1902.137 5        33.827               
G22  26379828.375 6 138626931.828 6     -1031.446 6        41.761               
G23  22033016.835 7 115784310.101 7      1698.951 7        43.272               
G24  21377899.570 7 112341605.243 7        77.926 7        46.924               
> 2025 08 06 06 43 46.0000000  0  9                                             
G05  25543330.002 7 134231097.008 7     -3281.681 7        47.191               
G12  26114659.615 7 137233456.702 7      3248.162 7        44.471               
G13  25208815.727 6 132473194.526 6     -2877.175 6        40.569               
G14  26821278.781 7 140946816.215 7     -1604.463 7        46.909               
G15  22414475.392 7 117788867.493 7     -1731.283 7        44.208               
G18  23205138.023 5 121943901.745 5     -1903.080 5        33.358               
G22  26380023.308 6 138627963.366 6     -1031.647 6        41.705               
G23  22032693.602 7 115782610.983 7      1698.936 7        43.126               
G24  21377884.757 7 112341527.426 7        77.637 7        46.974               
> 2025 08 06 06 43 47.0000000  0  9                                             
G05  25543954.792 7 134234378.848 7     -3282.070 7        47.248               
G12  26114042.097 7 137230208.606 7      3247.968 7        44.602               
G13  25209362.805 6 132476071.842 6     -2877.505 6        40.654               
G14  26821587.736 7 140948421.061 7     -1605.164 7        46.964               
G15  22414804.021 7 117790599.053 7     -1731.808 7        43.988               
G18  23205503.284 5 121945805.001 5     -1904.088 5        33.316               
G22  26380221.797 6 138628995.424 6     -1032.463 6        41.689               
G23  22032371.477 7 115780912.269 7      1698.465 7        43.075               
G24  21377869.765 7 112341450.289 7        76.775 7        47.007               
> 2025 08 06 06 43 48.0000000  0  9                                             
G05  25544579.065 7 134237660.923 7     -3282.148 7        47.105               
G12  26113424.115 7 137226960.506 7      3248.172 7        44.736               
G13  25209908.686 6 132478949.184 6     -2877.394 6        40.712               
G14  26821897.282 7 140950026.410 7     -1605.417 7        46.839               
G15  22415131.471 7 117792330.886 7     -1731.798 7        44.085               
G18  23205860.593 5 121947708.818 5     -1904.038 5        33.079               
G22  26380420.090 6 138630028.041 6     -1032.876 6        41.802               
G23  22032049.174 7 115779213.991 7      1698.140 7        43.218               
G24  21377855.559 7 112341373.825 7        76.200 7        47.054               
> 2025 08 06 06 43 49.0000000  0  9                                             
G05  25545202.783 7 134240943.135 7     -3282.376 7        47.222               
G12  26112805.811 7 137223712.303 7      3248.197 7        44.805               
G13  25210454.763 6 132481826.437 6     -2877.348 6        40.711               
G14  26822204.539 7 140951632.164 7     -1606.014 7        46.784               
G15  22415464.567 7 117794062.888 7     -1732.017 7        44.103               
G18  23206216.991 5 121949613.149 5     -1904.913 5        32.891               
G22  26380620.526 6 138631061.111 6     -1033.277 6        41.754               
G23  22031724.637 7 115777516.044 7      1697.727 7        43.437               
G24  21377842.675 7 112341297.961 7        75.522 7        47.040               
> 2025 08 06 06 43 50.0000000  0  9                                             
G05  25545826.966 7 134244225.570 7     -3282.637 7        47.137               
G12  26112186.399 7 137220464.088 7      3248.257 7        44.861               
G13  25210998.786 6 132484703.728 6     -2877.501 6        40.883               
G14  26822512.262 7 140953238.415 7     -1606.530 7        46.834               
G15  22415792.500 7 117795795.156 7     -1732.550 7        44.103               
G18  23206570.476 5 121951518.053 5     -1905.067 5        32.586               
G22  26380814.030 6 138632094.732 6     -1033.823 6        41.882               
G23  22031400.832 7 115775818.520 7      1697.297 7        43.398               
G24  21377827.987 7 112341222.783 7        74.762 7        47.092               
> 2025 08 06 06 43 51.0000000  0  9                                             
G05  25546450.452 7 134247508.175 7     -3282.788 7        47.224               
G12  26111567.613 7 137217215.793 7      3248.170 7        44.949               
G13  25211547.508 6 132487580.973 6     -2877.315 6        40.850               
G14  26822816.696 7 140954845.117 7     -1607.062 7        46.857               
G15  22416121.468 7 117797527.639 7     -1732.712 7        44.104               
G18  23206936.862 5 121953423.463 5     -1905.624 5        32.434               
G22  26381010.214 7 138633128.844 7     -1034.396 7        42.079               
G23  22031077.260 7 115774121.362 7      1696.843 7        43.472               
G24  21377810.815 7 112341148.222 7        74.090 7        47.160               
> 2025 08 06 06 43 52.0000000  0  9                                             
G05  25547075.653 7 134250791.072 7     -3282.959 7        47.092               
G12  26110950.006 7 137213967.540 7      3248.192 7        44.950               
G13  25212097.338 6 132490458.288 6     -2877.099 6        40.781               
G14  26823121.077 7 140956452.371 7     -1607.478 7        46.797               
G15  22416452.278 7 117799260.452 7     -1732.878 7        44.067               
G18  23207299.853 5 121955329.520 5     -1906.087 5        31.893               
G22  26381208.167 7 138634163.575 7     -1035.054 7        42.139               
G23  22030755.546 7 115772424.693 7      1696.505 7        43.555               
G24  21377792.106 7 112341074.411 7        73.452 7        47.250               
> 2025 08 06 06 43 53.0000000  0  9                                             
G05  25547700.640 7 134254074.190 7     -3283.466 7        47.049               
G12  26110332.184 7 137210719.267 7      3248.107 7        44.949               
G13  25212646.989 6 132493335.615 6     -2877.543 6        40.879               
G14  26823424.618 7 140958060.114 7     -1608.104 7        46.846               
G15  22416783.962 7 117800993.513 7     -1733.436 7        43.871               
G18  23207665.775 5 121957236.150 5     -1906.654 5        31.638               
G22  26381403.833 7 138635198.827 7     -1035.812 7        42.478               
G23  22030431.616 7 115770728.435 7      1695.862 7        43.622               
G24  21377778.615 7 112341001.263 7        72.623 7        47.084               
> 2025 08 06 06 43 54.0000000  0  9                                             
G05  25548323.822 7 134257357.525 7     -3283.373 7        47.066               
G12  26109714.184 7 137207470.966 7      3248.411 7        44.949               
G13  25213195.246 6 132496212.944 6     -2877.331 6        41.017               
G14  26823724.854 7 140959668.320 7     -1608.345 7        46.826               
G15  22417114.789 7 117802726.831 7     -1733.396 7        43.886               
G18  23208036.951 5 121959143.322 5     -1907.471 5        31.466               
G22  26381599.124 7 138636234.621 7     -1036.018 7        42.571               
G23  22030109.348 7 115769032.590 7      1695.617 7        43.773               
G24  21377767.554 7 112340928.790 7        72.180 7        47.015               
> 2025 08 06 06 43 55.0000000  0  9                                             
G05  25548949.953 7 134260641.088 7     -3283.537 7        46.867               
G12  26109095.433 7 137204222.652 7      3248.534 7        44.744               
G13  25213743.253 6 132499090.281 6     -2877.389 6        41.326               
G14  26824027.323 7 140961277.030 7     -1608.951 7        46.767               
G15  22417443.990 7 117804460.426 7     -1733.637 7        43.920               
G18  23208400.567 5 121961051.086 5     -1908.359 5        31.385               
G22  26381796.398 7 138637270.969 7     -1036.574 7        42.602               
G23  22029786.813 7 115767337.180 7      1695.143 7        43.746               
G24  21377755.814 7 112340857.002 7        71.493 7        47.007               
> 2025 08 06 06 43 56.0000000  0  9                                             
G05  25549575.261 7 134263924.847 7     -3283.947 7        46.574               
G12  26108478.291 7 137200974.294 7      3248.248 7        44.872               
G13  25214291.797 6 132501967.621 6     -2877.586 6        41.509               
G14  26824334.187 7 140962886.218 7     -1609.418 7        46.605               
G15  22417772.405 7 117806194.253 7     -1733.992 7        44.246               
G18  23208767.061 5 121962959.397 5     -1908.596 5        31.196               
G22  26381992.778 7 138638307.837 7     -1037.232 7        42.547               
G23  22029465.903 7 115765642.167 7      1694.846 7        43.630               
G24  21377746.022 7 112340785.882 7        70.769 7        47.053               
> 2025 08 06 06 43 57.0000000  0  9                                             
G05  25550198.622 7 134267208.837 7     -3284.022 7        46.611               
G12  26107860.201 7 137197725.920 7      3248.365 7        45.061               
G13  25214840.358 6 132504844.973 6     -2877.311 6        41.620               
G14  26824644.036 7 140964495.896 7     -1609.890 7        46.605               
G15  22418103.375 7 117807928.348 7     -1734.241 7        44.279               
G18  23209134.734 5 121964868.280 5     -1908.922 5        31.419               
G22  26382193.358 7 138639345.259 7     -1037.769 7        42.568               
G23  22029143.903 7 115763947.574 7      1694.322 7        43.743               
G24  21377731.512 7 112340715.446 7        70.183 7        47.153               
> 2025 08 06 06 43 58.0000000  0  9                                             
G05  25550824.413 7 134270493.051 7     -3284.448 7        46.490               
G12  26107241.576 7 137194477.522 7      3248.251 7        45.057               
G13  25215386.935 6 132507722.327 6     -2877.644 6        41.803               
G14  26824954.707 7 140966106.071 7     -1610.595 7        46.604               
G15  22418435.507 7 117809662.706 7     -1734.583 7        44.199               
G18  23209496.582 5 121966777.726 5     -1910.232 5        31.382               
G22  26382390.900 7 138640383.222 7     -1038.364 7        42.529               
G23  22028822.153 7 115762253.409 7      1693.789 7        43.756               
G24  21377717.646 7 112340645.679 7        69.248 7        47.240               
> 2025 08 06 06 43 59.0000000  0  9                                             
G05  25551449.007 7 134273777.567 7     -3284.430 7        46.386               
G12  26106621.699 7 137191229.195 7      3248.415 7        44.880               
G13  25215932.923 6 132510599.774 6     -2877.313 6        41.797               
G14  26825265.289 7 140967716.825 7     -1610.810 7        46.597               
G15  22418766.102 7 117811397.399 7     -1734.505 7        44.145               
G18  23209853.658 5 121968687.824 5     -1909.751 5        31.054               
G22  26382587.566 7 138641421.821 7     -1038.738 7        42.617               
G23  22028500.636 7 115760559.737 7      1693.642 7        43.861               
G24  21377704.280 7 112340576.670 7        68.766 7        47.522               
> 2025 08 06 06 44 00.0000000  0  9                                             
G05  25552073.565 7 134277062.244 7     -3284.790 7        46.336               
G12  26106004.950 7 137187980.811 7      3248.428 7        44.987               
G13  25216479.501 6 132513477.184 6     -2877.512 6        41.875               
G14  26825573.833 7 140969328.014 7     -1611.417 7        46.610               
G15  22419095.678 7 117813132.304 7     -1734.861 7        44.034               
G18  23210212.861 5 121970598.450 5     -1910.856 5        31.122               
G22  26382787.414 7 138642460.902 7     -1039.315 7        42.574               
G23  22028175.384 7 115758866.435 7      1693.235 7        44.089               
G24  21377691.610 7 112340508.286 7        68.141 7        47.507               
> 2025 08 06 06 44 01.0000000  0  9                                             
G05  25552698.784 7 134280347.090 7     -3285.002 7        46.359               
G12  26105387.522 7 137184732.347 7      3248.511 7        45.055               
G13  25217028.151 6 132516354.549 6     -2877.269 6        41.983               
G14  26825880.430 7 140970939.652 7     -1611.854 7        46.475               
G15  22419427.309 7 117814867.429 7     -1735.311 7        43.961               
G18  23210577.675 5 121972509.569 5     -1911.432 5        31.227               
G22  26382984.098 7 138643500.464 7     -1039.660 7        42.546               
G23  22027852.848 7 115757173.498 7      1692.723 7        44.196               
G24  21377678.316 7 112340440.535 7        67.422 7        47.566               
> 2025 08 06 06 44 02.0000000  0  9                                             
G05  25553323.736 7 134283632.151 7     -3285.249 7        46.303               
G12  26104768.985 7 137181483.864 7      3248.513 7        44.856               
G13  25217574.908 7 132519231.930 7     -2877.305 7        42.093               
G14  26826187.920 7 140972551.768 7     -1612.482 7        46.222               
G15  22419756.010 7 117816602.796 7     -1735.539 7        43.934               
G18  23210945.616 5 121974421.287 5     -1912.058 5        31.417               
G22  26383183.695 7 138644540.557 7     -1040.429 7        42.425               
G23  22027529.580 7 115755480.979 7      1692.209 7        44.197               
G24  21377663.449 7 112340373.452 7        66.628 7        47.583               
> 2025 08 06 06 44 03.0000000  0  9                                             
G05  25553948.669 7 134286917.404 7     -3285.286 7        46.380               
G12  26104150.842 7 137178235.356 7      3248.670 7        44.793               
G13  25218120.985 7 132522109.296 7     -2877.037 7        42.109               
G14  26826493.033 7 140974164.366 7     -1612.809 7        46.011               
G15  22420085.264 7 117818338.418 7     -1735.785 7        43.828               
G18  23211316.899 5 121976333.533 5     -1912.925 5        31.540               
G22  26383378.914 7 138645581.184 7     -1040.686 7        42.364               
G23  22027205.418 7 115753788.861 7      1691.941 7        44.251               
G24  21377649.064 7 112340307.028 7        66.234 7        47.686               
> 2025 08 06 06 44 04.0000000  0  9                                             
G05  25554574.281 7 134290202.833 7     -3285.564 7        46.399               
G12  26103533.986 7 137174986.776 7      3248.457 7        44.761               
G13  25218668.689 7 132524986.621 7     -2877.492 7        42.127               
G14  26826796.056 7 140975777.412 7     -1613.402 7        45.766               
G15  22420412.768 7 117820074.249 7     -1735.991 7        43.933               
G18  23211677.389 5 121978246.313 5     -1913.216 5        31.675               
G22  26383574.669 7 138646622.316 7     -1041.338 7        42.332               
G23  22026883.436 7 115752097.124 7      1691.412 7        44.308               
G24  21377636.199 7 112340241.240 7        65.385 7        47.865               
> 2025 08 06 06 44 05.0000000  0  9                                             
G05  25555201.127 7 134293488.495 7     -3285.845 7        46.422               
G12  26102915.450 7 137171738.196 7      3248.666 7        44.752               
G13  25219213.962 7 132527863.973 7     -2877.379 7        42.012               
G14  26827098.079 7 140977390.969 7     -1613.813 7        45.583               
G15  22420742.648 7 117821810.355 7     -1736.317 7        43.855               
G18  23212036.217 5 121980159.683 5     -1914.009 5        31.537               
G22  26383774.391 7 138647663.991 7     -1041.959 7        42.294               
G23  22026562.651 7 115750405.819 7      1690.995 7        44.403               
G24  21377624.637 7 112340176.138 7        64.671 7        47.771               
> 2025 08 06 06 44 06.0000000  0  9                                             
G05  25555827.454 7 134296774.416 7     -3285.944 7        46.598               
G12  26102297.289 7 137168489.635 7      3248.738 7        44.856               
G13  25219762.988 6 132530741.379 6     -2877.249 6        41.979               
G14  26827404.354 7 140979005.068 7     -1614.228 7        45.440               
G15  22421070.920 7 117823546.758 7     -1736.493 7        43.879               
G18  23212405.212 5 121982073.651 5     -1914.416 5        31.494               
G22  26383975.650 7 138648706.257 7     -1042.530 7        42.294               
G23  22026242.849 7 115748714.980 7      1690.853 7        44.551               
G24  21377614.702 7 112340111.752 7        64.159 7        47.705               
> 2025 08 06 06 44 07.0000000  0  9                                             
G05  25556453.298 7 134300060.499 7     -3286.097 7        46.642               
G12  26101678.181 7 137165241.000 7      3248.770 7        44.676               
G13  25220310.119 6 132533618.729 6     -2877.433 6        41.777               
G14  26827711.558 7 140980619.580 7     -1614.689 7        45.350               
G15  22421400.978 7 117825283.393 7     -1736.555 7        43.856               
G18  23212770.205 5 121983988.149 5     -1914.166 5        31.423               
G22  26384175.515 7 138649749.010 7     -1042.888 7        42.303               
G23  22025923.601 7 115747024.506 7      1690.314 7        44.497               
G24  21377601.997 7 112340047.997 7        63.486 7        47.825               
> 2025 08 06 06 44 08.0000000  0  9                                             
G05  25557079.000 7 134303346.766 7     -3286.471 7        46.719               
G12  26101061.056 7 137161992.301 7      3248.591 7        44.759               
G13  25220856.411 6 132536496.058 6     -2877.406 6        41.658               
G14  26828020.871 7 140982234.568 7     -1615.382 7        45.226               
G15  22421731.859 7 117827020.232 7     -1737.161 7        43.812               
G18  23213131.713 5 121985903.184 5     -1914.724 5        31.344               
G22  26384373.075 7 138650792.267 7     -1043.753 7        42.361               
G23  22025602.263 7 115745334.411 7      1689.733 7        44.674               
G24  21377588.899 7 112339984.876 7        62.659 7        47.739               
> 2025 08 06 06 44 09.0000000  0  9                                             
G05  25557705.363 7 134306633.223 7     -3286.500 7        46.719               
G12  26100443.002 7 137158743.561 7      3248.808 7        45.021               
G13  25221405.455 6 132539373.377 6     -2877.241 6        41.716               
G14  26828330.040 7 140983850.020 7     -1615.687 7        45.315               
G15  22422062.418 7 117828757.305 7     -1737.306 7        43.724               
G18  23213503.245 5 121987818.736 5     -1915.327 5        31.239               
G22  26384572.529 7 138651836.037 7     -1044.044 7        42.533               
G23  22025278.833 7 115743644.705 7      1689.575 7        44.551               
G24  21377576.963 7 112339922.401 7        62.152 7        47.764               
> 2025 08 06 06 44 10.0000000  0  9                                             
G05  25558331.172 7 134309919.920 7     -3286.838 7        46.804               
G12  26099823.233 7 137155494.814 7      3248.585 7        45.070               
G13  25221953.819 6 132542250.719 6     -2877.472 6        41.740               
G14  26828638.335 7 140985465.987 7     -1616.334 7        45.284               
G15  22422394.657 7 117830494.670 7     -1737.407 7        43.739               
G18  23213869.435 5 121989734.874 5     -1916.378 5        31.084               
G22  26384768.552 7 138652880.374 7     -1044.694 7        42.568               
G23  22024957.620 7 115741955.447 7      1688.950 7        44.498               
G24  21377565.848 7 112339860.644 7        61.401 7        47.726               
> 2025 08 06 06 44 11.0000000  0  9                                             
G05  25558956.069 7 134313206.805 7     -3287.065 7        46.901               
G12  26099205.412 7 137152246.019 7      3248.783 7        45.003               
G13  25222501.505 6 132545128.039 6     -2877.348 6        41.771               
G14  26828946.325 7 140987082.399 7     -1616.635 7        45.303               
G15  22422724.894 7 117832232.253 7     -1737.890 7        43.715               
G18  23214233.159 5 121991651.564 5     -1917.099 5        31.177               
G22  26384966.845 7 138653925.218 7     -1045.093 7        42.523               
G23  22024637.639 7 115740266.569 7      1688.544 7        44.282               
G24  21377554.734 7 112339799.514 7        60.752 7        47.698               
> 2025 08 06 06 44 12.0000000  0  9                                             
G05  25559583.111 7 134316493.958 7     -3287.233 7        46.816               
G12  26098587.626 7 137148997.239 7      3248.782 7        45.038               
G13  25223049.387 6 132548005.408 6     -2877.693 6        41.749               
G14  26829255.066 7 140988699.345 7     -1617.179 7        45.164               
G15  22423055.078 7 117833970.135 7     -1738.025 7        43.648               
G18  23214604.442 5 121993568.852 5     -1917.678 5        31.271               
G22  26385164.673 7 138654970.649 7     -1045.710 7        42.403               
G23  22024315.818 7 115738578.161 7      1688.062 7        44.156               
G24  21377543.101 7 112339739.102 7        59.923 7        47.613               
> 2025 08 06 06 44 13.0000000  0  9                                             
G05  25560208.331 7 134319781.283 7     -3287.528 7        47.068               
G12  26097968.017 7 137145748.394 7      3248.728 7        45.083               
G13  25223596.644 6 132550882.743 6     -2877.491 6        41.873               
G14  26829562.735 7 140990316.727 7     -1617.720 7        45.081               
G15  22423389.747 7 117835708.248 7     -1738.184 7        43.618               
G18  23214974.188 5 121995486.639 5     -1918.195 5        31.514               
G22  26385362.143 7 138656016.572 7     -1046.255 7        42.265               
G23  22023993.908 7 115736890.130 7      1687.831 7        44.212               
G24  21377529.592 7 112339679.329 7        59.307 7        47.535               
> 2025 08 06 06 44 14.0000000  0  9                                             
G05  25560833.818 7 134323068.837 7     -3287.695 7        47.154               
G12  26097349.320 7 137142499.534 7      3248.980 7        45.105               
G13  25224144.615 6 132553760.093 6     -2877.382 6        41.911               
G14  26829871.297 7 140991934.613 7     -1618.136 7        45.110               
G15  22423721.432 7 117837446.608 7     -1738.496 7        43.683               
G18  23215338.912 5 121997405.032 5     -1918.701 5        31.737               
G22  26385564.796 7 138657063.044 7     -1046.841 7        42.130               
G23  22023673.069 7 115735202.520 7      1687.391 7        44.316               
G24  21377516.994 7 112339620.235 7        58.741 7        47.495               
> 2025 08 06 06 44 15.0000000  0  9                                             
G05  25561458.662 7 134326356.644 7     -3287.915 7        47.199               
G12  26096730.820 7 137139250.671 7      3248.794 7        45.013               
G13  25224693.873 7 132556637.479 7     -2877.318 7        42.040               
G14  26830179.216 7 140993552.997 7     -1618.562 7        45.019               
G15  22424054.332 7 117839185.264 7     -1738.889 7        43.708               
G18  23215700.063 5 121999324.008 5     -1919.383 5        31.828               
G22  26385765.661 7 138658110.097 7     -1047.216 7        42.095               
G23  22023353.607 7 115733515.359 7      1686.914 7        44.447               
G24  21377504.700 7 112339561.843 7        58.147 7        47.483               
> 2025 08 06 06 44 16.0000000  0  9                                             
G05  25562084.256 7 134329644.676 7     -3288.308 7        47.360               
G12  26096113.034 7 137136001.816 7      3248.859 7        44.977               
G13  25225241.148 7 132559514.894 7     -2877.414 7        42.046               
G14  26830487.814 7 140995171.901 7     -1619.290 7        44.921               
G15  22424387.535 7 117840924.186 7     -1739.189 7        43.625               
G18  23216068.451 5 122001243.551 5     -1919.815 5        32.006               
G22  26385967.617 7 138659157.686 7     -1048.138 7        42.216               
G23  22023033.126 7 115731828.629 7      1686.415 7        44.588               
G24  21377492.889 7 112339504.142 7        57.202 7        47.459               
> 2025 08 06 06 44 17.0000000  0  9                                             
G05  25562709.851 7 134332932.974 7     -3288.409 7        47.335               
G12  26095493.962 7 137132752.966 7      3248.912 7        44.813               
G13  25225788.315 6 132562392.344 6     -2877.460 6        41.940               
G14  26830795.322 7 140996791.336 7     -1619.683 7        44.810               
G15  22424718.488 7 117842663.392 7     -1739.370 7        43.551               
G18  23216428.869 5 122003163.741 5     -1920.246 5        32.006               
G22  26386167.500 7 138660205.864 7     -1048.388 7        42.347               
G23  22022713.253 7 115730142.354 7      1686.068 7        44.503               
G24  21377483.615 7 112339447.146 7        56.667 7        47.374               
> 2025 08 06 06 44 18.0000000  0  9                                             
G05  25563335.142 7 134336221.476 7     -3288.511 7        47.365               
G12  26094876.784 7 137129504.084 7      3249.005 7        44.675               
G13  25226334.446 6 132565269.798 6     -2877.374 6        41.958               
G14  26831103.456 7 140998411.231 7     -1620.067 7        44.790               
G15  22425046.652 7 117844402.856 7     -1739.549 7        43.475               
G18  23216789.913 5 122005084.470 5     -1921.207 5        31.828               
G22  26386364.953 7 138661254.574 7     -1048.905 7        42.257               
G23  22022392.682 7 115728456.481 7      1685.811 7        44.440               
G24  21377474.341 7 112339390.816 7        56.146 7        47.299               
> 2025 08 06 06 44 19.0000000  0  9                                             
G05  25563960.575 7 134339510.185 7     -3288.800 7        47.411               
G12  26094258.176 7 137126255.164 7      3248.894 7        44.724               
G13  25226880.202 7 132568147.247 7     -2877.543 7        42.010               
G14  26831410.696 7 141000031.616 7     -1620.626 7        44.618               
G15  22425375.835 7 117846142.575 7     -1739.983 7        43.536               
G18  23217152.422 5 122007005.727 5     -1921.855 5        31.597               
G22  26386562.227 7 138662303.805 7     -1049.537 7        42.324               
G23  22022072.916 7 115726771.024 7      1685.159 7        44.420               
G24  21377465.121 7 112339335.150 7        55.260 7        47.173               
> 2025 08 06 06 44 20.0000000  0  9                                             
G05  25564587.242 7 134342799.111 7     -3288.867 7        47.208               
G12  26093639.926 7 137123006.220 7      3248.985 7        44.679               
G13  25227428.048 7 132571024.693 7     -2877.340 7        42.093               
G14  26831718.793 7 141001652.465 7     -1621.003 7        44.429               
G15  22425701.748 7 117847882.546 7     -1739.964 7        43.479               
G18  23217520.273 5 122008927.576 5     -1921.866 5        31.654               
G22  26386762.824 7 138663353.578 7     -1049.907 7        42.490               
G23  22021751.578 7 115725085.975 7      1684.847 7        44.521               
G24  21377456.222 7 112339280.169 7        54.767 7        47.127               
> 2025 08 06 06 44 21.0000000  0  9                                             
G05  25565212.640 7 134346088.192 7     -3289.265 7        47.027               
G12  26093022.140 7 137119757.207 7      3248.872 7        44.776               
G13  25227973.375 7 132573902.101 7     -2877.526 7        42.182               
G14  26832028.285 7 141003273.732 7     -1621.720 7        44.117               
G15  22426029.574 7 117849622.730 7     -1740.114 7        43.480               
G18  23217886.052 5 122010849.908 5     -1922.330 5        31.723               
G22  26386963.083 7 138664403.830 7     -1050.560 7        42.696               
G23  22021428.631 7 115723401.301 7      1684.425 7        44.360               
G24  21377444.375 7 112339225.798 7        54.045 7        47.247               
> 2025 08 06 06 44 22.0000000  0  9                                             
G05  25565838.735 7 134349377.461 7     -3289.371 7        46.789               
G12  26092402.746 7 137116508.135 7      3249.063 7        44.792               
G13  25228522.168 7 132576779.491 7     -2877.286 7        42.261               
G14  26832337.794 7 141004895.466 7     -1622.120 7        43.673               
G15  22426359.918 7 117851363.140 7     -1740.419 7        43.432               
G18  23218244.809 5 122012772.807 5     -1922.929 5        31.619               
G22  26387160.089 7 138665454.600 7     -1051.031 7        42.700               
G23  22021107.632 7 115721717.013 7      1684.023 7        44.438               
G24  21377431.866 7 112339172.069 7        53.353 7        47.310               
> 2025 08 06 06 44 23.0000000  0  9                                             
G05  25566465.294 7 134352666.946 7     -3289.530 7        46.701               
G12  26091784.174 7 137113259.064 7      3249.176 7        44.752               
G13  25229071.373 7 132579656.887 7     -2877.262 7        42.315               
G14  26832646.660 7 141006517.729 7     -1622.411 7        43.504               
G15  22426688.655 7 117853103.823 7     -1740.748 7        43.300               
G18  23218610.087 5 122014696.285 5     -1923.178 5        31.443               
G22  26387361.294 7 138666505.924 7     -1051.547 7        42.567               
G23  22020786.436 7 115720033.166 7      1683.668 7        44.528               
G24  21377419.715 7 112339119.029 7        52.632 7        47.274               
> 2025 08 06 06 44 24.0000000  0  9                                             
G05  25567091.121 7 134355956.663 7     -3289.852 7        46.508               
G12  26091165.513 7 137110009.971 7      3249.138 7        44.711               
G13  25229622.150 7 132582534.312 7     -2877.405 7        42.290               
G14  26832958.725 7 141008140.468 7     -1622.856 7        43.085               
G15  22427022.055 7 117854844.763 7     -1740.957 7        43.240               
G18  23218981.316 5 122016620.302 5     -1924.587 5        31.497               
G22  26387561.069 7 138667557.807 7     -1052.067 7        42.536               
G23  22020464.079 7 115718349.746 7      1683.247 7        44.535               
G24  21377409.208 7 112339066.677 7        52.111 7        47.249               
> 2025 08 06 06 44 25.0000000  0  9                                             
G05  25567718.002 7 134359246.614 7     -3289.840 7        46.463               
G12  26090546.387 7 137106760.877 7      3249.266 7        44.681               
G13  25230168.316 7 132585411.756 7     -2877.232 7        42.379               
G14  26833263.999 7 141009763.730 7     -1623.379 7        42.768               
G15  22427353.507 7 117856585.987 7     -1741.151 7        43.266               
G18  23219349.561 5 122018544.910 5     -1924.939 5        31.826               
G22  26387760.756 7 138668610.239 7     -1052.598 7        42.549               
G23  22020142.704 7 115716666.759 7      1682.924 7        44.458               
G24  21377401.292 7 112339015.019 7        51.468 7        47.180               
> 2025 08 06 06 44 26.0000000  0  9                                             
G05  25568342.846 7 134362536.726 7     -3290.288 7        46.348               
G12  26089928.119 7 137103511.711 7      3249.152 7        44.659               
G13  25230716.699 7 132588289.157 7     -2877.221 7        42.292               
G14  26833569.685 7 141011387.418 7     -1624.145 7        42.602               
G15  22427685.853 7 117858327.410 7     -1741.501 7        43.170               
G18  23219719.164 5 122020470.036 5     -1925.407 5        31.953               
G22  26387961.711 7 138669663.165 7     -1053.273 7        42.511               
G23  22019821.937 7 115714984.146 7      1682.353 7        44.632               
G24  21377392.948 7 112338963.981 7        50.666 7        47.171               
> 2025 08 06 06 44 27.0000000  0  9                                             
G05  25568968.244 7 134365827.112 7     -3290.523 7        46.256               
G12  26089310.744 7 137100262.568 7      3249.106 7        44.461               
G13  25231263.330 7 132591166.606 7     -2877.698 7        42.396               
G14  26833879.855 7 141013011.631 7     -1624.476 7        42.361               
G15  22428018.199 7 117860069.142 7     -1741.859 7        43.025               
G18  23220087.659 5 122022395.769 5     -1926.345 5        32.163               
G22  26388162.576 7 138670716.683 7     -1053.916 7        42.391               
G23  22019504.870 7 115713301.990 7      1681.813 7        44.645               
G24  21377384.799 7 112338913.669 7        49.948 7        47.185               
> 2025 08 06 06 44 28.0000000  0  9                                             
G05  25569594.464 7 134369117.722 7     -3290.661 7        46.199               
G12  26088693.637 7 137097013.424 7      3249.294 7        44.349               
G13  25231811.605 7 132594044.076 7     -2877.186 7        42.468               
G14  26834193.457 7 141014636.337 7     -1624.871 7        42.152               
G15  22428351.582 7 117861811.133 7     -1741.997 7        43.076               
G18  23220453.706 5 122024322.064 5     -1926.225 5        32.420               
G22  26388366.855 7 138671770.737 7     -1054.357 7        42.313               
G23  22019186.176 7 115711620.264 7      1681.560 7        44.788               
G24  21377376.472 7 112338864.022 7        49.415 7        47.182               
> 2025 08 06 06 44 29.0000000  0  9                                             
G05  25570220.916 7 134372408.486 7     -3290.801 7        46.101               
G12  26088074.529 7 137093764.205 7      3249.263 7        44.514               
G13  25232359.737 7 132596921.501 7     -2877.445 7        42.544               
G14  26834507.129 7 141016261.482 7     -1625.394 7        42.072               
G15  22428683.945 7 117863553.333 7     -1742.359 7        43.074               
G18  23220821.057 5 122026248.888 5     -1927.170 5        32.644               
G22  26388567.828 7 138672825.279 7     -1054.696 7        42.383               
G23  22018866.338 7 115709938.908 7      1681.174 7        44.907               
G24  21377365.787 7 112338815.018 7        48.633 7        47.257               
> 2025 08 06 06 44 30.0000000  0  9                                             
G05  25570848.136 7 134375699.515 7     -3291.238 7        46.019               
G12  26087456.797 7 137090514.994 7      3249.079 7        44.382               
G13  25232906.226 7 132599798.967 7     -2877.654 7        42.567               
G14  26834816.710 6 141017887.170 6     -1626.050 6        41.932               
G15  22429016.649 7 117865295.830 7     -1742.810 7        43.130               
G18  23221187.819 5 122028176.293 5     -1927.971 5        32.892               
G22  26388765.924 7 138673880.396 7     -1055.494 7        42.340               
G23  22018545.374 7 115708258.006 7      1680.581 7        44.880               
G24  21377353.761 7 112338766.707 7        47.876 7        47.216               
> 2025 08 06 06 44 31.0000000  0  9                                             
G05  25571474.678 7 134378990.765 7     -3291.272 7        45.966               
G12  26086838.154 7 137087265.769 7      3249.421 7        44.286               
G13  25233452.428 7 132602676.442 7     -2877.462 7        42.726               
G14  26835123.021 6 141019513.336 6     -1626.354 6        41.898               
G15  22429349.388 7 117867038.593 7     -1742.863 7        43.170               
G18  23221553.973 5 122030104.277 5     -1928.086 5        33.063               
G22  26388964.538 7 138674936.050 7     -1055.852 7        42.425               
G23  22018223.750 7 115706577.529 7      1680.367 7        44.909               
G24  21377343.575 7 112338719.083 7        47.393 7        47.253               
> 2025 08 06 06 44 32.0000000  0  9                                             
G05  25572101.488 7 134382282.181 7     -3291.612 7        45.918               
G12  26086220.475 7 137084016.466 7      3249.223 7        44.219               
G13  25233998.863 7 132605553.895 7     -2877.519 7        42.623               
G14  26835430.493 6 141021139.963 6     -1626.921 6        41.802               
G15  22429678.357 7 117868781.554 7     -1743.286 7        42.938               
G18  23221916.339 5 122032032.780 5     -1928.544 5        33.036               
G22  26389165.368 7 138675992.188 7     -1056.567 7        42.404               
G23  22017902.215 7 115704897.430 7      1679.922 7        44.931               
G24  21377334.855 7 112338672.079 7        46.586 7        47.262               
> 2025 08 06 06 44 33.0000000  0  9                                             
G05  25572725.992 7 134385573.822 7     -3291.716 7        45.965               
G12  26085604.047 7 137080767.154 7      3249.383 7        44.033               
G13  25234544.333 7 132608431.347 7     -2877.315 7        42.491               
G14  26835740.271 6 141022767.063 6     -1627.421 6        41.651               
G15  22430010.899 7 117870524.778 7     -1743.199 7        42.919               
G18  23222283.690 5 122033961.850 5     -1929.268 5        33.293               
G22  26389365.233 7 138677048.877 7     -1057.023 7        42.352               
G23  22017583.682 7 115703217.746 7      1679.536 7        44.844               
G24  21377327.154 7 112338625.751 7        46.055 7        47.198               
> 2025 08 06 06 44 34.0000000  0  9                                             
G05  25573353.016 7 134388865.713 7     -3291.934 7        45.855               
G12  26084985.726 7 137077517.849 7      3249.347 7        43.913               
G13  25235092.536 7 132611308.831 7     -2877.406 7        42.363               
G14  26836048.172 6 141024394.698 6     -1627.729 6        41.367               
G15  22430341.262 7 117872268.317 7     -1743.558 7        42.814               
G18  23222650.238 5 122035891.514 5     -1929.642 5        33.421               
G22  26389565.992 7 138678106.131 7     -1057.533 7        42.302               
G23  22017265.059 7 115701538.523 7      1679.055 7        44.742               
G24  21377321.186 7 112338580.127 7        45.294 7        47.133               
> 2025 08 06 06 44 35.0000000  0  9                                             
G05  25573978.700 7 134392157.769 7     -3292.284 7        45.813               
G12  26084366.224 7 137074268.478 7      3249.432 7        43.698               
G13  25235639.650 7 132614186.282 7     -2877.449 7        42.381               
G14  26836355.805 6 141026022.757 6     -1628.313 6        40.986               
G15  22430671.838 7 117874012.052 7     -1744.055 7        42.849               
G18  23223012.782 5 122037821.702 5     -1930.797 5        33.380               
G22  26389767.983 7 138679163.875 7     -1058.074 7        42.229               
G23  22016945.472 7 115699859.671 7      1678.499 7        44.589               
G24  21377313.377 7 112338535.136 7        44.576 7        47.317               
> 2025 08 06 06 44 36.0000000  0  9                                             
G05  25574605.545 7 134395450.031 7     -3292.277 7        45.810               
G12  26083747.224 7 137071019.076 7      3249.374 7        43.654               
G13  25236188.944 7 132617063.727 7     -2877.497 7        42.329               
G14  26836665.993 6 141027651.294 6     -1628.811 6        40.700               
G15  22431002.558 7 117875756.045 7     -1744.080 7        42.880               
G18  23223376.417 5 122039752.432 5     -1930.962 5        33.396               
G22  26389971.744 7 138680222.161 7     -1058.609 7        42.159               
G23  22016627.725 7 115698181.227 7      1678.315 7        44.688               
G24  21377305.782 7 112338490.813 7        44.021 7        47.230               
> 2025 08 06 06 44 37.0000000  0  9                                             
G05  25575231.944 7 134398742.469 7     -3292.637 7        45.819               
G12  26083130.206 7 137067769.619 7      3249.504 7        43.767               
G13  25236733.717 7 132619941.125 7     -2877.368 7        42.271               
G14  26836978.701 6 141029280.281 6     -1629.381 6        40.556               
G15  22431332.939 7 117877500.236 7     -1744.232 7        43.016               
G18  23223742.410 5 122041683.717 5     -1931.205 5        33.192               
G22  26390174.718 7 138681280.925 7     -1059.035 7        42.175               
G23  22016307.833 7 115696503.165 7      1677.830 7        44.684               
G24  21377297.402 7 112338447.130 7        43.256 7        47.347               
> 2025 08 06 06 44 38.0000000  0  9                                             
G05  25575857.681 7 134402035.040 7     -3292.583 7        45.829               
G12  26082512.331 7 137064520.048 7      3249.448 7        43.954               
G13  25237282.099 7 132622818.451 7     -2877.557 7        42.227               
G14  26837288.979 6 141030909.683 6     -1629.715 6        40.348               
G15  22431663.837 7 117879244.611 7     -1744.558 7        43.036               
G18  23224115.962 5 122043615.436 5     -1931.729 5        33.240               
G22  26390375.744 7 138682340.146 7     -1059.376 7        42.136               
G23  22015988.532 7 115694825.442 7      1677.535 7        44.751               
G24  21377288.128 7 112338404.034 7        42.752 7        47.453               
> 2025 08 06 06 44 39.0000000  0  9                                             
G05  25576483.937 7 134405327.840 7     -3292.708 7        45.719               
G12  26081892.901 7 137061270.475 7      3249.737 7        43.843               
G13  25237825.889 7 132625695.799 7     -2877.172 7        42.254               
G14  26837600.257 6 141032539.601 6     -1629.988 6        40.129               
G15  22431995.862 7 117880989.263 7     -1744.574 7        42.951               
G18  23224487.763 5 122045547.775 5     -1932.535 5        33.343               
G22  26390577.450 7 138683399.922 7     -1059.813 7        42.218               
G23  22015669.123 7 115693148.144 7      1677.239 7        44.790               
G24  21377278.961 7 112338361.627 7        42.290 7        47.372               
> 2025 08 06 06 44 40.0000000  0  9                                             
G05  25577111.443 7 134408620.807 7     -3293.100 7        45.651               
G12  26081273.776 7 137058020.829 7      3249.617 7        43.975               
G13  25238370.644 7 132628573.100 7     -2877.376 7        42.193               
G14  26837908.498 6 141034169.928 6     -1630.605 6        39.986               
G15  22432328.493 7 117882734.119 7     -1744.848 7        42.738               
G18  23224857.759 5 122047480.578 5     -1933.197 5        33.585               
G22  26390779.763 7 138684460.191 7     -1060.353 7        42.101               
G23  22015349.285 7 115691471.222 7      1676.768 7        44.727               
G24  21377268.704 7 112338319.848 7        41.479 7        47.282               
> 2025 08 06 06 44 41.0000000  0  9                                             
G05  25577737.252 7 134411914.000 7     -3293.350 7        45.593               
G12  26080655.900 7 137054771.168 7      3249.689 7        44.075               
G13  25238919.223 7 132631450.417 7     -2877.377 7        42.025               
G14  26838219.616 6 141035800.747 6     -1631.061 6        39.867               
G15  22432662.644 7 117884479.237 7     -1745.252 7        42.572               
G18  23225231.561 5 122049413.994 5     -1933.547 5        33.601               
G22  26390983.220 7 138685520.991 7     -1061.110 7        42.095               
G23  22015029.984 7 115689794.718 7      1676.282 7        44.786               
G24  21377259.234 7 112338278.729 7        40.676 7        47.354               
> 2025 08 06 06 44 42.0000000  0  9                                             
G05  25578364.366 7 134415207.390 7     -3293.298 7        45.773               
G12  26080037.632 7 137051521.467 7      3249.650 7        44.014               
G13  25239468.535 6 132634327.723 6     -2877.202 6        41.907               
G14  26838530.429 6 141037432.060 6     -1631.126 6        39.585               
G15  22432996.938 7 117886224.593 7     -1745.427 7        42.624               
G18  23225606.971 5 122051347.913 5     -1934.037 5        33.641               
G22  26391188.302 7 138686582.330 7     -1061.469 7        42.063               
G23  22014711.647 7 115688118.621 7      1676.013 7        44.883               
G24  21377251.175 7 112338238.270 7        40.296 7        47.303               
> 2025 08 06 06 44 43.0000000  0  9                                             
G05  25578991.443 7 134418500.870 7     -3293.592 7        45.855               
G12  26079421.169 7 137048271.632 7      3249.828 7        44.096               
G13  25240016.846 6 132637204.915 6     -2877.273 6        41.852               
G14  26838838.062 6 141039063.717 6     -1631.892 6        39.426               
G15  22433331.839 7 117887970.090 7     -1745.489 7        42.537               
G18  23225976.949 5 122053282.280 5     -1934.386 5        33.798               
G22  26391388.435 7 138687644.078 7     -1061.920 7        42.118               
G23  22014394.007 7 115686442.822 7      1675.619 7        44.934               
G24  21377242.937 7 112338198.361 7        39.616 7        47.269               
> 2025 08 06 06 44 44.0000000  0  9                                             
G05  25579618.342 7 134421794.602 7     -3293.859 7        45.835               
G12  26078801.900 7 137045021.800 7      3249.916 7        44.123               
G13  25240565.103 6 132640082.140 6     -2876.991 6        41.890               
G14  26839144.355 6 141040695.888 6     -1632.519 6        39.095               
G15  22433666.669 7 117889715.868 7     -1745.859 7        42.600               
G18  23226339.923 5 122055217.254 5     -1935.206 5        34.076               
G22  26391588.229 7 138688706.402 7     -1062.634 7        42.112               
G23  22014075.546 7 115684767.476 7      1675.128 7        45.032               
G24  21377236.540 7 112338159.149 7        38.871 7        47.181               
> 2025 08 06 06 44 45.0000000  0  9                                             
G05  25580244.991 7 134425088.535 7     -3294.049 7        45.903               
G12  26078181.970 7 137041771.960 7      3249.859 7        44.113               
G13  25241113.432 6 132642959.363 6     -2877.405 6        41.733               
G14  26839456.885 6 141042328.545 6     -1633.144 6        38.828               
G15  22433998.586 7 117891461.895 7     -1746.110 7        42.657               
G18  23226705.702 5 122057152.781 5     -1936.136 5        34.124               
G22  26391787.040 7 138689769.247 7     -1063.425 7        42.298               
G23  22013759.639 7 115683092.543 7      1674.694 7        45.066               
G24  21377229.124 7 112338120.608 7        38.095 7        47.033               
> 2025 08 06 06 44 46.0000000  0  9                                             
G05  25580870.568 7 134428382.717 7     -3294.192 7        45.980               
G12  26077564.363 7 137038522.108 7      3249.893 7        43.980               
G13  25241662.190 6 132645836.610 6     -2877.148 6        41.686               
G14  26839769.199 6 141043961.674 6     -1633.376 6        38.493               
G15  22434329.627 7 117893208.197 7     -1746.427 7        42.758               
G18  23227073.142 5 122059088.866 5     -1936.449 5        34.508               
G22  26391990.103 7 138690832.657 7     -1063.564 7        42.203               
G23  22013441.428 7 115681418.043 7      1674.307 7        45.086               
G24  21377221.351 7 112338082.749 7        37.518 7        46.944               
> 2025 08 06 06 44 47.0000000  0  9                                             
G05  25581498.038 7 134431677.069 7     -3294.472 7        46.169               
G12  26076946.738 7 137035272.192 7      3249.812 7        43.958               
G13  25242209.214 6 132648713.821 6     -2877.158 6        41.749               
G14  26840079.388 6 141045595.302 6     -1633.943 6        38.242               
G15  22434662.116 7 117894954.705 7     -1746.690 7        42.874               
G18  23227436.902 5 122061025.494 5     -1936.846 5        34.650               
G22  26392192.935 7 138691896.557 7     -1064.340 7        42.180               
G23  22013123.913 7 115679743.922 7      1673.823 7        45.288               
G24  21377217.241 7 112338045.531 7        36.900 7        46.947               
> 2025 08 06 06 44 48.0000000  0  9                                             
G05  25582125.188 7 134434971.605 7     -3294.678 7        46.227               
G12  26076327.755 7 137032022.234 7      3249.861 7        43.878               
G13  25242759.116 6 132651590.999 6     -2877.460 6        41.822               
G14  26840392.417 6 141047229.323 6     -1634.419 6        37.920               
G15  22434994.963 7 117896701.448 7     -1746.999 7        42.856               
G18  23227805.647 5 122062962.641 5     -1937.826 5        34.658               
G22  26392398.196 7 138692960.964 7     -1064.831 7        42.150               
G23  22012805.004 7 115678070.195 7      1673.431 7        45.420               
G24  21377211.041 7 112338008.953 7        36.184 7        46.947               
> 2025 08 06 06 44 49.0000000  0  9                                             
G05  25582753.355 7 134438266.388 7     -3294.961 7        46.330               
G12  26075708.897 7 137028772.289 7      3249.901 7        43.992               
G13  25243307.087 6 132654468.210 6     -2877.255 6        41.820               
G14  26840707.162 6 141048863.915 6     -1634.880 6        37.751               
G15  22435329.846 7 117898448.491 7     -1747.212 7        42.901               
G18  23228173.963 5 122064900.390 5     -1938.032 5        34.827               
G22  26392602.064 7 138694025.951 7     -1065.015 7        42.178               
G23  22012484.631 7 115676396.917 7      1673.046 7        45.668               
G24  21377203.858 7 112337973.083 7        35.445 7        46.965               
> 2025 08 06 06 44 50.0000000  0  9                                             
G05  25583379.539 7 134441561.351 7     -3295.045 7        46.287               
G12  26075091.326 7 137025522.291 7      3249.972 7        43.877               
G13  25243852.593 6 132657345.402 6     -2877.062 6        41.786               
G14  26841017.779 6 141050498.947 6     -1635.242 6        37.583               
G15  22435662.478 7 117900195.738 7     -1747.268 7        42.907               
G18  23228546.783 5 122066838.674 5     -1938.341 5        34.811               
G22  26392805.235 7 138695091.448 7     -1065.785 7        42.208               
G23  22012166.866 7 115674724.035 7      1672.638 7        45.772               
G24  21377196.228 7 112337937.862 7        34.971 7        46.924               
> 2025 08 06 06 44 51.0000000  0  9                                             
G05  25584006.796 7 134444856.500 7     -3295.123 7        46.231               
G12  26074472.718 7 137022272.256 7      3249.965 7        44.137               
G13  25244398.813 6 132660222.580 6     -2877.173 6        41.812               
G14  26841330.166 6 141052134.439 6     -1635.666 6        37.486               
G15  22435995.699 7 117901943.226 7     -1747.712 7        43.146               
G18  23228918.208 5 122068777.479 5     -1939.162 5        34.909               
G22  26393009.227 7 138696157.446 7     -1066.414 7        42.222               
G23  22011847.582 7 115673051.545 7      1672.247 7        45.462               
G24  21377188.133 7 112337903.292 7        34.209 7        46.924               
> 2025 08 06 06 44 52.0000000  0  9                                             
G05  25584634.785 7 134448151.892 7     -3295.459 7        46.400               
G12  26073854.039 7 137019022.234 7      3250.028 7        44.106               
G13  25244945.212 6 132663099.787 6     -2877.224 6        41.975               
G14  26841642.052 6 141053770.432 6     -1635.886 6        37.269               
G15  22436327.509 7 117903691.007 7     -1747.961 7        43.379               
G18  23229287.275 5 122070716.899 5     -1939.861 5        34.943               
G22  26393212.666 7 138697224.029 7     -1066.961 7        42.191               
G23  22011528.066 7 115671379.508 7      1671.793 7        45.450               
G24  21377179.252 7 112337869.410 7        33.531 7        46.945               
> 2025 08 06 06 44 53.0000000  0  9                                             
G05  25585261.862 7 134451447.445 7     -3295.742 7        46.335               
G12  26073236.611 7 137015772.144 7      3250.034 7        44.255               
G13  25245492.058 6 132665976.953 6     -2877.167 6        41.919               
G14  26841951.597 6 141055406.860 6     -1636.973 6        37.160               
G15  22436658.461 7 117905439.001 7     -1748.258 7        43.541               
G18  23229648.855 5 122072656.840 5     -1940.148 5        34.939               
G22  26393415.783 7 138698291.108 7     -1067.444 7        42.197               
G23  22011209.604 7 115669707.849 7      1671.472 7        45.312               
G24  21377172.283 7 112337836.159 7        32.934 7        46.875               
> 2025 08 06 06 44 54.0000000  0  9                                             
G05  25585889.798 7 134454743.194 7     -3295.966 7        46.346               
G12  26072616.466 7 137012522.026 7      3249.965 7        44.160               
G13  25246042.620 6 132668854.113 6     -2877.327 6        41.987               
G14  26842262.303 6 141057043.776 6     -1637.088 6        37.067               
G15  22436990.271 7 117907187.223 7     -1748.498 7        43.510               
G18  23230018.904 5 122074597.286 5     -1941.161 5        35.022               
G22  26393618.400 6 138699358.680 6     -1068.094 6        41.975               
G23  22010890.964 7 115668036.585 7      1670.812 7        45.416               
G24  21377167.834 7 112337803.559 7        32.167 7        46.995               
> 2025 08 06 06 44 55.0000000  0  9                                             
G05  25586517.215 7 134458039.272 7     -3296.095 7        46.454               
G12  26071997.519 7 137009271.972 7      3250.048 7        44.354               
G13  25246589.591 6 132671731.348 6     -2877.093 6        41.847               
G14  26842575.315 6 141058681.258 6     -1638.048 6        36.805               
G15  22437322.242 7 117908935.798 7     -1748.699 7        43.786               
G18  23230388.114 5 122076538.422 5     -1941.363 5        35.095               
G22  26393821.910 7 138700426.885 7     -1068.281 7        42.036               
G23  22010573.003 7 115666365.835 7      1670.574 7        45.375               
G24  21377163.777 7 112337771.724 7        31.621 7        47.052               
> 2025 08 06 06 44 56.0000000  0  9                                             
G05  25587144.006 7 134461335.530 7     -3296.459 7        46.633               
G12  26071379.340 7 137006021.867 7      3250.042 7        44.293               
G13  25247138.134 6 132674608.575 6     -2877.377 6        41.816               
G14  26842890.614 6 141060319.189 6     -1638.071 6        36.504               
G15  22437655.875 7 117910684.593 7     -1749.103 7        43.783               
G18  23230752.124 5 122078480.068 5     -1942.085 5        35.200               
G22  26394023.080 7 138701495.591 7     -1069.064 7        42.078               
G23  22010252.879 7 115664695.477 7      1670.043 7        45.306               
G24  21377159.846 7 112337740.530 7        30.735 7        47.004               
> 2025 08 06 06 44 57.0000000  0  9                                             
G05  25587770.887 7 134464632.013 7     -3296.639 7        46.626               
G12  26070761.537 7 137002771.754 7      3250.106 7        44.427               
G13  25247682.818 6 132677485.808 6     -2877.366 6        41.691               
G14  26843200.981 6 141061957.608 6     -1638.393 6        36.339               
G15  22437989.311 7 117912433.658 7     -1749.334 7        43.903               
G18  23231123.460 5 122080422.300 5     -1942.363 5        35.181               
G22  26394226.840 7 138702564.841 7     -1069.575 7        42.312               
G23  22009936.454 7 115663025.548 7      1669.713 7        45.337               
G24  21377155.290 7 112337710.020 7        30.189 7        46.802               
> 2025 08 06 06 44 58.0000000  0  9                                             
G05  25588398.465 7 134467928.697 7     -3296.922 7        46.658               
G12  26070141.589 7 136999521.584 7      3250.147 7        44.427               
G13  25248230.128 6 132680363.017 6     -2877.495 6        41.541               
G14  26843514.082 6 141063596.445 6     -1639.200 6        36.086               
G15  22438324.337 7 117914182.950 7     -1749.529 7        43.947               
G18  23231495.529 5 122082365.033 5     -1943.217 5        35.119               
G22  26394430.101 7 138703634.598 7     -1070.044 7        42.306               
G23  22009618.368 7 115661355.997 7      1669.339 7        45.290               
G24  21377149.375 7 112337680.144 7        29.515 7        46.713               
> 2025 08 06 06 44 59.0000000  0  9                                             
G05  25589026.276 7 134471225.605 7     -3296.994 7        46.595               
G12  26069523.892 7 136996271.410 7      3250.210 7        44.555               
G13  25248778.493 6 132683240.240 6     -2877.202 6        41.591               
G14  26843831.078 5 141065235.824 5     -1639.635 5        35.736               
G15  22438660.292 7 117915932.489 7     -1749.735 7        44.065               
G18  23231869.081 5 122084308.335 5     -1943.555 5        35.178               
G22  26394633.289 7 138704704.888 7     -1070.495 7        42.307               
G23  22009300.746 7 115659686.873 7      1668.879 7        45.288               
G24  21377143.514 7 112337650.944 7        28.803 7        46.630               
> 2025 08 06 06 45 00.0000000  0  9                                             
G05  25589653.746 7 134474522.711 7     -3297.215 7        46.673               
G12  26068904.391 7 136993021.198 7      3250.232 7        44.799               
G13  25249324.999 6 132686117.463 6     -2877.307 6        41.601               
G14  26844143.554 5 141066875.691 5     -1640.213 5        35.517               
G15  22438992.835 7 117917682.291 7     -1749.978 7        44.115               
G18  23232235.950 5 122086252.190 5     -1944.521 5        35.298               
G22  26394836.692 7 138705775.724 7     -1070.915 7        42.260               
G23  22008984.232 7 115658018.165 7      1668.421 7        45.215               
G24  21377136.545 7 112337622.408 7        28.190 7        46.624               
> 2025 08 06 06 45 01.0000000  0  9                                             
G05  25590280.467 7 134477819.973 7     -3297.302 7        46.624               
G12  26068285.658 7 136989770.930 7      3250.273 7        44.763               
G13  25249872.541 6 132688994.630 6     -2877.244 6        41.582               
G14  26844455.833 5 141068515.962 5     -1640.062 5        35.372               
G15  22439322.590 7 117919432.300 7     -1750.157 7        44.178               
G18  23232604.141 5 122088196.550 5     -1944.943 5        35.476               
G22  26395042.132 7 138706847.043 7     -1071.546 7        42.258               
G23  22008669.702 7 115656349.829 7      1668.124 7        45.270               
G24  21377131.059 7 112337594.494 7        27.518 7        46.583               
> 2025 08 06 06 45 02.0000000  0  9                                             
G05  25590908.473 7 134481117.485 7     -3297.589 7        46.646               
G12  26067666.908 7 136986520.663 7      3250.265 7        44.650               
G13  25250420.513 6 132691871.847 6     -2877.333 6        41.593               
G14  26844771.686 5 141070156.791 5     -1641.039 5        35.410               
G15  22439655.597 7 117921182.585 7     -1750.461 7        44.272               
G18  23232972.690 5 122090141.516 5     -1945.516 5        35.516               
G22  26395247.626 7 138707918.922 7     -1072.100 7        42.088               
G23  22008353.241 7 115654681.952 7      1667.592 7        45.328               
G24  21377127.271 7 112337567.292 7        26.908 7        46.708               
> 2025 08 06 06 45 03.0000000  0  9                                             
G05  25591536.909 7 134484415.169 7     -3297.737 7        46.743               
G12  26067048.782 7 136983270.344 7      3250.270 7        44.632               
G13  25250965.858 6 132694749.032 6     -2877.204 6        41.727               
G14  26845081.839 5 141071798.047 5     -1641.508 5        35.349               
G15  22439987.961 7 117922933.103 7     -1750.670 7        44.254               
G18  23233337.629 5 122092087.025 5     -1945.869 5        35.369               
G22  26395448.760 7 138708991.318 7     -1072.605 7        42.082               
G23  22008036.441 7 115653014.459 7      1667.240 7        45.421               
G24  21377123.304 7 112337540.724 7        26.188 7        46.670               
> 2025 08 06 06 45 04.0000000  0  9                                             
G05  25592164.237 7 134487713.080 7     -3298.004 7        46.459               
G12  26066430.800 7 136980020.036 7      3250.450 7        44.655               
G13  25251513.543 6 132697626.228 6     -2877.159 6        41.799               
G14  26845391.848 5 141073439.790 5     -1641.825 5        35.168               
G15  22440320.914 7 117924683.892 7     -1750.762 7        44.349               
G18  23233707.982 5 122094033.113 5     -1945.685 5        35.126               
G22  26395654.843 6 138710064.265 6     -1073.063 6        41.966               
G23  22007718.105 7 115651347.406 7      1666.923 7        45.405               
G24  21377118.604 7 112337514.849 7        25.510 7        46.802               
> 2025 08 06 06 45 05.0000000  0  9                                             
G05  25592789.974 7 134491011.133 7     -3298.234 7        46.363               
G12  26065815.141 7 136976769.619 7      3250.407 7        44.673               
G13  25252062.337 6 132700503.355 6     -2877.342 6        41.871               
G14  26845701.876 5 141075081.947 5     -1642.315 5        35.124               
G15  22440652.688 7 117926434.854 7     -1751.158 7        44.299               
G18  23234080.319 5 122095979.664 5     -1946.480 5        34.995               
G22  26395861.088 6 138711137.667 6     -1073.685 6        41.959               
G23  22007399.714 7 115649680.693 7      1666.452 7        45.433               
G24  21377114.084 7 112337489.562 7        24.853 7        46.797               
> 2025 08 06 06 45 06.0000000  0  9                                             
G05  25593415.891 7 134494309.430 7     -3298.300 7        46.384               
G12  26065195.872 7 136973519.226 7      3250.513 7        44.821               
G13  25252610.505 6 132703380.520 6     -2877.054 6        41.845               
G14  26846017.818 5 141076724.620 5     -1642.916 5        35.046               
G15  22440985.803 7 117928186.103 7     -1751.301 7        44.381               
G18  23234451.834 5 122097926.802 5     -1947.362 5        34.979               
G22  26396065.170 6 138712211.642 6     -1074.167 6        41.988               
G23  22007081.950 7 115648014.432 7      1666.060 7        45.398               
G24  21377108.634 7 112337464.976 7        24.424 7        46.845               
> 2025 08 06 06 45 07.0000000  0  9                                             
G05  25594042.504 7 134497607.916 7     -3298.605 7        46.230               
G12  26064575.960 7 136970268.799 7      3250.448 7        44.935               
G13  25253156.707 6 132706257.670 6     -2877.092 6        41.850               
G14  26846330.687 5 141078367.755 5     -1643.715 5        34.905               
G15  22441321.365 7 117929937.592 7     -1751.625 7        44.421               
G18  23234822.259 5 122099874.497 5     -1947.883 5        34.963               
G22  26396268.877 7 138713286.125 7     -1074.543 7        42.035               
G23  22006765.650 7 115646348.581 7      1665.738 7        45.411               
G24  21377102.755 7 112337441.037 7        23.689 7        46.788               
> 2025 08 06 06 45 08.0000000  0  9                                             
G05  25594671.136 7 134500906.584 7     -3298.842 7        46.141               
G12  26063957.656 7 136967018.312 7      3250.352 7        44.890               
G13  25253705.018 6 132709134.795 6     -2877.164 6        41.877               
G14  26846635.425 5 141080011.336 5     -1644.336 5        34.620               
G15  22441654.122 7 117931689.305 7     -1751.871 7        44.384               
G18  23235197.562 5 122101822.704 5     -1948.567 5        34.920               
G22  26396475.085 7 138714361.121 7     -1075.357 7        42.107               
G23  22006446.259 7 115644683.123 7      1665.084 7        45.454               
G24  21377098.502 7 112337417.752 7        22.856 7        46.846               
> 2025 08 06 06 45 09.0000000  0  9                                             
G05  25595298.642 7 134504205.462 7     -3298.945 7        45.969               
G12  26063339.691 7 136963767.823 7      3250.361 7        44.775               
G13  25254253.508 6 132712011.923 6     -2877.207 6        41.880               
G14  26846949.848 5 141081655.408 5     -1643.899 5        34.204               
G15  22441985.735 7 117933441.272 7     -1752.204 7        44.365               
G18  23235567.057 5 122103771.466 5     -1949.286 5        34.969               
G22  26396675.951 7 138715436.665 7     -1075.783 7        42.017               
G23  22006131.210 7 115643018.072 7      1664.778 7        45.526               
G24  21377093.802 7 112337395.136 7        22.199 7        46.785               
> 2025 08 06 06 45 10.0000000  0  9                                             
G05  25595927.096 7 134507504.558 7     -3299.300 7        45.935               
G12  26062720.798 7 136960517.336 7      3250.429 7        44.700               
G13  25254803.874 7 132714889.069 7     -2877.244 7        42.009               
G14  26847262.324 5 141083299.963 5     -1644.395 5        33.940               
G15  22442317.813 7 117935193.518 7     -1752.638 7        44.209               
G18  23235939.930 5 122105720.834 5     -1949.511 5        35.241               
G22  26396877.817 7 138716512.756 7     -1076.596 7        42.011               
G23  22005815.125 7 115641353.474 7      1664.279 7        45.496               
G24  21377090.193 7 112337373.209 7        21.519 7        46.763               
> 2025 08 06 06 45 11.0000000  0  9                                             
G05  25596553.369 7 134510803.863 7     -3299.545 7        45.923               
G12  26062102.279 7 136957266.811 7      3250.547 7        44.767               
G13  25255352.167 7 132717766.197 7     -2877.148 7        42.201               
G14  26847581.768 5 141084945.012 5     -1645.284 5        33.627               
G15  22442651.285 7 117936946.011 7     -1752.745 7        43.899               
G18  23236310.462 5 122107670.716 5     -1950.136 5        35.347               
G22  26397083.472 6 138717589.361 6     -1076.891 6        41.932               
G23  22005499.719 7 115639689.281 7      1663.913 7        45.392               
G24  21377086.315 7 112337351.951 7        20.954 7        46.774               
> 2025 08 06 06 45 12.0000000  0  9                                             
G05  25597180.733 7 134514103.354 7     -3299.547 7        45.924               
G12  26061484.905 7 136954016.248 7      3250.584 7        44.721               
G13  25255899.227 7 132720643.317 7     -2877.066 7        42.220               
G14  26847887.400 5 141086590.507 5     -1645.951 5        33.289               
G15  22442984.542 7 117938698.727 7     -1752.866 7        43.794               
G18  23236684.783 5 122109621.127 5     -1950.523 5        35.404               
G22  26397289.359 7 138718666.499 7     -1077.349 7        42.020               
G23  22005182.830 7 115638025.491 7      1663.630 7        45.542               
G24  21377081.294 7 112337331.321 7        20.248 7        46.649               
> 2025 08 06 06 45 13.0000000  0  9                                             
G05  25597809.240 7 134517403.055 7     -3299.800 7        45.878               
G12  26060865.350 7 136950765.652 7      3250.683 7        44.818               
G13  25256444.089 7 132723520.423 7     -2877.000 7        42.439               
G14  26848196.945 5 141088236.485 5     -1645.679 5        33.072               
G15  22443319.068 7 117940451.690 7     -1753.280 7        44.072               
G18  23237054.582 5 122111572.114 5     -1951.236 5        35.389               
G22  26397495.889 6 138719744.134 6     -1078.021 6        41.889               
G23  22004867.442 7 115636362.114 7      1663.065 7        45.652               
G24  21377076.255 7 112337311.370 7        19.493 7        46.494               
> 2025 08 06 06 45 14.0000000  0  9                                             
G05  25598438.069 7 134520702.961 7     -3300.075 7        45.717               
G12  26060246.421 7 136947515.040 7      3250.600 7        44.875               
G13  25256991.239 7 132726397.525 7     -2877.293 7        42.381               
G14  26848514.764 5 141089882.948 5     -1646.965 5        32.565               
G15  22443655.703 7 117942204.910 7     -1753.344 7        44.271               
G18  23237425.597 5 122113523.643 5     -1951.836 5        35.482               
G22  26397700.239 6 138720822.331 6     -1078.394 6        41.865               
G23  22004550.248 7 115634699.146 7      1662.746 7        45.810               
G24  21377071.806 7 112337292.075 7        18.859 7        46.482               
> 2025 08 06 06 45 15.0000000  0  9                                             
G05  25599066.201 7 134524003.064 7     -3300.047 7        45.708               
G12  26059628.831 7 136944264.393 7      3250.829 7        44.980               
G13  25257541.426 7 132729274.633 7     -2876.901 7        42.322               
G14  26848831.224 5 141091529.874 5     -1647.310 5        32.209               
G15  22443989.889 7 117943958.370 7     -1753.386 7        44.280               
G18  23237800.381 5 122115475.698 5     -1952.072 5        35.540               
G22  26397907.448 6 138721901.043 6     -1078.845 6        41.664               
G23  22004232.001 7 115633036.586 7      1662.550 7        45.697               
G24  21377069.643 7 112337273.438 7        18.451 7        46.377               
> 2025 08 06 06 45 16.0000000  0  9                                             
G05  25599695.012 7 134527303.328 7     -3300.454 7        45.855               
G12  26059010.617 7 136941013.686 7      3250.703 7        45.134               
G13  25258091.381 7 132732151.687 7     -2877.171 7        42.423               
G14  26849152.902 5 141093177.216 5     -1647.630 5        31.902               
G15  22444325.773 7 117945712.035 7     -1753.837 7        44.447               
G18  23238173.183 5 122117428.279 5     -1953.050 5        35.643               
G22  26398116.283 6 138722980.250 6     -1079.469 6        41.591               
G23  22003915.326 7 115631374.404 7      1661.903 7        45.655               
G24  21377066.874 7 112337255.424 7        17.516 7        46.296               
> 2025 08 06 06 45 17.0000000  0  9                                             
G05  25600323.233 7 134530603.793 7     -3300.679 7        45.791               
G12  26058391.366 7 136937762.929 7      3250.646 7        45.218               
G13  25258638.512 7 132735028.724 7     -2877.138 7        42.442               
G14  26849463.537 5 141094825.063 5     -1647.763 5        31.600               
G15  22444659.567 7 117947465.933 7     -1754.089 7        44.555               
G18  23238544.305 5 122119381.408 5     -1953.529 5        35.896               
G22  26398323.546 6 138724059.970 6     -1080.232 6        41.587               
G23  22003600.045 7 115629712.619 7      1661.367 7        45.671               
G24  21377063.246 7 112337238.061 7        16.900 7        46.255               
> 2025 08 06 06 45 18.0000000  0  9                                             
G05  25600951.722 7 134533904.448 7     -3300.733 7        46.018               
G12  26057772.079 7 136934512.160 7      3250.829 7        45.056               
G13  25259186.091 7 132737905.763 7     -2876.834 7        42.501               
G14  26849770.634 5 141096473.282 5     -1648.738 5        30.777               
G15  22444992.770 7 117949220.088 7     -1754.138 7        44.636               
G18  23238916.856 6 122121335.092 6     -1953.892 6        36.204               
G22  26398530.184 6 138725140.222 6     -1080.531 6        41.647               
G23  22003285.104 7 115628051.253 7      1661.320 7        45.662               
G24  21377059.315 7 112337221.371 7        16.371 7        46.297               
> 2025 08 06 06 45 19.0000000  0  9                                             
G05  25601580.908 7 134537205.246 7     -3301.002 7        46.071               
G12  26057153.614 7 136931261.319 7      3250.707 7        45.018               
G13  25259734.205 7 132740782.733 7     -2876.970 7        42.564               
G14  26850078.553 5 141098122.013 5     -1649.313 5        30.193               
G15  22445326.564 7 117950974.425 7     -1754.461 7        44.756               
G18  23239292.213 6 122123289.249 6     -1954.561 6        36.205               
G22  26398737.178 6 138726220.936 6     -1081.122 6        41.598               
G23  22002968.876 7 115626390.248 7      1660.717 7        45.720               
G24  21377057.993 7 112337205.274 7        15.472 7        45.962               
> 2025 08 06 06 45 20.0000000  0  9                                             
G05  25602209.433 7 134540506.225 7     -3300.998 7        46.218               
G12  26056534.739 7 136928010.419 7      3250.852 7        44.846               
G13  25260278.263 7 132743659.679 7     -2876.970 7        42.694               
G14  26850401.876 4 141099771.153 4     -1649.233 4        29.745               
G15  22445659.303 7 117952728.988 7     -1754.707 7        44.869               
G18  23239667.998 6 122125243.938 6     -1954.853 6        36.168               
G22  26398941.529 6 138727302.160 6     -1081.464 6        41.639               
G23  22002652.737 7 115624729.632 7      1660.430 7        45.741               
G24  21377055.348 7 112337189.834 7        15.039 7        45.867               
> 2025 08 06 06 45 21.0000000  0  9                                             
G05  25602838.155 7 134543807.394 7     -3301.478 7        46.301               
G12  26055916.667 7 136924759.496 7      3250.726 7        44.659               
G13  25260825.645 7 132746536.615 7     -2877.186 7        42.639               
G14  26850728.110 4 141101420.817 4     -1650.080 4        29.552               
G15  22445991.470 7 117954483.792 7     -1754.966 7        44.675               
G18  23240041.961 6 122127199.155 6     -1955.742 6        36.254               
G22  26399140.214 6 138728383.900 6     -1082.212 6        41.586               
G23  22002336.098 7 115623069.416 7      1659.842 7        45.703               
G24  21377052.185 7 112337175.033 7        14.402 7        45.930               
> 2025 08 06 06 45 22.0000000  0  9                                             
G05  25603465.697 7 134547108.806 7     -3301.605 7        46.446               
G12  26055298.327 7 136921508.579 7      3250.883 7        44.575               
G13  25261369.614 7 132749413.584 7     -2877.064 7        42.532               
G14  26851037.441 4 141103070.912 4     -1650.541 4        29.176               
G15  22446323.477 7 117956238.876 7     -1755.241 7        44.683               
G18  23240412.976 6 122129154.973 6     -1956.131 6        36.505               
G22  26399340.490 6 138729466.210 6     -1082.436 6        41.249               
G23  22002019.905 7 115621409.658 7      1659.485 7        45.754               
G24  21377050.166 7 112337160.937 7        13.656 7        45.989               
> 2025 08 06 06 45 23.0000000  0  9                                             
G05  25604094.830 7 134550410.445 7     -3301.780 7        46.708               
G12  26054679.720 7 136918257.667 7      3250.825 7        44.543               
G13  25261916.906 7 132752290.582 7     -2877.170 7        42.441               
G14  26851347.218 4 141104721.535 4     -1651.222 4        29.053               
G15  22446657.323 7 117957994.241 7     -1755.521 7        44.687               
G18  23240784.330 6 122131111.363 6     -1956.684 6        36.723               
G22  26399545.734 6 138730549.080 6     -1083.254 6        41.067               
G23  22001703.928 7 115619750.343 7      1659.102 7        45.829               
G24  21377047.647 7 112337147.538 7        13.051 7        46.115               
> 2025 08 06 06 45 24.0000000  0  9                                             
G05  25604723.337 7 134553712.330 7     -3302.012 7        46.840               
G12  26054062.345 7 136915006.755 7      3250.966 7        44.556               
G13  25262464.949 7 132755167.604 7     -2876.946 7        42.391               
G14  26851647.454 4 141106372.673 4     -1650.839 4        28.717               
G15  22446990.974 7 117959749.897 7     -1755.745 7        44.700               
G18  23241156.363 6 122133068.334 6     -1957.482 6        36.990               
G22  26399752.425 6 138731632.486 6     -1083.664 6        40.965               
G23  22001387.610 7 115618091.471 7      1658.635 7        45.898               
G24  21377044.484 7 112337134.828 7        12.433 7        46.020               
> 2025 08 06 06 45 25.0000000  0  9                                             
G05  25605352.541 7 134557014.407 7     -3302.078 7        47.085               
G12  26053442.933 7 136911755.824 7      3251.136 7        44.717               
G13  25263011.545 7 132758044.609 7     -2876.980 7        42.279               
G14  26851962.413 4 141108024.313 4     -1652.767 4        28.230               
G15  22447324.714 7 117961505.791 7     -1755.986 7        44.676               
G18  23241528.181 6 122135025.861 6     -1957.526 6        37.150               
G22  26399959.741 6 138732716.427 6     -1084.219 6        40.700               
G23  22001070.506 7 115616433.013 7      1658.280 7        45.996               
G24  21377042.036 7 112337122.777 7        11.891 7        45.906               
> 2025 08 06 06 45 26.0000000  0  9                                             
G05  25605980.280 7 134560316.670 7     -3302.511 7        46.987               
G12  26052826.041 7 136908504.832 7      3250.888 7        44.770               
G13  25263560.249 7 132760921.598 7     -2877.030 7        42.282               
G14  26852293.061 4 141109676.398 4     -1652.070 4        28.118               
G15  22447659.847 7 117963261.900 7     -1756.347 7        44.720               
G18  23241896.569 6 122136983.904 6     -1958.299 6        37.244               
G22  26400170.971 6 138733800.868 6     -1084.825 6        40.713               
G23  22000753.367 7 115614774.944 7      1657.731 7        45.982               
G24  21377038.909 7 112337111.360 7        10.919 7        45.835               
> 2025 08 06 06 45 27.0000000  0  9                                             
G05  25606608.822 7 134563619.203 7     -3302.689 7        47.070               
G12  26052207.558 7 136905253.893 7      3250.817 7        44.922               
G13  25264107.756 7 132763798.648 7     -2877.170 7        42.100               
G14  26852605.787 4 141111329.078 4     -1652.560 4        28.120               
G15  22447996.589 7 117965018.320 7     -1756.525 7        45.076               
G18  23242268.137 6 122138942.558 6     -1958.922 6        37.229               
G22  26400376.250 6 138734885.912 6     -1085.300 6        40.465               
G23  22000438.711 7 115613117.357 7      1657.441 7        45.961               
G24  21377036.300 7 112337100.675 7        10.345 7        45.682               
> 2025 08 06 06 45 28.0000000  0  9                                             
G05  25607237.955 7 134566921.947 7     -3302.802 7        47.086               
G12  26051588.289 7 136902002.945 7      3251.028 7        45.037               
G13  25264657.514 6 132766675.712 6     -2877.030 6        41.951               
G14  26852916.119 4 141112982.148 4     -1652.454 4        28.285               
G15  22448332.759 7 117966775.021 7     -1756.862 7        45.127               
G18  23242639.384 6 122140901.794 6     -1959.485 6        37.314               
G22  26400584.192 6 138735971.504 6     -1085.884 6        40.386               
G23  22000124.020 7 115611460.207 7      1656.973 7        45.909               
G24  21377033.619 7 112337090.676 7         9.730 7        45.672               
