     3.02           OBSERVATION DATA    G                   RINEX VERSION / TYPE
G = GPS  R = GLONASS  E = GALILEO  S = GEO  M = MIXED       COMMENT             
GNSS-SDR            suhjw               20250730 042500 UTC PGM / RUN BY / DATE 
GPS OBSERVATION DATA FILE GENERATED BY GNSS-SDR             COMMENT             
GNSS-SDR VERSION 0.0.20                                     COMMENT             
See https://gnss-sdr.org                                    COMMENT             
DEFAULT MARKER NAME                                         MARKER NAME         
suhjw               CTTC                                    OBSERVER / AGENCY   
GNSS-SDR            Software Receiver   0.0.20              REC # / TYPE / VERS 
Antenna number      Antenna type                            ANT # / TYPE        
        0.0000        0.0000        0.0000                  APPROX POSITION XYZ 
        0.0000        0.0000        0.0000                  ANTENNA: DELTA H/E/N
G    4 C1C L1C D1C S1C                                      SYS / # / OBS TYPES 
DBHZ                                                        SIGNAL STRENGTH UNIT
  2025    07    30    04    25   18.1200000     GPS         TIME OF FIRST OBS   
    18    18   137     7                                    LEAP SECONDS        
                                                            END OF HEADER       
> 2025 07 30 04 25 19.0000000  0  8                                             
G05  23260498.955 7 122234762.411 7      -235.802 7        43.971               
G07  28154108.136 7 147950819.639 7     -2333.905 7        43.665               
G11  25650253.053 7 134792987.183 7     -3178.642 7        45.699               
G13  22396669.071 7 117695309.923 7      -160.844 7        44.262               
G15  23468585.442 7 123328282.449 7      1995.694 7        43.068               
G21  24673565.226 7 129660451.857 7     -1825.703 7        46.522               
G29  25280921.345 6 132852097.873 6     -1387.551 6        40.694               
G30  25810841.981 7 135636884.866 7     -1189.065 7        44.906               
> 2025 07 30 04 25 20.0000000  0  8                                             
G05  23260546.075 7 122234997.837 7      -237.475 7        43.867               
G07  28154546.821 7 147953152.617 7     -2332.481 7        42.818               
G11  25650858.402 7 134796165.339 7     -3176.219 7        45.974               
G13  22396699.163 7 117695471.195 7      -163.437 7        44.768               
G15  23468212.391 7 123326289.544 7      1990.025 7        43.251               
G21  24673914.780 7 129662281.115 7     -1828.591 7        46.324               
G29  25281180.160 6 132853490.007 6     -1391.658 6        40.582               
G30  25811068.721 7 135638073.303 7     -1191.007 7        44.787               
> 2025 07 30 04 25 21.0000000  0  8                                             
G05  23260593.750 7 122235233.585 7      -232.426 7        44.280               
G07  28154993.815 7 147955485.954 7     -2334.743 7        43.322               
G11  25651468.629 7 134799343.830 7     -3178.352 7        46.589               
G13  22396726.681 7 117695633.088 7      -160.734 7        43.999               
G15  23467830.423 7 123324297.079 7      1990.225 7        42.852               
G21  24674261.153 7 129664110.575 7     -1828.135 7        46.747               
G29  25281441.315 6 132854882.736 6     -1386.505 6        40.289               
G30  25811295.979 7 135639262.331 7     -1187.137 7        44.414               
> 2025 07 30 04 25 22.0000000  0  8                                             
G05  23260641.996 7 122235469.621 7      -235.832 7        44.494               
G07  28155437.806 7 147957819.631 7     -2332.657 7        43.324               
G11  25652072.174 7 134802522.628 7     -3180.236 7        47.570               
G13  22396764.188 7 117695795.620 7      -163.523 7        44.505               
G15  23467450.259 7 123322305.098 7      1993.654 7        42.796               
G21  24674608.527 7 129665940.224 7     -1830.024 7        45.842               
G29  25281708.029 6 132856276.028 6     -1398.096 6        40.476               
G30  25811521.200 7 135640451.903 7     -1183.971 7        44.282               
> 2025 07 30 04 25 23.0000000  0  8                                             
G05  23260681.737 7 122235705.918 7      -236.173 7        44.251               
G07  28155880.368 7 147960153.619 7     -2331.073 7        43.944               
G11  25652680.256 7 134805701.711 7     -3178.222 7        47.708               
G13  22396791.027 7 117695958.735 7      -162.532 7        43.966               
G15  23467073.205 7 123320313.506 7      1991.480 7        42.892               
G21  24674954.847 7 129667770.032 7     -1830.809 7        45.457               
G29  25281974.742 6 132857669.850 6     -1394.513 6        40.608               
G30  25811743.991 7 135641642.027 7     -1191.839 7        44.028               
> 2025 07 30 04 25 24.0000000  0  8                                             
G05  23260731.109 7 122235942.430 7      -235.536 7        43.772               
G07  28156324.360 7 147962487.894 7     -2336.376 7        44.196               
G11  25653283.854 7 134808881.039 7     -3179.741 7        47.756               
G13  22396822.816 7 117696122.418 7      -166.355 7        44.247               
G15  23466695.364 7 123318322.305 7      1987.813 7        42.213               
G21  24675302.381 7 129669599.966 7     -1829.396 7        44.956               
G29  25282239.078 6 132859064.137 6     -1397.435 6        41.474               
G30  25811973.161 7 135642832.646 7     -1186.867 7        43.145               
> 2025 07 30 04 25 25.0000000  0  8                                             
G05  23260776.389 7 122236179.210 7      -235.022 7        44.648               
G07  28156767.994 7 147964822.490 7     -2332.679 7        44.044               
G11  25653887.094 7 134812060.666 7     -3176.808 7        47.659               
G13  22396859.358 7 117696286.696 7      -167.483 7        44.704               
G15  23466315.701 7 123316331.506 7      1989.431 7        42.997               
G21  24675648.612 7 129671430.073 7     -1829.090 7        45.003               
G29  25282501.538 6 132860458.970 6     -1394.147 6        41.017               
G30  25812200.759 7 135644023.791 7     -1192.238 7        43.508               
> 2025 07 30 04 25 26.0000000  0  8                                             
G05  23260821.115 7 122236416.296 7      -235.518 7        44.612               
G07  28157212.879 7 147967157.434 7     -2332.563 7        44.399               
G11  25654493.122 8 134815240.620 8     -3179.735 8        48.148               
G13  22396890.468 7 117696451.618 7      -158.598 7        45.088               
G15  23465937.539 7 123314341.159 7      1994.114 7        42.834               
G21  24675997.754 7 129673260.380 7     -1827.373 7        45.464               
G29  25282767.394 6 132861854.376 6     -1399.847 6        41.215               
G30  25812427.553 7 135645215.545 7     -1193.696 7        43.851               
> 2025 07 30 04 25 27.0000000  0  8                                             
G05  23260866.199 7 122236653.669 7      -242.296 7        44.293               
G07  28157654.655 7 147969492.739 7     -2339.148 7        44.301               
G11  25655097.756 8 134818420.905 8     -3178.600 8        48.023               
G13  22396920.453 7 117696617.168 7      -163.302 7        44.408               
G15  23465562.272 7 123312351.268 7      1987.708 7        42.971               
G21  24676346.165 7 129675090.878 7     -1832.510 7        45.460               
G29  25283035.482 6 132863250.366 6     -1395.496 6        40.550               
G30  25812652.148 7 135646407.844 7     -1193.949 7        43.753               
> 2025 07 30 04 25 28.0000000  0  8                                             
G05  23260911.372 7 122236891.358 7      -237.731 7        43.710               
G07  28158097.289 7 147971828.380 7     -2337.181 7        43.812               
G11  25655703.784 7 134821601.523 7     -3180.377 7        47.810               
G13  22396947.649 7 117696783.352 7      -164.146 7        44.370               
G15  23465185.057 7 123310361.844 7      1987.196 7        43.357               
G21  24676696.969 7 129676921.585 7     -1824.933 7        45.746               
G29  25283298.872 6 132864646.910 6     -1395.599 6        40.748               
G30  25812881.676 7 135647600.723 7     -1192.212 7        43.596               
> 2025 07 30 04 25 29.0000000  0  8                                             
G05  23260954.561 7 122237129.287 7      -237.642 7        43.604               
G07  28158540.994 7 147974164.328 7     -2329.941 7        43.448               
G11  25656308.955 7 134824782.392 7     -3181.938 7        47.659               
G13  22396977.097 7 117696950.114 7      -165.864 7        44.710               
G15  23464804.053 7 123308372.815 7      1986.183 7        43.174               
G21  24677044.200 7 129678752.423 7     -1828.568 7        45.786               
G29  25283566.050 6 132866043.975 6     -1394.631 6        40.853               
G30  25813111.257 7 135648794.133 7     -1193.218 7        43.829               
> 2025 07 30 04 25 30.0000000  0  8                                             
G05  23260999.055 7 122237367.532 7      -240.461 7        44.355               
G07  28158985.075 7 147976500.655 7     -2334.369 7        44.010               
G11  25656912.481 7 134827963.623 7     -3181.880 7        47.547               
G13  22397015.373 7 117697117.545 7      -167.441 7        44.256               
G15  23464425.873 7 123306384.257 7      1990.728 7        42.912               
G21  24677395.684 7 129680583.492 7     -1833.403 7        45.213               
G29  25283841.554 6 132867441.625 6     -1396.839 6        41.716               
G30  25813337.640 7 135649988.125 7     -1191.469 7        44.230               
> 2025 07 30 04 25 31.0000000  0  8                                             
G05  23261039.903 7 122237606.060 7      -236.271 7        43.543               
G07  28159431.336 7 147978837.313 7     -2336.499 7        44.012               
G11  25657518.366 7 134831145.153 7     -3182.847 7        47.288               
G13  22397046.358 7 117697285.561 7      -169.893 7        44.686               
G15  23464055.466 7 123304396.125 7      1991.485 7        43.096               
G21  24677742.075 7 129682414.716 7     -1831.980 7        46.071               
G29  25284107.427 7 132868839.816 7     -1399.101 7        42.373               
G30  25813563.987 7 135651182.677 7     -1192.534 7        44.616               
> 2025 07 30 04 25 32.0000000  0  8                                             
G05  23261087.060 7 122237844.874 7      -238.455 7        43.920               
G07  28159881.171 7 147981174.300 7     -2337.682 7        43.937               
G11  25658121.928 7 134834326.996 7     -3180.587 7        46.716               
G13  22397080.363 7 117697454.216 7      -170.527 7        44.168               
G15  23463675.410 7 123302408.429 7      1986.559 7        43.273               
G21  24678094.255 7 129684246.144 7     -1830.130 7        46.021               
G29  25284377.089 7 132870238.541 7     -1399.436 7        42.183               
G30  25813794.211 7 135652377.769 7     -1194.935 7        44.115               
> 2025 07 30 04 25 33.0000000  0  8                                             
G05  23261135.378 7 122238083.938 7      -242.500 7        43.577               
G07  28160321.946 7 147983511.601 7     -2335.976 7        43.973               
G11  25658725.937 7 134837509.124 7     -3182.207 7        46.747               
G13  22397112.134 7 117697623.460 7      -171.508 7        45.034               
G15  23463294.925 7 123300421.164 7      1985.264 7        43.597               
G21  24678441.147 7 129686077.731 7     -1833.556 7        45.843               
G29  25284645.857 7 132871637.846 7     -1400.845 7        42.312               
G30  25814021.112 7 135653573.413 7     -1193.667 7        44.529               
> 2025 07 30 04 25 34.0000000  0  8                                             
G05  23261184.053 7 122238323.308 7      -238.408 7        43.778               
G07  28160769.708 7 147985849.273 7     -2337.301 7        44.307               
G11  25659333.269 7 134840691.594 7     -3180.444 7        45.951               
G13  22397144.512 7 117697793.327 7      -167.922 7        45.508               
G15  23462919.586 7 123298434.322 7      1988.333 7        43.760               
G21  24678789.503 7 129687909.515 7     -1828.547 7        45.531               
G29  25284906.137 7 132873037.674 7     -1403.091 7        42.188               
G30  25814247.316 7 135654769.608 7     -1194.624 7        44.448               
> 2025 07 30 04 25 35.0000000  0  8                                             
G05  23261229.923 7 122238562.930 7      -237.295 7        43.962               
G07  28161215.433 7 147988187.243 7     -2341.085 7        44.316               
G11  25659937.081 7 134843874.319 7     -3183.157 7        46.908               
G13  22397178.589 7 117697963.786 7      -171.826 7        45.357               
G15  23462541.496 7 123296447.904 7      1986.548 7        43.681               
G21  24679136.966 7 129689741.433 7     -1831.319 7        46.071               
G29  25285170.992 6 132874438.039 6     -1399.603 6        41.993               
G30  25814474.342 7 135655966.347 7     -1193.339 7        44.438               
> 2025 07 30 04 25 36.0000000  0  9                                             
G05  23261272.201 7 122238802.822 7      -241.452 7        43.641               
G07  28161659.103 7 147990525.535 7     -2337.723 7        44.237               
G11  25660546.147 7 134847057.356 7     -3184.610 7        46.701               
G13  22397209.109 7 117698134.857 7      -171.273 7        45.091               
G15  23462161.761 7 123294461.908 7      1986.947 7        43.672               
G18  26554602.304 6 139545376.919 6      3388.704 6        38.357               
G21  24679486.574 7 129691573.534 7     -1832.285 7        45.469               
G29  25285447.354 7 132875838.941 7     -1397.303 7        42.159               
G30  25814701.618 7 135657163.622 7     -1197.691 7        44.499               
> 2025 07 30 04 25 37.0000000  0  9                                             
G05  23261320.411 7 122239042.993 7      -233.405 7        43.739               
G07  28162102.094 7 147992864.194 7     -2334.952 7        44.026               
G11  25661152.854 7 134850240.708 7     -3184.894 7        47.163               
G13  22397241.148 7 117698306.541 7      -174.187 7        45.080               
G15  23461777.631 7 123292476.376 7      1988.046 7        43.318               
G18  26553961.485 6 139541990.316 6      3393.448 6        39.055               
G21  24679838.147 7 129693405.842 7     -1833.414 7        46.018               
G29  25285706.901 7 132877240.417 7     -1405.243 7        42.051               
G30  25814927.215 7 135658361.480 7     -1198.213 7        44.048               
> 2025 07 30 04 25 38.0000000  0  9                                             
G05  23261359.080 7 122239283.453 7      -244.831 7        43.334               
G07  28162544.245 7 147995203.192 7     -2340.309 7        44.060               
G11  25661758.328 7 134853424.352 7     -3186.419 7        47.196               
G13  22397276.136 7 117698478.858 7      -173.450 7        45.049               
G15  23461400.433 7 123290491.229 7      1985.688 7        42.872               
G18  26553318.361 6 139538603.820 6      3388.963 6        37.897               
G21  24680184.306 7 129695238.308 7     -1832.101 7        45.724               
G29  25285973.597 6 132878642.413 6     -1403.068 6        41.790               
G30  25815154.991 7 135659559.866 7     -1199.646 7        43.745               
> 2025 07 30 04 25 39.0000000  0  9                                             
G05  23261403.574 7 122239524.168 7      -238.901 7        43.271               
G07  28162990.828 7 147997542.511 7     -2338.585 7        44.525               
G11  25662366.696 7 134856608.297 7     -3185.966 7        47.429               
G13  22397308.872 7 117698651.764 7      -175.242 7        45.244               
G15  23461022.200 7 123288506.537 7      1986.750 7        42.979               
G18  26552674.219 6 139535217.504 6      3391.408 6        38.188               
G21  24680534.717 7 129697070.943 7     -1838.023 7        45.189               
G29  25286239.041 7 132880044.996 7     -1404.996 7        42.154               
G30  25815385.912 7 135660758.812 7     -1202.093 7        44.245               
> 2025 07 30 04 25 40.0000000  0  9                                             
G05  23261445.870 7 122239765.187 7      -236.636 7        43.952               
G07  28163433.872 7 147999882.172 7     -2338.842 7        43.986               
G11  25662971.777 7 134859792.560 7     -3184.084 7        47.791               
G13  22397343.877 7 117698825.298 7      -171.510 7        44.894               
G15  23460644.395 7 123286522.290 7      1983.751 7        43.371               
G18  26552031.166 6 139531831.341 6      3393.552 6        38.678               
G21  24680877.945 7 129698903.764 7     -1829.929 7        44.975               
G29  25286506.040 6 132881448.113 6     -1406.054 6        41.968               
G30  25815614.707 7 135661958.302 7     -1199.034 7        44.088               
> 2025 07 30 04 25 41.0000000  0  9                                             
G05  23261498.887 7 122240006.488 7      -242.135 7        43.348               
G07  28163880.544 7 148002222.178 7     -2338.559 7        43.765               
G11  25663577.394 7 134862977.133 7     -3182.758 7        47.917               
G13  22397375.184 7 117698999.465 7      -175.059 7        45.106               
G15  23460266.144 7 123284538.485 7      1990.353 7        43.526               
G18  26551388.471 6 139528445.380 6      3390.126 6        38.526               
G21  24681225.980 7 129700736.793 7     -1836.254 7        45.212               
G29  25286777.720 6 132882851.789 6     -1402.103 6        41.879               
G30  25815845.486 7 135663158.368 7     -1201.484 7        43.948               
> 2025 07 30 04 25 42.0000000  0 10                                             
G05  23261545.829 7 122240248.041 7      -247.081 7        44.313               
G07  28164325.644 7 148004562.490 7     -2340.594 7        44.087               
G11  25664181.760 7 134866161.991 7     -3183.227 7        47.794               
G13  22397403.506 7 117699174.210 7      -177.910 7        44.403               
G15  23459887.695 7 123282555.083 7      1984.138 7        43.267               
G18  26550740.791 6 139525059.510 6      3385.959 6        38.388               
G21  24681577.053 7 129702569.970 7     -1830.269 7        45.166               
G24  27718602.665 7 145662230.810 7      3958.459 7        42.805               
G29  25287041.843 7 132884255.969 7     -1410.576 7        42.190               
G30  25816069.456 7 135664358.960 7     -1203.177 7        43.933               
> 2025 07 30 04 25 43.0000000  0 10                                             
G05  23261589.519 7 122240489.827 7      -238.656 7        44.001               
G07  28164773.370 7 148006903.086 7     -2342.719 7        43.721               
G11  25664785.644 7 134869347.120 7     -3182.865 7        46.975               
G13  22397436.724 7 117699349.527 7      -170.400 7        44.290               
G15  23459509.855 7 123280572.076 7      1978.851 7        42.445               
G18  26550100.007 6 139521673.793 6      3388.869 6        38.168               
G21  24681927.143 7 129704403.295 7     -1832.824 7        45.047               
G24  27717852.166 7 145658274.719 7      3958.449 7        43.288               
G29  25287310.146 7 132885660.662 7     -1402.624 7        42.415               
G30  25816300.431 7 135665560.078 7     -1206.423 7        43.982               
> 2025 07 30 04 25 44.0000000  0 10                                             
G05  23261642.822 7 122240731.894 7      -244.824 7        44.535               
G07  28165219.720 7 148009244.010 7     -2338.655 7        44.444               
G11  25665394.870 7 134872532.543 7     -3185.322 7        47.179               
G13  22397467.120 7 117699525.458 7      -174.636 7        44.214               
G15  23459134.570 7 123278589.498 7      1981.100 7        42.997               
G18  26549456.615 6 139518288.231 6      3385.231 6        38.476               
G21  24682275.911 7 129706236.776 7     -1837.639 7        45.412               
G24  27717096.485 7 145654318.535 7      3948.009 7        42.471               
G29  25287575.644 7 132887065.901 7     -1410.747 7        42.572               
G30  25816524.401 7 135666761.732 7     -1200.449 7        43.527               
> 2025 07 30 04 25 45.0000000  0 10                                             
G05  23261687.941 7 122240974.234 7      -245.143 7        44.615               
G07  28165668.054 7 148011585.273 7     -2336.662 7        44.538               
G11  25665999.844 7 134875718.289 7     -3186.714 7        46.516               
G13  22397501.339 7 117699701.996 7      -175.044 7        44.152               
G15  23458756.354 7 123276607.358 7      1979.874 7        43.260               
G18  26548809.096 6 139514902.821 6      3385.838 6        38.837               
G21  24682626.340 7 129708070.437 7     -1831.591 7        45.524               
G24  27716346.379 7 145650362.281 7      3956.924 7        42.607               
G29  25287843.215 7 132888471.700 7     -1408.357 7        42.345               
G30  25816750.123 7 135667963.954 7     -1202.647 7        43.343               
> 2025 07 30 04 25 46.0000000  0 10                                             
G05  23261729.147 7 122241216.896 7      -238.138 7        44.130               
G07  28166113.886 7 148013926.902 7     -2337.643 7        44.502               
G11  25666600.886 7 134878904.363 7     -3186.027 7        46.160               
G13  22397541.115 7 117699879.187 7      -176.804 7        43.857               
G15  23458375.047 7 123274625.681 7      1982.606 7        43.269               
G18  26548172.154 6 139511517.607 6      3389.943 6        38.793               
G21  24682974.911 7 129709904.324 7     -1831.413 7        45.509               
G24  27715591.556 7 145646405.968 7      3956.818 7        42.343               
G29  25288112.912 6 132889878.074 6     -1403.884 6        41.897               
G30  25816981.723 7 135669166.746 7     -1203.784 7        43.464               
> 2025 07 30 04 25 47.0000000  0 10                                             
G05  23261777.483 7 122241459.809 7      -241.899 7        43.590               
G07  28166559.200 7 148016268.822 7     -2344.472 7        44.143               
G11  25667209.309 7 134882090.727 7     -3185.807 7        46.287               
G13  22397575.513 7 117700056.981 7      -179.667 7        45.018               
G15  23457999.315 7 123272644.403 7      1979.079 7        43.163               
G18  26547521.936 6 139508132.519 6      3390.271 6        38.561               
G21  24683324.125 7 129711738.363 7     -1834.573 7        45.101               
G24  27714841.986 7 145642449.551 7      3950.899 7        42.720               
G29  25288377.641 7 132891284.963 7     -1412.921 7        42.154               
G30  25817210.357 7 135670370.072 7     -1203.895 7        43.503               
> 2025 07 30 04 25 48.0000000  0 10                                             
G05  23261823.281 7 122241702.985 7      -237.644 7        43.759               
G07  28167005.568 7 148018611.078 7     -2344.018 7        44.300               
G11  25667818.321 7 134885277.377 7     -3184.982 7        46.796               
G13  22397610.286 7 117700235.360 7      -176.114 7        44.766               
G15  23457622.422 7 123270663.553 7      1988.129 7        42.767               
G18  26546882.565 6 139504747.585 6      3374.669 6        38.403               
G21  24683674.072 7 129713572.552 7     -1837.020 7        44.939               
G24  27714085.233 7 145638493.025 7      3953.720 7        42.124               
G29  25288642.657 7 132892692.406 7     -1408.249 7        42.421               
G30  25817442.083 7 135671573.938 7     -1202.517 7        43.257               
> 2025 07 30 04 25 49.0000000  0 10                                             
G05  23261871.564 7 122241946.407 7      -240.475 7        43.492               
G07  28167451.865 7 148020953.644 7     -2341.981 7        44.434               
G11  25668426.833 7 134888464.315 7     -3186.220 7        47.355               
G13  22397645.113 7 117700414.344 7      -182.409 7        44.420               
G15  23457243.241 7 123268683.131 7      1975.212 7        42.432               
G18  26546236.921 6 139501362.785 6      3384.923 6        38.423               
G21  24684022.482 7 129715406.929 7     -1832.660 7        45.334               
G24  27713330.999 7 145634536.419 7      3953.894 7        42.215               
G29  25288916.232 7 132894100.382 7     -1407.279 7        42.616               
G30  25817667.054 7 135672778.342 7     -1200.249 7        42.727               
> 2025 07 30 04 25 50.0000000  0 10                                             
G05  23261916.701 7 122242190.134 7      -243.406 7        43.521               
G07  28167893.033 7 148023296.559 7     -2344.136 7        43.925               
G11  25669030.234 7 134891651.568 7     -3188.398 7        46.725               
G13  22397676.920 7 117700593.947 7      -179.762 7        44.091               
G15  23456868.277 7 123266703.161 7      1974.063 7        42.795               
G18  26545599.962 6 139497978.180 6      3383.965 6        38.956               
G21  24684372.322 7 129717241.481 7     -1831.921 7        45.261               
G24  27712578.767 7 145630579.717 7      3957.583 7        42.190               
G29  25289178.495 7 132895508.901 7     -1416.427 7        42.134               
G30  25817898.047 7 135673983.317 7     -1208.284 7        43.697               
> 2025 07 30 04 25 51.0000000  0 10                                             
G05  23261959.372 7 122242434.188 7      -244.039 7        43.805               
G07  28168342.368 7 148025639.841 7     -2343.510 7        43.968               
G11  25669639.943 7 134894839.173 7     -3190.495 7        46.865               
G13  22397710.192 7 117700774.211 7      -185.354 7        44.179               
G15  23456494.743 7 123264723.672 7      1978.345 7        43.447               
G18  26544954.193 6 139494593.784 6      3383.912 6        38.742               
G21  24684720.429 7 129719076.259 7     -1836.094 7        45.270               
G24  27711826.249 6 145626622.987 6      3960.521 6        41.991               
G29  25289449.104 7 132896918.004 7     -1404.529 7        42.061               
G30  25818133.614 7 135675188.889 7     -1207.630 7        43.304               
> 2025 07 30 04 25 52.0000000  0 10                                             
G05  23262007.583 7 122242678.472 7      -246.675 7        43.947               
G07  28168787.396 7 148027983.433 7     -2344.827 7        43.952               
G11  25670247.275 7 134898027.046 7     -3189.343 7        46.974               
G13  22397744.858 7 117700955.051 7      -178.430 7        43.945               
G15  23456123.604 7 123262744.572 7      1982.150 7        43.198               
G18  26544315.948 6 139491209.490 6      3380.451 6        39.490               
G21  24685072.305 7 129720911.193 7     -1835.954 7        45.735               
G24  27711070.568 6 145622666.129 6      3954.879 6        41.360               
G29  25289722.393 7 132898327.636 7     -1406.334 7        42.251               
G30  25818360.247 7 135676394.965 7     -1205.200 7        43.193               
> 2025 07 30 04 25 53.0000000  0 10                                             
G05  23262056.597 7 122242923.052 7      -238.217 7        44.153               
G07  28169231.066 7 148030327.357 7     -2343.135 7        43.975               
G11  25670852.517 7 134901215.236 7     -3188.630 7        47.419               
G13  22397778.184 7 117701136.531 7      -180.208 7        44.536               
G15  23455744.691 7 123260765.933 7      1975.714 7        43.260               
G18  26543659.547 6 139487825.401 6      3380.956 6        39.173               
G21  24685415.962 7 129722746.297 7     -1835.270 7        45.418               
G24  27710316.513 6 145618709.216 6      3956.823 6        40.941               
G29  25289989.695 6 132899737.830 6     -1416.386 6        41.768               
G30  25818584.414 7 135677601.616 7     -1206.430 7        43.409               
> 2025 07 30 04 25 54.0000000  0 10                                             
G05  23262097.821 7 122243167.974 7      -248.023 7        44.075               
G07  28169679.007 7 148032671.662 7     -2345.546 7        44.132               
G11  25671460.046 7 134904403.778 7     -3189.512 7        47.740               
G13  22397814.136 7 117701318.659 7      -185.697 7        44.558               
G15  23455372.104 7 123258787.763 7      1980.298 7        43.626               
G18  26543014.350 6 139484441.492 6      3394.096 6        38.938               
G21  24685763.533 7 129724581.654 7     -1839.335 7        45.341               
G24  27709563.405 6 145614752.255 6      3960.614 6        41.219               
G29  25290251.405 6 132901148.605 6     -1413.545 6        41.986               
G30  25818815.585 7 135678808.869 7     -1204.614 7        43.525               
> 2025 07 30 04 25 55.0000000  0 10                                             
G05  23262153.555 7 122243413.234 7      -243.646 7        44.693               
G07  28170124.588 7 148035016.350 7     -2343.667 7        43.554               
G11  25672065.537 7 134907592.667 7     -3186.804 7        47.335               
G13  22397846.819 7 117701501.447 7      -185.216 7        44.571               
G15  23454994.496 7 123256810.081 7      1974.106 7        43.673               
G18  26542368.045 6 139481057.813 6      3378.995 6        39.189               
G21  24686114.302 7 129726417.240 7     -1836.085 7        45.107               
G24  27708807.492 6 145610795.258 6      3958.652 6        40.585               
G29  25290524.998 7 132902559.996 7     -1412.756 7        42.326               
G30  25819048.044 7 135680016.705 7     -1205.528 7        43.583               
> 2025 07 30 04 25 56.0000000  0 10                                             
G05  23262198.620 7 122243658.687 7      -246.958 7        43.667               
G07  28170568.955 7 148037361.313 7     -2344.297 7        44.019               
G11  25672671.833 7 134910781.823 7     -3190.864 7        46.669               
G13  22397883.396 7 117701684.793 7      -181.222 7        44.809               
G15  23454625.018 7 123254832.784 7      1976.993 7        44.006               
G18  26541724.707 6 139477674.226 6      3383.520 6        38.048               
G21  24686462.247 7 129728252.931 7     -1836.125 7        44.470               
G24  27708058.994 6 145606838.123 6      3964.170 6        41.115               
G29  25290789.084 7 132903971.860 7     -1414.349 7        42.397               
G30  25819277.839 7 135681225.082 7     -1211.559 7        43.562               
> 2025 07 30 04 25 57.0000000  0 10                                             
G05  23262244.901 7 122243904.461 7      -242.688 7        43.510               
G07  28171015.002 7 148039706.612 7     -2344.925 7        44.054               
G11  25673278.862 7 134913971.286 7     -3191.948 7        47.541               
G13  22397914.471 7 117701868.773 7      -181.902 7        44.914               
G15  23454242.728 7 123252855.912 7      1971.004 7        43.707               
G18  26541082.512 6 139474290.813 6      3388.222 6        38.696               
G21  24686809.371 7 129730088.821 7     -1835.609 7        44.698               
G24  27707303.474 6 145602880.909 6      3962.213 6        40.511               
G29  25291053.420 7 132905384.286 7     -1412.146 7        42.021               
G30  25819508.743 7 135682433.982 7     -1209.153 7        43.606               
> 2025 07 30 04 25 58.0000000  0 10                                             
G05  23262292.611 7 122244150.465 7      -248.404 7        44.082               
G07  28171462.657 7 148042052.223 7     -2343.766 7        43.732               
G11  25673884.836 7 134917161.019 7     -3189.460 7        47.561               
G13  22397951.191 7 117702053.360 7      -186.650 7        44.785               
G15  23453868.158 7 123250879.448 7      1978.975 7        44.130               
G18  26540437.172 6 139470907.547 6      3378.416 6        37.876               
G21  24687160.390 7 129731924.857 7     -1834.488 7        44.614               
G24  27706554.959 6 145598923.595 6      3965.064 6        40.720               
G29  25291324.315 6 132906797.249 6     -1418.351 6        41.946               
G30  25819743.256 7 135683643.424 7     -1204.793 7        43.386               
> 2025 07 30 04 25 59.0000000  0 10                                             
G05  23262337.087 7 122244396.754 7      -243.830 7        43.963               
G07  28171910.311 7 148044398.164 7     -2349.108 7        43.887               
G11  25674492.937 7 134920351.069 7     -3188.650 7        47.064               
G13  22397988.252 7 117702238.533 7      -192.211 7        45.002               
G15  23453493.337 7 123248903.451 7      1978.452 7        44.020               
G18  26539790.510 6 139467524.421 6      3385.622 6        38.124               
G21  24687513.714 7 129733761.094 7     -1840.347 7        44.804               
G24  27705795.829 6 145594966.202 6      3961.123 6        41.262               
G29  25291596.835 6 132908210.743 6     -1413.511 6        41.821               
G30  25819972.658 7 135684853.427 7     -1212.448 7        43.897               
> 2025 07 30 04 26 00.0000000  0 10                                             
G05  23262384.065 7 122244643.280 7      -251.094 7        43.875               
G07  28172356.322 7 148046744.376 7     -2343.530 7        43.874               
G11  25675101.306 7 134923541.354 7     -3192.408 7        46.504               
G13  22398020.327 7 117702424.262 7      -186.389 7        44.622               
G15  23453116.051 7 123246927.808 7      1976.997 7        43.749               
G18  26539152.533 6 139464141.410 6      3385.837 6        38.034               
G21  24687862.589 7 129735597.432 7     -1840.962 7        44.888               
G24  27705048.046 6 145591008.652 6      3956.173 6        41.229               
G29  25291863.101 7 132909624.713 7     -1415.513 7        42.148               
G30  25820204.741 7 135686063.922 7     -1211.892 7        44.246               
> 2025 07 30 04 26 01.0000000  0 10                                             
G05  23262431.150 7 122244890.073 7      -243.380 7        44.007               
G07  28172804.978 7 148049090.927 7     -2347.246 7        43.751               
G11  25675707.244 7 134926731.962 7     -3189.515 7        46.832               
G13  22398060.889 7 117702610.610 7      -187.275 7        45.269               
G15  23452737.120 7 123244952.619 7      1975.296 7        44.209               
G18  26538511.070 6 139460758.560 6      3376.269 6        38.180               
G21  24688212.339 7 129737433.951 7     -1836.073 7        44.603               
G24  27704293.812 6 145587051.035 6      3955.754 6        41.298               
G29  25292133.156 6 132911039.258 6     -1418.690 6        41.840               
G30  25820431.678 7 135687274.962 7     -1213.956 7        43.951               
> 2025 07 30 04 26 02.0000000  0 10                                             
G05  23262477.288 7 122245137.107 7      -246.607 7        43.970               
G07  28173251.596 7 148051437.770 7     -2345.358 7        43.938               
G11  25676312.146 7 134929922.829 7     -3188.799 7        47.294               
G13  22398098.003 7 117702797.542 7      -183.761 7        45.028               
G15  23452358.636 7 123242977.796 7      1973.430 7        44.221               
G18  26537873.915 6 139457375.837 6      3381.143 6        38.208               
G21  24688559.856 7 129739270.605 7     -1833.662 7        44.574               
G24  27703541.401 6 145583093.305 6      3951.922 6        41.258               
G29  25292401.817 7 132912454.298 7     -1416.700 7        42.164               
G30  25820663.564 7 135688486.516 7     -1212.873 7        43.394               
> 2025 07 30 04 26 03.0000000  0 10                                             
G05  23262524.730 7 122245384.389 7      -245.103 7        44.204               
G07  28173696.570 7 148053784.912 7     -2344.753 7        43.500               
G11  25676922.106 7 134933113.971 7     -3193.248 7        47.021               
G13  22398130.561 7 117702985.070 7      -187.774 7        44.958               
G15  23451978.383 7 123241003.394 7      1968.755 7        43.694               
G18  26537224.054 6 139453993.265 6      3381.721 6        37.635               
G21  24688908.820 7 129741107.426 7     -1838.620 7        44.808               
G24  27702784.791 6 145579135.443 6      3960.203 6        41.192               
G29  25292675.534 7 132913869.844 7     -1411.774 7        42.291               
G30  25820892.824 7 135689698.614 7     -1210.872 7        43.316               
> 2025 07 30 04 26 04.0000000  0 10                                             
G05  23262565.489 7 122245631.954 7      -248.913 7        44.423               
G07  28174144.618 7 148056132.405 7     -2344.473 7        43.965               
G11  25677527.848 7 134936305.425 7     -3190.992 7        47.359               
G13  22398162.546 7 117703173.207 7      -192.903 7        44.884               
G15  23451598.452 7 123239029.426 7      1973.445 7        43.652               
G18  26536581.859 6 139450610.834 6      3383.234 6        38.587               
G21  24689256.498 7 129742944.420 7     -1838.809 7        44.823               
G24  27702025.572 6 145575177.509 6      3959.372 6        40.549               
G29  25292943.034 7 132915285.945 7     -1417.236 7        42.057               
G30  25821121.976 7 135690911.245 7     -1214.705 7        43.042               
> 2025 07 30 04 26 05.0000000  0 10                                             
G05  23262611.788 7 122245879.779 7      -248.239 7        43.641               
G07  28174593.041 7 148058480.192 7     -2347.434 7        44.113               
G11  25678134.179 7 134939497.165 7     -3187.791 7        47.492               
G13  22398201.590 7 117703361.925 7      -190.927 7        44.372               
G15  23451224.346 7 123237055.887 7      1974.574 7        43.164               
G18  26535942.452 6 139447228.554 6      3383.621 6        38.469               
G21  24689609.518 7 129744781.578 7     -1833.583 7        44.588               
G24  27701282.257 6 145571219.480 6      3959.907 6        40.861               
G29  25293204.172 7 132916702.599 7     -1417.831 7        42.469               
G30  25821353.916 7 135692124.402 7     -1212.334 7        42.986               
> 2025 07 30 04 26 06.0000000  0 11                                             
G05  23262664.251 7 122246127.872 7      -254.700 7        43.971               
G07  28175038.248 7 148060828.302 7     -2348.778 7        44.008               
G11  25678744.621 7 134942689.170 7     -3189.078 7        47.550               
G13  22398235.613 7 117703551.236 7      -186.702 7        44.371               
G15  23450846.095 7 123235082.745 7      1972.477 7        42.980               
G18  26535292.859 6 139443846.424 6      3377.970 6        38.254               
G20  24062599.619 7 126449813.672 7     -1435.761 7        46.045               
G21  24689959.430 7 129746618.888 7     -1833.613 7        45.162               
G24  27700527.004 6 145567261.351 6      3954.848 6        40.202               
G29  25293475.245 7 132918119.743 7     -1419.479 7        42.378               
G30  25821584.855 7 135693338.103 7     -1216.792 7        43.464               
> 2025 07 30 04 26 07.0000000  0 11                                             
G05  23262709.603 7 122246376.221 7      -250.882 7        44.055               
G07  28175489.155 7 148063176.719 7     -2348.113 7        44.330               
G11  25679348.951 7 134945881.463 7     -3192.463 7        47.742               
G13  22398271.690 7 117703741.152 7      -190.769 7        43.990               
G15  23450468.916 7 123233110.042 7      1970.896 7        43.172               
G18  26534651.487 6 139440464.430 6      3385.550 6        38.222               
G20  24062871.282 7 126451249.358 7     -1432.890 7        46.291               
G21  24690307.911 7 129748456.366 7     -1836.921 7        44.771               
G24  27699779.650 6 145563303.104 6      3956.388 6        40.684               
G29  25293743.834 6 132919537.427 6     -1422.564 6        41.501               
G30  25821815.455 7 135694552.350 7     -1214.728 7        44.097               
> 2025 07 30 04 26 08.0000000  0 11                                             
G05  23262759.922 7 122246624.794 7      -249.245 7        43.573               
G07  28175933.969 7 148065525.462 7     -2350.020 7        44.371               
G11  25679959.786 7 134949074.022 7     -3191.663 7        47.700               
G13  22398312.861 7 117703931.627 7      -192.895 7        44.706               
G15  23450097.436 7 123231137.704 7      1975.038 7        43.081               
G18  26534010.007 6 139437082.531 6      3379.957 6        38.725               
G20  24063146.179 7 126452685.260 7     -1437.832 7        45.911               
G21  24690658.966 7 129750293.985 7     -1837.656 7        45.136               
G24  27699019.788 6 145559344.737 6      3957.533 6        41.656               
G29  25294005.168 6 132920955.613 6     -1421.569 6        40.934               
G30  25822041.480 7 135695767.094 7     -1218.603 7        43.642               
> 2025 07 30 04 26 09.0000000  0 11                                             
G05  23262807.472 7 122246873.690 7      -251.382 7        43.508               
G07  28176381.981 7 148067874.534 7     -2351.151 7        44.422               
G11  25680567.744 7 134952266.919 7     -3192.895 7        47.934               
G13  22398349.546 7 117704122.753 7      -189.280 7        44.880               
G15  23449723.474 7 123229165.827 7      1972.277 7        43.809               
G18  26533369.009 6 139433700.857 6      3380.272 6        37.655               
G20  24063420.486 7 126454121.468 7     -1436.121 7        46.219               
G21  24691006.179 7 129752131.793 7     -1836.406 7        44.690               
G24  27698270.594 6 145555386.330 6      3959.686 6        41.328               
G29  25294286.480 6 132922374.395 6     -1426.473 6        40.629               
G30  25822278.298 7 135696982.410 7     -1212.045 7        43.778               
> 2025 07 30 04 26 10.0000000  0 11                                             
G05  23262849.553 7 122247122.842 7      -255.549 7        43.283               
G07  28176828.117 7 148070223.862 7     -2348.245 7        44.027               
G11  25681174.683 8 134955460.066 8     -3190.997 8        48.009               
G13  22398389.108 7 117704314.449 7      -189.129 7        44.874               
G15  23449349.386 7 123227194.361 7      1969.581 7        43.105               
G18  26532714.073 6 139430319.325 6      3383.706 6        38.570               
G20  24063694.472 7 126455557.899 7     -1438.678 7        46.318               
G21  24691359.396 7 129753969.746 7     -1836.984 7        44.618               
G24  27697516.628 6 145551427.806 6      3955.486 6        41.376               
G29  25294553.372 6 132923793.669 6     -1422.858 6        41.054               
G30  25822510.220 7 135698198.256 7     -1220.654 7        43.638               
> 2025 07 30 04 26 11.0000000  0 11                                             
G05  23262902.553 7 122247372.166 7      -247.205 7        43.967               
G07  28177274.128 7 148072573.453 7     -2351.320 7        44.375               
G11  25681783.606 7 134958653.429 7     -3195.955 7        47.237               
G13  22398417.216 7 117704506.675 7      -194.104 7        44.775               
G15  23448974.065 7 123225223.226 7      1970.659 7        42.939               
G18  26532066.947 6 139426937.829 6      3378.448 6        38.122               
G20  24063968.136 7 126456994.487 7     -1437.899 7        46.326               
G21  24691708.342 7 129755807.778 7     -1838.631 7        44.949               
G24  27696759.392 6 145547469.076 6      3956.973 6        41.322               
G29  25294827.054 6 132925213.369 6     -1416.521 6        41.791               
G30  25822738.122 7 135699414.552 7     -1218.653 7        43.724               
> 2025 07 30 04 26 12.0000000  0 11                                             
G05  23262950.906 7 122247621.816 7      -252.426 7        43.857               
G07  28177724.355 7 148074923.429 7     -2352.095 7        43.841               
G11  25682388.383 7 134961847.135 7     -3193.910 7        46.893               
G13  22398459.369 7 117704699.535 7      -194.300 7        45.409               
G15  23448598.636 7 123223252.578 7      1967.747 7        43.606               
G18  26531434.526 6 139423556.535 6      3384.417 6        38.270               
G20  24064242.157 7 126458431.398 7     -1437.494 7        46.827               
G21  24692060.630 7 129757646.051 7     -1840.716 7        44.930               
G24  27696008.447 6 145543510.322 6      3954.953 6        41.391               
G29  25295097.681 6 132926633.698 6     -1422.206 6        41.967               
G30  25822963.736 7 135700631.434 7     -1219.538 7        43.787               
> 2025 07 30 04 26 13.0000000  0 11                                             
G05  23262995.757 7 122247871.731 7      -248.924 7        43.744               
G07  28178164.309 7 148077273.706 7     -2352.449 7        43.814               
G11  25682992.123 7 134965041.132 7     -3194.544 7        46.717               
G13  22398492.837 7 117704892.989 7      -192.704 7        45.490               
G15  23448221.439 7 123221282.315 7      1976.310 7        43.269               
G18  26530789.347 6 139420175.391 6      3378.069 6        37.915               
G20  24064512.534 7 126459868.538 7     -1434.659 7        46.266               
G21  24692407.736 7 129759484.471 7     -1838.171 7        44.631               
G24  27695255.929 6 145539551.474 6      3958.241 6        41.461               
G29  25295375.419 7 132928054.536 7     -1419.678 7        42.271               
G30  25823198.624 7 135701848.856 7     -1217.580 7        43.502               
> 2025 07 30 04 26 14.0000000  0 11                                             
G05  23263051.687 7 122248121.980 7      -248.668 7        44.029               
G07  28178610.623 7 148079624.377 7     -2352.162 7        43.880               
G11  25683605.174 7 134968235.507 7     -3192.819 7        46.235               
G13  22398528.075 7 117705087.127 7      -193.648 7        45.064               
G15  23447850.586 7 123219312.571 7      1968.526 7        43.371               
G18  26530141.845 6 139416794.462 6      3380.539 6        38.429               
G20  24064785.197 7 126461306.003 7     -1436.828 7        46.399               
G21  24692757.325 7 129761323.128 7     -1843.236 7        44.215               
G24  27694505.037 6 145535592.593 6      3955.824 6        41.180               
G29  25295642.150 6 132929475.959 6     -1415.442 6        41.770               
G30  25823433.566 7 135703066.869 7     -1217.779 7        42.814               
> 2025 07 30 04 26 15.0000000  0 11                                             
G05  23263092.893 7 122248372.477 7      -251.569 7        43.877               
G07  28179060.244 7 148081975.320 7     -2349.886 7        44.279               
G11  25684209.611 7 134971430.107 7     -3194.186 7        46.151               
G13  22398566.565 7 117705281.820 7      -191.536 7        45.271               
G15  23447475.747 7 123217343.212 7      1969.375 7        43.350               
G18  26529504.207 6 139413413.636 6      3374.756 6        38.189               
G20  24065061.542 7 126462743.684 7     -1434.290 7        46.401               
G21  24693105.807 7 129763161.912 7     -1840.426 7        44.411               
G24  27693748.784 6 145531633.581 6      3959.527 6        41.904               
G29  25295910.721 6 132930897.902 6     -1421.179 6        41.836               
G30  25823669.187 7 135704285.412 7     -1219.034 7        43.257               
> 2025 07 30 04 26 16.0000000  0 11                                             
G05  23263138.674 7 122248623.340 7      -252.212 7        43.721               
G07  28179506.862 7 148084326.697 7     -2351.067 7        44.129               
G11  25684816.640 7 134974625.124 7     -3196.965 7        46.341               
G13  22398606.645 7 117705477.236 7      -195.478 7        45.818               
G15  23447103.285 7 123215374.377 7      1966.343 7        43.533               
G18  26528853.918 6 139410033.108 6      3369.702 6        38.579               
G20  24065336.010 7 126464181.743 7     -1438.415 7        46.333               
G21  24693448.535 7 129765000.973 7     -1837.252 7        44.851               
G24  27692995.050 7 145527674.599 7      3958.769 7        42.103               
G29  25296181.294 7 132932320.450 7     -1423.075 7        42.560               
G30  25823896.267 7 135705504.590 7     -1218.631 7        43.376               
> 2025 07 30 04 26 17.0000000  0 11                                             
G05  23263185.812 7 122248874.413 7      -248.730 7        43.982               
G07  28179959.038 7 148086678.349 7     -2353.338 7        44.743               
G11  25685426.259 7 134977820.404 7     -3197.404 7        46.329               
G13  22398647.708 7 117705673.223 7      -198.221 7        45.456               
G15  23446731.216 7 123213405.938 7      1969.507 7        43.835               
G18  26528213.849 6 139406652.657 6      3382.928 6        38.424               
G20  24065607.780 7 126465620.002 7     -1435.697 7        46.036               
G21  24693803.646 7 129766840.180 7     -1835.667 7        43.936               
G24  27692241.943 7 145523715.475 7      3958.755 7        42.449               
G29  25296452.385 6 132933743.536 6     -1424.382 6        41.994               
G30  25824133.371 7 135706724.283 7     -1218.661 7        43.935               
> 2025 07 30 04 26 18.0000000  0 11                                             
G05  23263232.951 7 122249125.800 7      -253.938 7        44.136               
G07  28180403.315 7 148089030.331 7     -2353.769 7        44.441               
G11  25686037.076 7 134981015.975 7     -3195.416 7        46.943               
G13  22398682.356 7 117705869.808 7      -197.848 7        45.668               
G15  23446357.271 7 123211437.932 7      1964.867 7        44.464               
G18  26527569.153 6 139403272.385 6      3375.299 6        37.494               
G20  24065879.764 7 126467058.534 7     -1435.737 7        46.542               
G21  24694156.756 7 129768679.559 7     -1837.251 7        43.673               
G24  27691490.103 7 145519756.275 7      3962.248 7        42.650               
G29  25296724.566 6 132935167.147 6     -1424.719 6        41.867               
G30  25824360.665 7 135707944.518 7     -1218.377 7        43.487               
> 2025 07 30 04 26 19.0000000  0 11                                             
G05  23263279.089 7 122249377.453 7      -248.396 7        43.550               
G07  28180852.310 7 148091382.633 7     -2353.556 7        44.425               
G11  25686642.550 7 134984211.851 7     -3195.868 7        46.624               
G13  22398717.183 7 117706067.007 7      -195.915 7        45.859               
G15  23445982.093 7 123209470.354 7      1968.354 7        44.789               
G18  26526921.169 6 139399892.292 6      3370.309 6        38.156               
G20  24066157.449 7 126468497.318 7     -1436.683 7        46.100               
G21  24694503.826 7 129770519.112 7     -1841.961 7        43.956               
G24  27690739.462 7 145515796.991 7      3963.774 7        42.084               
G29  25296991.583 6 132936591.319 6     -1425.311 6        41.713               
G30  25824600.950 7 135709165.315 7     -1215.817 7        43.407               
> 2025 07 30 04 26 20.0000000  0 11                                             
G05  23263328.157 7 122249629.327 7      -247.278 7        43.783               
G07  28181300.001 7 148093735.250 7     -2355.770 7        44.302               
G11  25687249.936 7 134987407.996 7     -3196.192 7        46.870               
G13  22398758.603 7 117706264.779 7      -198.062 7        45.129               
G15  23445605.825 7 123207503.178 7      1972.014 7        43.770               
G18  26526273.113 6 139396512.288 6      3376.914 6        37.436               
G20  24066427.360 7 126469936.362 7     -1438.129 7        45.562               
G21  24694859.080 7 129772358.816 7     -1838.893 7        45.166               
G24  27689983.781 7 145511837.598 7      3959.942 7        42.237               
G29  25297270.036 7 132938015.991 7     -1424.678 7        42.084               
G30  25824824.741 7 135710386.609 7     -1220.695 7        43.463               
> 2025 07 30 04 26 21.0000000  0 11                                             
G05  23263374.563 7 122249881.530 7      -254.196 7        43.827               
G07  28181750.800 7 148096088.199 7     -2350.733 7        44.497               
G11  25687860.574 7 134990604.459 7     -3199.172 7        47.035               
G13  22398795.539 7 117706463.190 7      -194.498 7        45.053               
G15  23445233.024 7 123205536.448 7      1965.437 7        43.352               
G18  26525630.900 6 139393132.500 6      3381.061 6        38.043               
G20  24066703.383 7 126471375.664 7     -1443.143 7        45.702               
G21  24695209.867 7 129774198.714 7     -1837.447 7        44.839               
G24  27689229.940 7 145507878.121 7      3958.582 7        42.346               
G29  25297535.819 6 132939441.229 6     -1423.624 6        41.956               
G30  25825058.772 7 135711608.493 7     -1230.876 7        43.302               
> 2025 07 30 04 26 22.0000000  0 11                                             
G05  23263424.828 7 122250133.996 7      -255.536 7        43.784               
G07  28182197.776 7 148098441.460 7     -2352.315 7        44.477               
G11  25688471.445 7 134993801.199 7     -3196.650 7        47.232               
G13  22398831.312 7 117706662.186 7      -201.732 7        44.452               
G15  23444858.561 7 123203570.154 7      1967.242 7        44.342               
G18  26524994.155 6 139389752.852 6      3375.955 6        37.693               
G20  24066973.724 7 126472815.221 7     -1438.451 7        45.239               
G21  24695563.852 7 129776038.762 7     -1842.233 7        44.994               
G24  27688473.598 7 145503918.550 7      3962.568 7        42.787               
G29  25297811.824 7 132940866.976 7     -1418.266 7        42.207               
G30  25825289.961 7 135712830.910 7     -1225.614 7        42.884               
> 2025 07 30 04 26 23.0000000  0 11                                             
G05  23263469.733 7 122250386.751 7      -252.356 7        43.650               
G07  28182647.236 7 148100795.097 7     -2352.803 7        44.131               
G11  25689076.722 7 134996998.284 7     -3195.087 7        46.967               
G13  22398873.126 7 117706861.839 7      -197.614 7        44.591               
G15  23444485.170 7 123201604.305 7      1969.474 7        44.272               
G18  26524349.959 6 139386373.408 6      3380.705 6        37.291               
G20  24067253.052 7 126474255.106 7     -1442.491 7        45.250               
G21  24695911.762 7 129777879.036 7     -1845.365 7        44.238               
G24  27687724.761 7 145499958.966 7      3954.110 7        42.643               
G29  25298081.146 7 132942293.334 7     -1427.047 7        42.356               
G30  25825520.454 7 135714053.901 7     -1224.121 7        42.711               
> 2025 07 30 04 26 24.0000000  0 11                                             
G05  23263517.068 7 122250639.841 7      -252.846 7        43.338               
G07  28183097.857 7 148103149.102 7     -2357.322 7        44.249               
G11  25689686.931 7 135000195.715 7     -3199.123 7        47.242               
G13  22398911.312 7 117707062.156 7      -202.130 7        45.030               
G15  23444110.831 7 123199638.938 7      1964.994 7        44.139               
G18  26523702.725 6 139382994.169 6      3375.471 6        38.547               
G20  24067523.339 7 126475695.276 7     -1440.399 7        46.168               
G21  24696263.067 7 129779719.537 7     -1841.887 7        44.935               
G24  27686965.935 7 145495999.309 7      3961.663 7        42.138               
G29  25298351.665 7 132943720.253 7     -1428.468 7        42.328               
G30  25825757.308 7 135715277.470 7     -1221.889 7        42.839               
> 2025 07 30 04 26 25.0000000  0 11                                             
G05  23263571.086 7 122250893.160 7      -252.951 7        43.261               
G07  28183546.047 7 148105503.400 7     -2353.903 7        44.432               
G11  25690297.016 7 135003393.398 7     -3195.499 7        47.544               
G13  22398949.748 7 117707263.028 7      -201.781 7        44.987               
G15  23443734.242 7 123197673.984 7      1963.496 7        44.208               
G18  26523068.107 6 139379615.045 6      3374.982 6        38.439               
G20  24067798.325 7 126477135.674 7     -1438.082 7        46.065               
G21  24696609.369 7 129781560.157 7     -1842.745 7        45.214               
G24  27686217.813 7 145492039.525 7      3957.805 7        42.254               
G29  25298625.347 7 132945147.686 7     -1429.682 7        42.478               
G30  25825992.410 7 135716501.566 7     -1227.434 7        42.170               
> 2025 07 30 04 26 26.0000000  0 11                                             
G05  23263623.514 7 122251146.750 7      -257.771 7        43.550               
G07  28183995.275 7 148107858.002 7     -2357.837 7        44.326               
G11  25690905.170 7 135006591.388 7     -3196.581 7        47.106               
G13  22398982.145 7 117707464.484 7      -199.638 7        45.230               
G15  23443364.567 7 123195709.423 7      1963.255 7        43.397               
G18  26522415.191 6 139376236.066 6      3377.198 6        38.132               
G20  24068073.079 7 126478576.315 7     -1440.530 7        46.285               
G21  24696956.546 7 129783400.947 7     -1842.906 7        44.416               
G24  27685466.277 7 145488079.678 7      3963.786 7        42.076               
G29  25298897.278 7 132946575.641 7     -1432.864 7        42.672               
G30  25826221.330 7 135717726.203 7     -1224.519 7        42.537               
> 2025 07 30 04 26 27.0000000  0 11                                             
G05  23263666.150 7 122251400.618 7      -253.429 7        43.653               
G07  28184441.589 7 148110212.923 7     -2353.934 7        43.847               
G11  25691513.985 7 135009789.657 7     -3197.023 7        47.613               
G13  22399018.455 7 117707666.574 7      -198.252 7        44.554               
G15  23442989.818 7 123193745.303 7      1966.624 7        44.520               
G18  26521774.086 6 139372857.249 6      3382.995 6        37.389               
G20  24068350.174 7 126480017.233 7     -1438.677 7        46.597               
G21  24697302.901 7 129785241.935 7     -1835.756 7        43.668               
G24  27684709.846 6 145484119.734 6      3954.426 6        41.516               
G29  25299169.084 7 132948004.129 7     -1427.114 7        42.375               
G30  25826455.844 7 135718951.402 7     -1226.482 7        43.332               
> 2025 07 30 04 26 28.0000000  0 11                                             
G05  23263717.898 7 122251654.827 7      -252.946 7        43.747               
G07  28184885.045 7 148112568.260 7     -2356.315 7        43.704               
G11  25692121.032 7 135012988.317 7     -3193.687 7        47.212               
G13  22399061.269 7 117707869.335 7      -204.125 7        45.206               
G15  23442614.211 7 123191781.678 7      1964.672 7        44.613               
G18  26521137.663 6 139369478.669 6      3377.646 6        37.734               
G20  24068620.175 7 126481458.466 7     -1440.327 7        45.745               
G21  24697655.296 7 129787083.143 7     -1837.745 7        44.376               
G24  27683952.664 7 145480159.760 7      3964.099 7        42.003               
G29  25299442.891 7 132949433.254 7     -1432.800 7        42.448               
G30  25826690.928 7 135720177.192 7     -1224.819 7        43.086               
> 2025 07 30 04 26 29.0000000  0 11                                             
G05  23263761.910 7 122251909.306 7      -256.348 7        44.082               
G07  28185333.414 7 148114923.890 7     -2356.362 7        43.753               
G11  25692734.297 7 135016187.256 7     -3199.981 7        46.663               
G13  22399097.096 7 117708072.679 7      -199.955 7        45.281               
G15  23442242.000 7 123189818.480 7      1962.036 7        44.860               
G18  26520491.626 6 139366100.237 6      3384.856 6        38.461               
G20  24068894.375 7 126482899.959 7     -1441.407 7        46.086               
G21  24698005.136 7 129788924.531 7     -1842.085 7        43.735               
G24  27683197.501 6 145476199.717 6      3962.164 6        41.832               
G29  25299713.481 7 132950862.887 7     -1433.443 7        42.315               
G30  25826926.567 7 135721403.537 7     -1225.519 7        43.329               
> 2025 07 30 04 26 30.0000000  0 11                                             
G05  23263806.743 7 122252163.986 7      -249.432 7        43.641               
G07  28185779.264 7 148117279.791 7     -2356.984 7        43.553               
G11  25693337.448 7 135019386.409 7     -3199.455 7        46.945               
G13  22399136.569 7 117708276.570 7      -206.631 7        45.875               
G15  23441874.184 7 123187855.637 7      1962.402 7        44.453               
G18  26519849.253 6 139362721.885 6      3383.538 6        38.805               
G20  24069169.398 7 126484341.652 7     -1441.640 7        46.220               
G21  24698357.817 7 129790766.013 7     -1842.537 7        44.021               
G24  27682447.484 6 145472239.490 6      3959.448 6        41.897               
G29  25299986.556 7 132952293.007 7     -1428.358 7        42.773               
G30  25827161.134 7 135722630.357 7     -1228.458 7        43.721               
> 2025 07 30 04 26 31.0000000  0 11                                             
G05  23263855.954 7 122252418.987 7      -250.009 7        43.424               
G07  28186227.830 7 148119636.070 7     -2354.696 7        42.885               
G11  25693947.425 7 135022585.929 7     -3196.940 7        46.609               
G13  22399176.435 7 117708481.117 7      -201.912 7        44.855               
G15  23441498.827 7 123185893.279 7      1962.575 7        44.420               
G18  26519217.922 6 139359343.768 6      3375.191 6        38.919               
G20  24069445.188 7 126485783.662 7     -1441.841 7        46.085               
G21  24698710.194 7 129792607.728 7     -1847.647 7        44.351               
G24  27681694.573 6 145468279.252 6      3958.299 6        41.738               
G29  25300260.202 7 132953723.695 7     -1431.508 7        42.793               
G30  25827392.931 7 135723857.772 7     -1232.023 7        43.345               
> 2025 07 30 04 26 32.0000000  0 11                                             
G05  23263901.628 7 122252674.327 7      -255.324 7        43.685               
G07  28186675.414 7 148121992.706 7     -2354.538 7        43.076               
G11  25694555.990 7 135025785.792 7     -3200.304 7        46.786               
G13  22399221.643 7 117708686.332 7      -202.384 7        45.875               
G15  23441125.382 7 123183931.404 7      1958.300 7        44.713               
G18  26518568.669 6 139355965.854 6      3377.136 6        38.252               
G20  24069721.265 7 126487225.964 7     -1446.048 7        46.488               
G21  24699062.035 7 129794449.671 7     -1838.190 7        43.946               
G24  27680943.359 6 145464318.967 6      3959.839 6        41.384               
G29  25300530.328 7 132955154.980 7     -1431.758 7        42.471               
G30  25827624.245 7 135725085.795 7     -1225.366 7        43.261               
> 2025 07 30 04 26 33.0000000  0 11                                             
G05  23263952.501 7 122252929.917 7      -256.973 7        44.137               
G07  28187125.123 7 148124349.658 7     -2359.227 7        42.876               
G11  25695164.770 7 135028985.926 7     -3201.893 7        46.440               
G13  22399254.522 7 117708892.110 7      -202.979 7        44.951               
G15  23440747.577 7 123181969.912 7      1962.839 7        44.471               
G18  26517923.490 6 139352588.064 6      3375.020 6        38.576               
G20  24069994.428 7 126488668.506 7     -1442.143 7        46.379               
G21  24699409.409 7 129796291.748 7     -1840.637 7        44.858               
G24  27680189.680 6 145460358.559 6      3964.976 6        41.699               
G29  25300807.977 7 132956586.767 7     -1435.057 7        42.750               
G30  25827855.095 7 135726314.328 7     -1229.546 7        42.832               
> 2025 07 30 04 26 34.0000000  0 11                                             
G05  23264002.784 7 122253185.764 7      -257.543 7        43.932               
G07  28187573.815 7 148126706.916 7     -2362.378 7        43.167               
G11  25695775.515 7 135032186.353 7     -3199.174 7        46.614               
G13  22399296.014 7 117709098.508 7      -204.636 7        44.628               
G15  23440375.866 7 123180008.869 7      1959.161 7        44.515               
G18  26517284.244 6 139349210.441 6      3375.943 6        38.075               
G20  24070267.664 7 126490111.313 7     -1440.281 7        46.102               
G21  24699763.305 7 129798134.008 7     -1842.040 7        44.941               
G24  27679431.461 7 145456398.093 7      3960.923 7        42.123               
G29  25301076.102 7 132958019.088 7     -1435.350 7        43.072               
G30  25828093.111 7 135727543.409 7     -1234.735 7        42.401               
> 2025 07 30 04 26 35.0000000  0 11                                             
G05  23264049.244 7 122253441.839 7      -253.156 7        43.554               
G07  28188028.545 7 148129064.459 7     -2355.629 7        43.361               
G11  25696382.544 7 135035387.032 7     -3203.075 7        46.605               
G13  22399334.450 7 117709305.475 7      -205.929 7        44.870               
G15  23440003.261 7 123178048.192 7      1958.687 7        44.375               
G18  26516634.615 6 139345832.911 6      3372.242 6        37.912               
G20  24070545.348 7 126491554.317 7     -1441.740 7        46.301               
G21  24700111.733 7 129799976.394 7     -1846.869 7        44.837               
G24  27678678.765 6 145452437.481 6      3960.002 6        41.046               
G29  25301348.515 7 132959451.944 7     -1426.842 7        42.043               
G30  25828326.927 7 135728772.981 7     -1233.042 7        42.950               
> 2025 07 30 04 26 36.0000000  0 11                                             
G05  23264103.583 7 122253698.216 7      -257.272 7        43.506               
G07  28188473.770 7 148131422.345 7     -2362.553 7        43.086               
G11  25696993.557 7 135038588.015 7     -3200.149 7        47.352               
G13  22399373.780 7 117709513.058 7      -207.553 7        45.094               
G15  23439629.816 7 123176087.966 7      1964.358 7        44.645               
G18  26515994.279 6 139342455.576 6      3376.269 6        38.107               
G20  24070818.976 7 126492997.622 7     -1443.916 7        45.892               
G21  24700463.592 7 129801818.975 7     -1844.335 7        44.504               
G24  27677930.839 6 145448476.792 6      3956.346 6        41.305               
G29  25301614.424 6 132960885.314 6     -1436.453 6        41.240               
G30  25828557.098 7 135730003.125 7     -1230.939 7        42.061               
> 2025 07 30 04 26 37.0000000  0 11                                             
G05  23264151.919 7 122253954.911 7      -256.899 7        42.958               
G07  28188926.178 7 148133780.612 7     -2359.542 7        42.781               
G11  25697603.052 7 135041789.368 7     -3201.958 7        46.992               
G13  22399414.861 7 117709721.296 7      -207.976 7        44.412               
G15  23439253.513 7 123174128.231 7      1966.319 7        44.599               
G18  26515356.265 6 139339078.455 6      3378.708 6        38.192               
G20  24071093.212 7 126494441.242 7     -1444.353 7        45.720               
G21  24700814.486 7 129803661.785 7     -1842.750 7        44.165               
G24  27677171.387 6 145444516.088 6      3956.715 6        41.239               
G29  25301884.318 6 132962319.313 6     -1430.729 6        41.390               
G30  25828794.774 7 135731233.871 7     -1226.288 7        42.327               
> 2025 07 30 04 26 38.0000000  0 11                                             
G05  23264198.003 7 122254211.862 7      -260.081 7        43.409               
G07  28189374.297 7 148136139.162 7     -2357.843 7        43.476               
G11  25698212.010 7 135044990.975 7     -3201.128 7        47.330               
G13  22399454.262 7 117709930.116 7      -212.614 7        44.865               
G15  23438879.371 7 123172168.877 7      1964.006 7        44.339               
G18  26514709.693 6 139335701.461 6      3391.114 6        37.896               
G20  24071369.539 7 126495885.094 7     -1445.321 7        46.303               
G21  24701165.094 7 129805504.741 7     -1844.104 7        44.107               
G24  27676414.849 6 145440555.262 6      3963.482 6        41.660               
G29  25302159.322 6 132963753.789 6     -1430.236 6        40.909               
G30  25829031.020 7 135732465.106 7     -1233.452 7        42.486               
> 2025 07 30 04 26 39.0000000  0 11                                             
G05  23264246.911 7 122254469.044 7      -262.635 7        43.926               
G07  28189823.918 7 148138498.038 7     -2357.437 7        43.366               
G11  25698821.094 7 135048192.851 7     -3202.303 7        47.448               
G13  22399493.145 7 117710139.506 7      -208.686 7        44.741               
G15  23438508.660 7 123170209.952 7      1949.118 7        44.374               
G18  26514064.460 6 139332324.608 6      3378.775 6        36.957               
G20  24071645.133 7 126497329.191 7     -1448.096 7        46.323               
G21  24701514.362 7 129807347.857 7     -1843.475 7        44.282               
G24  27675663.206 6 145436594.346 6      3963.445 6        41.882               
G29  25302438.507 6 132965188.764 6     -1432.965 6        41.177               
G30  25829266.837 7 135733696.899 7     -1233.546 7        42.600               
> 2025 07 30 04 26 40.0000000  0 11                                             
G05  23264293.299 7 122254726.601 7      -258.227 7        43.490               
G07  28190272.341 7 148140857.312 7     -2362.188 7        43.002               
G11  25699431.035 7 135051395.112 7     -3198.816 7        47.044               
G13  22399531.546 7 117710349.587 7      -210.101 7        44.837               
G15  23438133.554 7 123168251.515 7      1959.581 7        43.822               
G18  26513429.484 6 139328948.005 6      3380.103 6        37.571               
G20  24071917.403 7 126498773.620 7     -1446.314 7        45.881               
G21  24701866.239 7 129809191.201 7     -1843.362 7        44.842               
G24  27674908.222 6 145432633.404 6      3958.894 6        41.694               
G29  25302715.227 7 132966624.400 7     -1438.644 7        42.082               
G30  25829502.065 7 135734929.295 7     -1234.203 7        42.463               
> 2025 07 30 04 26 41.0000000  0 11                                             
G05  23264346.173 7 122254984.433 7      -254.046 7        43.915               
G07  28190721.103 7 148143216.904 7     -2358.237 7        43.368               
G11  25700038.724 7 135054597.649 7     -3197.477 7        47.012               
G13  22399571.965 7 117710560.259 7      -209.985 7        45.294               
G15  23437761.288 7 123166293.505 7      1957.068 7        44.339               
G18  26512779.731 6 139325571.538 6      3369.324 6        38.013               
G20  24072194.051 7 126500218.287 7     -1446.402 7        46.098               
G21  24702217.097 7 129811034.720 7     -1845.674 7        44.910               
G24  27674161.601 6 145428672.384 6      3956.989 6        41.408               
G29  25302987.301 7 132968060.529 7     -1431.057 7        42.409               
G30  25829733.701 7 135736162.234 7     -1233.927 7        42.796               
> 2025 07 30 04 26 42.0000000  0 11                                             
G05  23264394.973 7 122255242.497 7      -255.453 7        43.837               
G07  28191171.778 7 148145576.806 7     -2359.965 7        43.245               
G11  25700648.005 7 135057800.480 7     -3203.149 7        46.704               
G13  22399611.938 7 117710771.535 7      -215.578 7        45.069               
G15  23437388.148 7 123164335.903 7      1959.647 7        44.582               
G18  26512136.946 6 139322195.227 6      3389.279 6        37.994               
G20  24072464.874 7 126501663.216 7     -1445.593 7        46.086               
G21  24702565.811 7 129812878.400 7     -1848.752 7        44.332               
G24  27673407.635 6 145424711.255 6      3960.865 6        41.210               
G29  25303264.217 6 132969497.213 6     -1436.445 6        41.372               
G30  25829969.251 7 135737395.686 7     -1233.523 7        43.139               
> 2025 07 30 04 26 43.0000000  0 11                                             
G05  23264447.008 7 122255500.868 7      -258.155 7        44.002               
G07  28191618.432 7 148147937.051 7     -2357.164 7        43.592               
G11  25701257.356 7 135061003.640 7     -3205.948 7        47.145               
G13  22399654.270 7 117710983.422 7      -211.866 7        45.168               
G15  23437019.402 7 123162378.766 7      1957.250 7        44.605               
G18  26511497.914 6 139318819.083 6      3365.759 6        37.901               
G20  24072742.362 7 126503108.423 7     -1442.661 7        46.357               
G21  24702920.082 7 129814722.285 7     -1844.206 7        43.892               
G24  27672654.795 6 145420750.054 6      3959.453 6        41.491               
G29  25303534.093 6 132970934.439 6     -1438.813 6        41.546               
G30  25830199.457 7 135738629.731 7     -1233.645 7        42.752               
> 2025 07 30 04 26 44.0000000  0 11                                             
G05  23264493.539 7 122255759.518 7      -255.302 7        43.733               
G07  28192068.338 7 148150297.641 7     -2363.974 7        43.634               
G11  25701867.137 7 135064207.098 7     -3204.697 7        46.536               
G13  22399696.495 7 117711195.947 7      -213.205 7        44.960               
G15  23436644.367 7 123160422.071 7      1955.316 7        43.992               
G18  26510856.970 6 139315443.132 6      3381.275 6        37.483               
G20  24073019.582 7 126504553.911 7     -1446.885 7        46.110               
G21  24703270.386 7 129816566.363 7     -1845.817 7        43.844               
G24  27671901.652 6 145416788.781 6      3960.024 6        41.552               
G29  25303805.541 6 132972372.242 6     -1438.847 6        41.199               
G30  25830434.632 7 135739864.329 7     -1238.193 7        42.840               
> 2025 07 30 04 26 45.0000000  0 11                                             
G05  23264544.859 7 122256018.471 7      -260.873 7        43.715               
G07  28192514.742 7 148152658.547 7     -2364.637 7        42.726               
G11  25702476.595 7 135067410.873 7     -3203.631 7        47.659               
G13  22399735.860 7 117711409.078 7      -213.222 7        45.065               
G15  23436272.191 7 123158465.829 7      1957.330 7        43.941               
G18  26510209.058 6 139312067.337 6      3371.783 6        37.676               
G20  24073291.996 7 126505999.655 7     -1447.921 7        46.295               
G21  24703619.029 7 129818410.620 7     -1844.875 7        44.488               
G24  27671144.362 6 145412827.462 6      3961.213 6        41.741               
G29  25304076.060 6 132973810.585 6     -1441.177 6        41.109               
G30  25830664.946 7 135741099.475 7     -1235.549 7        42.637               
> 2025 07 30 04 26 46.0000000  0 11                                             
G05  23264587.566 7 122256277.672 7      -260.595 7        43.711               
G07  28192961.664 7 148155019.747 7     -2354.779 7        42.769               
G11  25703087.948 7 135070614.903 7     -3205.834 7        47.037               
G13  22399777.334 7 117711622.780 7      -212.560 7        44.985               
G15  23435903.142 7 123156509.975 7      1950.129 7        43.993               
G18  26509566.077 6 139308691.669 6      3379.079 6        36.923               
G20  24073571.449 7 126507445.645 7     -1446.864 7        46.951               
G21  24703968.761 7 129820255.019 7     -1844.051 7        44.311               
G24  27670387.842 6 145408866.011 6      3959.667 6        41.180               
G29  25304354.907 6 132975249.417 6     -1437.324 6        41.407               
G30  25830906.338 7 135742335.165 7     -1238.533 7        42.994               
> 2025 07 30 04 26 47.0000000  0 11                                             
G05  23264636.616 7 122256537.112 7      -259.739 7        43.261               
G07  28193411.356 7 148157381.263 7     -2359.110 7        42.559               
G11  25703697.050 7 135073819.207 7     -3205.309 7        47.319               
G13  22399817.432 7 117711837.077 7      -213.737 7        44.750               
G15  23435528.876 7 123154554.515 7      1953.139 7        44.231               
G18  26508926.348 6 139305316.158 6      3373.218 6        37.006               
G20  24073846.543 7 126508891.846 7     -1451.944 7        46.025               
G21  24704316.850 7 129822099.544 7     -1844.965 7        44.534               
G24  27669637.343 6 145404904.423 6      3965.247 6        41.476               
G29  25304624.103 6 132976688.785 6     -1441.850 6        41.374               
G30  25831147.856 7 135743571.341 7     -1236.768 7        43.379               
> 2025 07 30 04 26 48.0000000  0 11                                             
G05  23264691.903 7 122256796.790 7      -262.200 7        43.905               
G07  28193859.172 7 148159743.052 7     -2359.898 7        42.759               
G11  25704307.384 7 135077023.767 7     -3204.271 7        47.644               
G13  22399859.621 7 117712051.949 7      -216.152 7        44.562               
G15  23435156.753 7 123152599.476 7      1954.415 7        44.331               
G18  26508286.547 6 139301940.759 6      3372.908 6        37.080               
G20  24074119.742 7 126510338.296 7     -1447.208 7        46.695               
G21  24704670.675 7 129823944.245 7     -1846.210 7        44.289               
G24  27668885.146 6 145400942.764 6      3958.753 6        41.392               
G29  25304900.287 6 132978128.646 6     -1440.194 6        41.149               
G30  25831384.424 7 135744808.056 7     -1241.211 7        43.995               
> 2025 07 30 04 26 49.0000000  0 11                                             
G05  23264741.418 7 122257056.766 7      -258.059 7        43.699               
G07  28194308.024 7 148162105.184 7     -2362.278 7        42.653               
G11  25704916.932 7 135080228.635 7     -3205.692 7        47.570               
G13  22399899.540 7 117712267.422 7      -216.051 7        44.658               
G15  23434784.131 7 123150644.859 7      1955.008 7        44.233               
G18  26507640.779 6 139298565.525 6      3375.602 6        37.163               
G20  24074394.461 7 126511785.007 7     -1448.278 7        46.295               
G21  24705024.356 7 129825789.128 7     -1839.001 7        44.241               
G24  27668128.268 6 145396981.004 6      3963.900 6        41.037               
G29  25305171.181 6 132979569.053 6     -1436.187 6        41.247               
G30  25831618.651 7 135746045.330 7     -1236.753 7        43.932               
> 2025 07 30 04 26 50.0000000  0 11                                             
G05  23264791.451 7 122257317.025 7      -260.660 7        43.571               
G07  28194755.857 7 148164467.643 7     -2362.831 7        43.207               
G11  25705526.927 7 135083433.827 7     -3208.456 7        47.893               
G13  22399939.817 7 117712483.526 7      -219.500 7        44.860               
G15  23434412.812 7 123148690.695 7      1953.502 7        44.617               
G18  26506997.547 6 139295190.481 6      3386.530 6        36.868               
G20  24074669.965 7 126513232.000 7     -1451.517 7        45.972               
G21  24705374.643 7 129827634.189 7     -1842.934 7        44.385               
G24  27667374.606 6 145393019.195 6      3962.176 6        41.160               
G29  25305444.006 6 132981010.033 6     -1442.954 6        41.533               
G30  25831853.236 7 135747283.163 7     -1235.787 7        44.269               
> 2025 07 30 04 26 51.0000000  0 11                                             
G05  23264841.467 7 122257577.524 7      -261.375 7        43.591               
G07  28195206.782 7 148166830.403 7     -2364.345 7        43.160               
G11  25706137.940 7 135086639.250 7     -3205.595 7        47.750               
G13  22399983.578 7 117712700.184 7      -216.781 7        45.217               
G15  23434044.156 7 123146736.913 7      1952.755 7        44.739               
G18  26506352.511 6 139291815.554 6      3382.200 6        37.000               
G20  24074945.827 7 126514679.207 7     -1446.502 7        45.860               
G21  24705724.858 7 129829479.381 7     -1845.539 7        44.369               
G24  27666619.694 6 145389057.241 6      3962.749 6        41.528               
G29  25305721.958 6 132982451.467 6     -1440.808 6        41.278               
G30  25832088.052 7 135748521.475 7     -1234.082 7        43.929               
> 2025 07 30 04 26 52.0000000  0 11                                             
G05  23264891.143 7 122257838.310 7      -258.098 7        43.285               
G07  28195656.117 7 148169193.506 7     -2363.718 7        42.461               
G11  25706749.633 7 135089845.022 7     -3204.343 7        47.562               
G13  22400025.338 7 117712917.497 7      -220.247 7        45.115               
G15  23433673.714 7 123144783.613 7      1954.150 7        44.965               
G18  26505710.120 6 139288440.830 6      3372.220 6        36.622               
G20  24075219.795 7 126516126.727 7     -1449.887 7        46.287               
G21  24706079.522 7 129831324.788 7     -1845.288 7        45.163               
G24  27665864.709 6 145385095.273 6      3961.078 6        41.639               
G29  25305997.963 6 132983893.522 6     -1439.957 6        41.412               
G30  25832321.100 7 135749760.410 7     -1242.161 7        43.647               
> 2025 07 30 04 26 53.0000000  0 11                                             
G05  23264935.440 7 122258099.414 7      -260.921 7        43.197               
G07  28196110.222 7 148171556.950 7     -2365.994 7        42.119               
G11  25707358.019 7 135093051.103 7     -3204.357 7        47.526               
G13  22400066.348 7 117713135.435 7      -220.618 7        45.696               
G15  23433299.644 7 123142830.761 7      1953.671 7        45.067               
G18  26505064.351 6 139285066.289 6      3383.654 6        36.182               
G20  24075496.765 7 126517574.515 7     -1444.212 7        46.250               
G21  24706429.058 7 129833170.385 7     -1844.571 7        45.038               
G24  27665114.282 6 145381133.207 6      3966.880 6        41.518               
G29  25306276.363 6 132985336.093 6     -1443.636 6        41.949               
G30  25832551.932 7 135750999.884 7     -1240.195 7        43.548               
> 2025 07 30 04 26 54.0000000  0 11                                             
G05  23264992.907 7 122258360.749 7      -262.248 7        42.988               
G07  28196561.343 6 148173920.712 6     -2365.155 6        41.992               
G11  25707968.300 7 135096257.475 7     -3208.419 7        47.788               
G13  22400110.502 7 117713353.952 7      -221.425 7        45.552               
G15  23432931.988 7 123140878.325 7      1952.021 7        45.125               
G18  26504422.639 5 139281691.847 5      3374.795 5        35.860               
G20  24075767.963 7 126519022.549 7     -1453.969 7        45.939               
G21  24706781.828 7 129835016.141 7     -1846.911 7        44.833               
G24  27664360.388 6 145377171.076 6      3968.380 6        41.476               
G29  25306542.379 6 132986779.212 6     -1446.955 6        41.560               
G30  25832788.536 7 135752239.875 7     -1235.437 7        43.616               
> 2025 07 30 04 26 55.0000000  0 11                                             
G05  23265038.741 7 122258622.375 7      -268.247 7        43.092               
G07  28197012.268 7 148176284.775 7     -2368.731 7        42.445               
G11  25708577.812 8 135099464.116 8     -3205.041 8        48.166               
G13  22400148.599 7 117713573.085 7      -218.619 7        44.819               
G15  23432559.169 7 123138926.304 7      1950.870 7        44.505               
G18  26503773.154 6 139278317.612 6      3379.620 6        36.688               
G20  24076045.308 7 126520470.840 7     -1449.773 7        45.474               
G21  24707129.631 7 129836862.054 7     -1845.364 7        44.913               
G24  27663603.831 6 145373208.820 6      3960.963 6        41.558               
G29  25306819.366 6 132988222.831 6     -1441.850 6        41.446               
G30  25833024.461 7 135753480.404 7     -1240.363 7        42.862               
> 2025 07 30 04 26 56.0000000  0 11                                             
G05  23265088.327 7 122258884.247 7      -262.762 7        43.441               
G07  28197465.927 7 148178649.186 7     -2366.426 7        42.453               
G11  25709189.594 7 135102671.063 7     -3208.803 7        47.659               
G13  22400187.839 7 117713792.808 7      -218.418 7        44.709               
G15  23432186.797 7 123136974.701 7      1954.041 7        44.569               
G18  26503138.428 6 139274943.529 6      3370.392 6        36.734               
G20  24076321.903 7 126521919.389 7     -1447.876 7        46.537               
G21  24707479.488 7 129838708.152 7     -1841.150 7        44.874               
G24  27662849.937 6 145369246.516 6      3966.262 6        41.452               
G29  25307092.870 6 132989667.036 6     -1446.797 6        41.273               
G30  25833260.921 7 135754721.491 7     -1240.667 7        42.370               
> 2025 07 30 04 26 57.0000000  0 11                                             
G05  23265141.952 7 122259146.381 7      -264.645 7        43.303               
G07  28197915.672 7 148181013.875 7     -2363.596 7        42.491               
G11  25709799.643 7 135105878.268 7     -3205.232 7        47.277               
G13  22400230.117 7 117714013.112 7      -221.789 7        45.183               
G15  23431811.851 7 123135023.521 7      1953.510 7        44.667               
G18  26502507.366 6 139271569.580 6      3368.943 6        36.284               
G20  24076598.855 7 126523368.171 7     -1449.005 7        45.760               
G21  24707829.828 7 129840554.398 7     -1845.831 7        44.653               
G24  27662092.434 6 145365284.087 6      3960.795 6        41.957               
G29  25307368.839 6 132991111.712 6     -1444.054 6        40.739               
G30  25833493.630 7 135755963.091 7     -1241.785 7        42.913               
> 2025 07 30 04 26 58.0000000  0 11                                             
G05  23265189.001 7 122259408.762 7      -264.737 7        43.736               
G07  28198365.882 7 148183378.872 7     -2367.294 7        42.834               
G11  25710408.011 7 135109085.756 7     -3205.695 7        47.386               
G13  22400269.572 7 117714233.992 7      -220.049 7        44.927               
G15  23431440.372 7 123133072.737 7      1948.145 7        44.384               
G18  26501857.023 6 139268195.755 6      3381.365 6        36.441               
G20  24076875.324 7 126524817.193 7     -1444.265 7        46.579               
G21  24708185.011 7 129842400.780 7     -1844.203 7        44.526               
G24  27661339.540 6 145361321.531 6      3957.858 6        41.841               
G29  25307643.218 6 132992556.905 6     -1443.166 6        41.346               
G30  25833733.754 7 135757205.201 7     -1241.381 7        43.650               
> 2025 07 30 04 26 59.0000000  0 11                                             
G05  23265237.819 7 122259671.441 7      -261.788 7        43.940               
G07  28198813.251 7 148185744.189 7     -2366.648 7        43.088               
G11  25711018.221 7 135112293.540 7     -3209.004 7        46.731               
G13  22400312.797 7 117714455.476 7      -222.070 7        44.861               
G15  23431066.856 7 123131122.381 7      1952.343 7        44.596               
G18  26501215.811 6 139264822.089 6      3378.630 6        36.454               
G20  24077149.739 7 126526266.465 7     -1451.699 7        46.069               
G21  24708536.745 7 129844247.356 7     -1845.276 7        44.742               
G24  27660586.021 6 145357358.907 6      3964.887 6        41.219               
G29  25307918.597 6 132994002.626 6     -1440.375 6        40.635               
G30  25833971.555 7 135758447.878 7     -1241.689 7        43.450               
> 2025 07 30 04 27 00.0000000  0 11                                             
G05  23265294.893 7 122259934.335 7      -263.992 7        43.820               
G07  28199267.089 7 148188109.795 7     -2367.018 7        42.070               
G11  25711629.538 7 135115501.599 7     -3207.771 7        46.810               
G13  22400355.540 7 117714677.556 7      -220.139 7        44.937               
G15  23430697.306 7 123129172.438 7      1948.421 7        44.509               
G18  26500578.280 6 139261448.590 6      3371.845 6        36.916               
G20  24077427.048 7 126527715.986 7     -1446.707 7        45.973               
G21  24708885.655 7 129846094.072 7     -1849.584 7        44.720               
G24  27659832.377 6 145353396.202 6      3961.882 6        41.848               
G29  25308192.744 6 132995448.883 6     -1445.681 6        40.919               
G30  25834210.070 7 135759691.071 7     -1245.372 7        44.156               
> 2025 07 30 04 27 01.0000000  0 11                                             
G05  23265341.960 7 122260197.527 7      -262.109 7        44.002               
G07  28199716.459 7 148190475.748 7     -2368.064 7        42.120               
G11  25712237.031 7 135118709.960 7     -3210.507 7        46.601               
G13  22400399.534 7 117714900.245 7      -229.884 7        44.773               
G15  23430329.848 7 123127222.945 7      1949.761 7        44.910               
G18  26499935.227 6 139258075.253 6      3369.490 6        37.310               
G20  24077702.124 7 126529165.765 7     -1442.713 7        46.372               
G21  24709238.068 7 129847940.975 7     -1848.758 7        44.752               
G24  27659076.875 6 145349433.393 6      3960.296 6        41.912               
G29  25308470.661 6 132996895.678 6     -1449.882 6        41.156               
G30  25834450.355 7 135760934.812 7     -1241.133 7        43.913               
> 2025 07 30 04 27 02.0000000  0 11                                             
G05  23265390.528 7 122260460.985 7      -262.176 7        44.434               
G07  28200162.398 7 148192842.021 7     -2364.545 7        42.477               
G11  25712848.455 7 135121918.629 7     -3211.771 7        46.733               
G13  22400440.632 7 117715123.528 7      -221.917 7        45.111               
G15  23429958.404 7 123125273.853 7      1949.475 7        44.596               
G18  26499287.046 6 139254702.067 6      3370.121 6        37.346               
G20  24077976.574 7 126530615.819 7     -1451.482 7        46.293               
G21  24709590.517 7 129849788.051 7     -1846.585 7        44.981               
G24  27658328.771 7 145345470.511 7      3966.062 7        42.018               
G29  25308748.703 6 132998343.002 6     -1452.714 6        40.855               
G30  25834686.208 7 135762179.105 7     -1245.618 7        43.367               
> 2025 07 30 04 27 03.0000000  0 11                                             
G05  23265445.654 7 122260724.690 7      -261.536 7        44.292               
G07  28200614.931 7 148195208.583 7     -2363.888 7        42.526               
G11  25713455.931 7 135125127.555 7     -3210.412 7        46.253               
G13  22400486.770 7 117715347.403 7      -219.861 7        45.542               
G15  23429588.033 7 123123325.181 7      1948.809 7        44.981               
G18  26498649.944 6 139251329.003 6      3377.241 6        36.752               
G20  24078256.886 7 126532066.102 7     -1453.182 7        46.407               
G21  24709942.179 7 129851635.277 7     -1844.199 7        45.087               
G24  27657571.803 6 145341507.521 6      3962.893 6        41.750               
G29  25309018.489 6 132999790.831 6     -1448.403 6        41.305               
G30  25834922.651 7 135763423.915 7     -1248.183 7        43.980               
> 2025 07 30 04 27 04.0000000  0 11                                             
G05  23265490.398 7 122260988.662 7      -263.778 7        43.747               
G07  28201065.391 7 148197575.447 7     -2365.818 7        42.450               
G11  25714071.125 7 135128336.755 7     -3212.622 7        46.647               
G13  22400529.245 7 117715571.868 7      -221.317 7        46.159               
G15  23429220.003 7 123121376.926 7      1949.386 7        44.954               
G18  26498002.442 6 139247956.122 6      3377.532 6        36.714               
G20  24078533.337 7 126533516.593 7     -1444.480 7        45.407               
G21  24710293.038 7 129853482.638 7     -1845.893 7        44.660               
G24  27656818.713 6 145337544.426 6      3961.919 6        41.450               
G29  25309299.962 6 133001239.188 6     -1451.134 6        40.862               
G30  25835159.845 7 135764669.250 7     -1245.001 7        43.095               
> 2025 07 30 04 27 05.0000000  0 11                                             
G05  23265538.984 7 122261253.010 7      -258.470 7        44.235               
G07  28201514.047 7 148199942.737 7     -2365.079 7        42.307               
G11  25714681.906 7 135131546.357 7     -3208.485 7        46.871               
G13  22400569.522 7 117715797.025 7      -223.424 7        45.355               
G15  23428847.166 7 123119429.206 7      1949.084 7        45.835               
G18  26497360.337 6 139244583.486 6      3369.389 6        36.507               
G20  24078807.037 7 126534967.505 7     -1452.190 7        45.638               
G21  24710644.307 7 129855330.297 7     -1845.891 7        44.816               
G24  27656062.711 6 145333581.348 6      3960.221 6        41.715               
G29  25309571.875 6 133002688.196 6     -1446.110 6        40.238               
G30  25835400.969 7 135765915.243 7     -1250.465 7        42.844               
> 2025 07 30 04 27 06.0000000  0 11                                             
G05  23265590.107 7 122261517.577 7      -263.499 7        44.114               
G07  28201959.164 6 148202310.296 6     -2369.610 6        41.629               
G11  25715290.811 7 135134756.195 7     -3208.743 7        46.366               
G13  22400616.070 7 117716022.755 7      -230.629 7        45.202               
G15  23428477.259 7 123117481.858 7      1946.351 7        45.551               
G18  26496718.517 6 139241210.965 6      3378.742 6        36.426               
G20  24079084.275 7 126536418.595 7     -1452.262 7        45.459               
G21  24710998.006 7 129857178.075 7     -1849.066 7        45.041               
G24  27655307.619 6 145329618.138 6      3964.432 6        41.524               
G29  25309843.609 6 133004137.664 6     -1455.757 6        39.878               
G30  25835633.463 7 135767161.708 7     -1245.076 7        43.103               
> 2025 07 30 04 27 07.0000000  0 11                                             
G05  23265640.927 7 122261782.472 7      -264.691 7        44.435               
G07  28202414.824 6 148204678.199 6     -2365.370 6        41.525               
G11  25715902.289 7 135137966.360 7     -3213.085 7        46.804               
G13  22400658.795 7 117716249.099 7      -228.106 7        44.264               
G15  23428105.690 7 123115534.957 7      1949.868 7        45.047               
G18  26496074.428 6 139237838.619 6      3366.444 6        36.763               
G20  24079360.816 7 126537869.960 7     -1445.838 7        46.042               
G21  24711353.171 7 129859026.045 7     -1845.014 7        45.695               
G24  27654554.565 6 145325654.882 6      3964.319 6        41.597               
G29  25310124.743 6 133005587.721 6     -1460.757 6        40.436               
G30  25835870.656 7 135768408.761 7     -1247.989 7        43.080               
> 2025 07 30 04 27 08.0000000  0 11                                             
G05  23265691.550 7 122262047.579 7      -261.866 7        44.309               
G07  28202865.213 6 148207046.396 6     -2370.872 6        41.607               
G11  25716514.821 7 135141176.783 7     -3210.215 7        47.428               
G13  22400699.322 7 117716476.031 7      -223.357 7        44.389               
G15  23427735.712 7 123113588.477 7      1947.738 7        45.028               
G18  26495437.129 6 139234466.430 6      3366.050 6        36.568               
G20  24079636.535 7 126539321.596 7     -1454.308 7        46.165               
G21  24711704.512 7 129860874.175 7     -1848.099 7        45.554               
G24  27653802.029 6 145321691.509 6      3964.092 6        41.394               
G29  25310389.008 6 133007038.259 6     -1451.086 6        40.570               
G30  25836109.708 7 135769656.325 7     -1245.814 7        43.785               
> 2025 07 30 04 27 09.0000000  0 11                                             
G05  23265748.230 7 122262313.012 7      -261.991 7        44.379               
G07  28203314.583 6 148209414.942 6     -2370.294 6        41.537               
G11  25717126.442 7 135144387.527 7     -3209.816 7        47.279               
G13  22400741.475 7 117716703.596 7      -226.420 7        44.690               
G15  23427363.358 7 123111642.448 7      1945.985 7        45.677               
G18  26494801.260 6 139231094.415 6      3379.060 6        36.424               
G20  24079912.665 7 126540773.497 7     -1456.416 7        46.218               
G21  24712054.762 7 129862722.508 7     -1847.787 7        46.183               
G24  27653045.419 6 145317728.077 6      3965.799 6        41.038               
G29  25310678.111 6 133008489.378 6     -1444.897 6        40.372               
G30  25836349.725 7 135770904.470 7     -1249.904 7        44.139               
> 2025 07 30 04 27 10.0000000  0 11                                             
G05  23265795.494 7 122262578.743 7      -267.603 7        44.513               
G07  28203769.225 6 148211783.853 6     -2365.898 6        41.212               
G11  25717738.224 7 135147598.590 7     -3211.847 7        46.900               
G13  22400782.199 7 117716931.788 7      -228.207 7        45.007               
G15  23426993.469 7 123109696.870 7      1948.816 7        45.107               
G18  26494150.881 6 139227722.605 6      3373.036 6        37.172               
G20  24080187.866 7 126542225.699 7     -1453.914 7        46.521               
G21  24712408.891 7 129864571.029 7     -1849.518 7        45.922               
G24  27652288.666 6 145313764.580 6      3965.529 6        41.492               
G29  25310947.772 6 133009941.086 6     -1452.141 6        40.065               
G30  25836588.562 7 135772153.156 7     -1252.322 7        44.069               
> 2025 07 30 04 27 11.0000000  0 11                                             
G05  23265847.260 7 122262844.710 7      -264.483 7        44.872               
G07  28204218.881 7 148214153.046 7     -2368.503 7        42.031               
G11  25718347.182 7 135150809.921 7     -3213.509 7        46.822               
G13  22400828.944 7 117717160.550 7      -232.107 7        44.513               
G15  23426627.190 7 123107751.686 7      1943.234 7        45.084               
G18  26493514.119 6 139224350.922 6      3379.112 6        36.366               
G20  24080464.854 7 126543678.117 7     -1455.186 7        46.467               
G21  24712760.875 7 129866419.687 7     -1848.781 7        45.477               
G24  27651537.255 6 145309800.969 6      3966.050 6        41.472               
G29  25311225.189 6 133011393.227 6     -1451.572 6        40.131               
G30  25836825.202 7 135773402.384 7     -1252.810 7        43.703               
> 2025 07 30 04 27 12.0000000  0 11                                             
G05  23265899.599 7 122263110.972 7      -266.162 7        44.709               
G07  28204670.967 6 148216522.583 6     -2369.945 6        41.846               
G11  25718959.465 7 135154021.576 7     -3210.099 7        47.244               
G13  22400871.454 7 117717389.942 7      -229.368 7        45.114               
G15  23426256.318 7 123105806.962 7      1944.794 7        44.987               
G18  26492864.419 5 139220979.433 5      3358.065 5        35.725               
G20  24080741.091 7 126545130.825 7     -1455.442 7        45.785               
G21  24713111.304 7 129868268.554 7     -1848.178 7        45.720               
G24  27650786.596 6 145305837.338 6      3962.537 6        41.102               
G29  25311509.914 6 133012845.966 6     -1449.856 6        40.730               
G30  25837066.916 7 135774652.182 7     -1253.648 7        44.268               
> 2025 07 30 04 27 13.0000000  0 11                                             
G05  23265950.561 7 122263377.521 7      -267.328 7        44.223               
G07  28205122.285 7 148218892.423 7     -2371.145 7        42.085               
G11  25719570.281 7 135157233.509 7     -3212.905 7        46.796               
G13  22400917.056 7 117717619.928 7      -230.650 7        45.141               
G15  23425887.358 7 123103862.671 7      1940.892 7        45.051               
G18  26492224.708 6 139217608.028 6      3389.675 6        36.342               
G20  24081014.630 7 126546583.793 7     -1453.935 7        45.965               
G21  24713457.945 7 129870117.579 7     -1849.216 7        45.297               
G24  27650024.839 6 145301873.592 6      3966.871 6        41.390               
G29  25311789.153 6 133014299.232 6     -1458.583 6        40.284               
G30  25837302.215 7 135775902.490 7     -1250.939 7        44.324               
> 2025 07 30 04 27 14.0000000  0 11                                             
G05  23266006.813 7 122263644.314 7      -267.555 7        44.395               
G07  28205576.605 6 148221262.568 6     -2370.521 6        41.873               
G11  25720180.884 7 135160445.715 7     -3214.581 7        47.207               
G13  22400959.549 7 117717850.499 7      -228.907 7        45.192               
G15  23425515.450 7 123101918.768 7      1949.356 7        45.322               
G18  26491584.372 6 139214236.863 6      3382.737 6        36.328               
G20  24081293.333 7 126548036.985 7     -1456.609 7        45.683               
G21  24713808.250 7 129871966.760 7     -1850.711 7        44.599               
G24  27649270.999 6 145297909.743 6      3968.358 6        41.008               
G29  25312058.778 6 133015752.987 6     -1455.390 6        40.501               
G30  25837534.781 7 135777153.328 7     -1249.180 7        44.125               
> 2025 07 30 04 27 15.0000000  0 11                                             
G05  23266054.541 7 122263911.351 7      -267.542 7        44.121               
G07  28206024.706 6 148223633.003 6     -2369.662 6        41.804               
G11  25720791.093 7 135163658.199 7     -3211.860 7        47.190               
G13  22401006.491 7 117718081.647 7      -228.683 7        45.182               
G15  23425145.937 7 123099975.269 7      1946.038 7        44.812               
G18  26490950.950 6 139210865.773 6      3365.233 6        36.240               
G20  24081569.463 7 126549490.421 7     -1449.555 7        46.593               
G21  24714158.375 7 129873816.091 7     -1844.697 7        45.173               
G24  27648513.191 6 145293945.790 6      3958.838 6        40.788               
G29  25312336.195 6 133017207.252 6     -1453.498 6        40.537               
G30  25837770.134 7 135778404.702 7     -1251.013 7        43.942               
> 2025 07 30 04 27 16.0000000  0 11                                             
G05  23266110.239 7 122264178.649 7      -266.303 7        44.709               
G07  28206478.472 6 148226003.753 6     -2372.231 6        41.698               
G11  25721406.073 7 135166870.949 7     -3213.994 7        47.165               
G13  22401050.466 7 117718313.386 7      -230.767 7        45.098               
G15  23424776.280 7 123098032.206 7      1939.964 7        44.318               
G18  26490296.837 6 139207494.850 6      3373.090 6        36.059               
G20  24081847.898 7 126550944.102 7     -1454.268 7        45.851               
G21  24714512.289 7 129875665.587 7     -1853.415 7        44.753               
G24  27647761.084 6 145289981.727 6      3965.641 6        41.004               
G29  25312619.651 6 133018662.046 6     -1462.432 6        41.051               
G30  25838006.398 7 135779656.600 7     -1254.712 7        43.409               
> 2025 07 30 04 27 17.0000000  0 11                                             
G05  23266154.858 7 122264446.289 7      -268.695 7        44.902               
G07  28206927.485 6 148228374.891 6     -2370.598 6        41.459               
G11  25722017.980 7 135170084.063 7     -3212.954 7        46.737               
G13  22401094.335 7 117718545.797 7      -234.573 7        45.911               
G15  23424404.569 7 123096089.617 7      1939.068 7        44.319               
G18  26489654.821 5 139204124.157 5      3374.722 5        35.539               
G20  24082124.207 7 126552398.097 7     -1454.248 7        45.877               
G21  24714861.021 7 129877515.312 7     -1849.142 7        44.454               
G24  27647005.850 6 145286017.650 6      3966.918 6        40.632               
G29  25312894.423 6 133020117.411 6     -1452.673 6        40.693               
G30  25838245.003 7 135780909.091 7     -1252.302 7        43.602               
> 2025 07 30 04 27 18.0000000  0 11                                             
G05  23266204.605 7 122264714.150 7      -266.477 7        44.465               
G07  28207375.694 6 148230746.276 6     -2370.790 6        41.630               
G11  25722630.030 7 135173297.402 7     -3214.602 7        47.447               
G13  22401137.828 7 117718778.742 7      -236.405 7        45.925               
G15  23424031.982 7 123094147.411 7      1948.217 7        44.284               
G18  26489020.596 6 139200753.564 6      3359.528 6        36.433               
G20  24082402.964 7 126553852.306 7     -1456.818 7        45.463               
G21  24715215.185 7 129879365.158 7     -1851.496 7        44.688               
G24  27646248.132 6 145282053.430 6      3966.445 6        40.412               
G29  25313170.410 6 133021573.302 6     -1450.552 6        40.790               
G30  25838488.844 7 135782162.076 7     -1253.256 7        43.894               
> 2025 07 30 04 27 19.0000000  0 11                                             
G05  23266251.851 7 122264982.310 7      -267.605 7        44.273               
G07  28207829.299 6 148233118.033 6     -2370.973 6        41.303               
G11  25723239.810 7 135176511.074 7     -3215.600 7        47.893               
G13  22401185.449 7 117719012.326 7      -234.259 7        45.792               
G15  23423663.844 7 123092205.661 7      1940.452 7        44.725               
G18  26488379.348 6 139197383.173 6      3366.735 6        36.917               
G20  24082682.024 7 126555306.806 7     -1452.192 7        45.578               
G21  24715565.739 7 129881215.202 7     -1847.827 7        45.035               
G24  27645498.365 6 145278089.162 6      3964.652 6        40.604               
G29  25313448.345 6 133023029.749 6     -1461.358 6        40.163               
G30  25838725.555 7 135783415.635 7     -1250.606 7        44.357               
> 2025 07 30 04 27 20.0000000  0 11                                             
G05  23266299.758 7 122265250.708 7      -271.994 7        44.258               
G07  28208277.972 6 148235490.045 6     -2376.161 6        41.342               
G11  25723850.877 7 135179724.989 7     -3212.188 7        47.571               
G13  22401230.390 7 117719246.473 7      -238.035 7        45.251               
G15  23423297.029 7 123090264.306 7      1943.051 7        44.273               
G18  26487742.871 6 139194012.893 6      3366.691 6        37.039               
G20  24082959.584 7 126556761.513 7     -1451.140 7        45.949               
G21  24715919.224 7 129883065.388 7     -1849.884 7        44.358               
G24  27644743.935 6 145274124.771 6      3963.999 6        40.414               
G29  25313722.384 6 133024486.663 6     -1450.697 6        40.344               
G30  25838967.322 7 135784669.694 7     -1246.332 7        43.639               
> 2025 07 30 04 27 21.0000000  0 11                                             
G05  23266348.826 7 122265519.417 7      -268.953 7        43.507               
G07  28208734.329 6 148237862.423 6     -2376.844 6        41.300               
G11  25724461.533 7 135182939.234 7     -3213.483 7        47.661               
G13  22401277.760 7 117719481.243 7      -235.248 7        45.776               
G15  23422923.191 7 123088323.409 7      1938.141 7        44.332               
G18  26487104.482 6 139190642.814 6      3380.970 6        36.282               
G20  24083230.550 7 126558216.525 7     -1453.230 7        45.265               
G21  24716275.015 7 129884915.766 7     -1851.376 7        44.933               
G24  27643984.019 6 145270160.338 6      3965.324 6        40.092               
G29  25314004.483 6 133025944.130 6     -1453.732 6        39.342               
G30  25839211.020 7 135785924.346 7     -1255.761 7        43.537               
> 2025 07 30 04 27 22.0000000  0 11                                             
G05  23266400.485 7 122265788.325 7      -268.027 7        43.948               
G07  28209180.715 6 148240235.054 6     -2374.132 6        41.475               
G11  25725074.423 7 135186153.715 7     -3213.047 7        47.239               
G13  22401321.825 7 117719716.579 7      -235.593 7        45.148               
G15  23422558.574 7 123086382.888 7      1937.792 7        44.661               
G18  26486456.569 6 139187272.833 6      3368.953 6        36.807               
G20  24083508.431 7 126559671.734 7     -1450.310 7        45.095               
G21  24716625.676 7 129886766.271 7     -1846.450 7        45.074               
G24  27643237.773 6 145266195.761 6      3964.372 6        40.255               
G29  25314282.328 6 133027402.104 6     -1456.836 6        39.686               
G30  25839444.604 7 135787179.472 7     -1256.447 7        43.579               
> 2025 07 30 04 27 23.0000000  0 11                                             
G05  23266453.163 7 122266057.509 7      -265.833 7        44.104               
G07  28209635.017 6 148242608.020 6     -2372.239 6        40.866               
G11  25725685.686 8 135189368.493 8     -3216.711 8        48.096               
G13  22401363.121 7 117719952.513 7      -234.684 7        45.549               
G15  23422188.346 7 123084442.817 7      1935.881 7        44.596               
G18  26485809.371 6 139183903.046 6      3377.748 6        36.677               
G20  24083783.685 7 126561127.210 7     -1455.560 7        45.558               
G21  24716981.860 7 129888616.951 7     -1851.393 7        45.385               
G24  27642477.947 6 145262231.106 6      3962.563 6        40.436               
G29  25314554.420 6 133028860.582 6     -1450.609 6        40.129               
G30  25839686.157 7 135788435.147 7     -1256.785 7        43.978               
> 2025 07 30 04 27 24.0000000  0 11                                             
G05  23266502.803 7 122266327.011 7      -269.530 7        43.804               
G07  28210087.961 6 148244981.337 6     -2376.760 6        41.349               
G11  25726299.362 7 135192583.596 7     -3213.288 7        47.525               
G13  22401411.170 7 117720189.094 7      -236.885 7        45.530               
G15  23421819.994 7 123082503.188 7      1940.845 7        44.541               
G18  26485179.202 6 139180533.437 6      3363.452 6        36.795               
G20  24084056.599 7 126562582.983 7     -1459.947 7        46.311               
G21  24717331.932 7 129890467.824 7     -1849.823 7        46.141               
G24  27641724.481 6 145258266.409 6      3960.169 6        39.893               
G29  25314830.889 6 133030319.689 6     -1455.749 6        40.097               
G30  25839918.669 7 135789691.393 7     -1255.459 7        44.332               
> 2025 07 30 04 27 25.0000000  0 11                                             
G05  23266561.289 7 122266596.763 7      -267.166 7        43.433               
G07  28210542.013 6 148247354.945 6     -2374.357 6        41.200               
G11  25726912.556 7 135195798.962 7     -3219.368 7        47.306               
G13  22401453.699 7 117720426.232 7      -232.045 7        45.502               
G15  23421454.912 7 123080563.947 7      1937.067 7        44.924               
G18  26484536.793 6 139177163.955 6      3360.683 6        36.861               
G20  24084337.661 7 126564038.975 7     -1457.715 7        46.684               
G21  24717687.775 7 129892318.848 7     -1853.631 7        46.265               
G24  27640965.102 6 145254301.557 6      3962.320 6        40.042               
G29  25315106.037 6 133031779.246 6     -1463.537 6        39.607               
G30  25840158.311 7 135790948.141 7     -1254.718 7        43.862               
> 2025 07 30 04 27 26.0000000  0 11                                             
G05  23266603.531 7 122266866.818 7      -271.029 7        43.638               
G07  28210995.726 6 148249728.894 6     -2374.196 6        41.200               
G11  25727521.854 7 135199014.671 7     -3216.243 7        47.718               
G13  22401498.943 7 117720664.029 7      -237.689 7        46.132               
G15  23421087.614 7 123078625.195 7      1942.538 7        44.839               
G18  26483890.488 6 139173794.697 6      3363.003 6        36.688               
G20  24084616.650 7 126565495.286 7     -1458.511 7        45.725               
G21  24718038.044 7 129894170.094 7     -1848.460 7        45.870               
G24  27640215.568 6 145250336.736 6      3966.993 6        40.105               
G29  25315376.520 6 133033239.402 6     -1457.739 6        39.633               
G30  25840397.916 7 135792205.491 7     -1254.994 7        44.162               
> 2025 07 30 04 27 27.0000000  0 11                                             
G05  23266655.744 7 122267137.175 7      -266.650 7        43.714               
G07  28211443.631 6 148252103.213 6     -2381.520 6        40.741               
G11  25728133.242 7 135202230.676 7     -3216.073 7        47.208               
G13  22401544.313 7 117720902.438 7      -239.070 7        45.321               
G15  23420718.815 7 123076686.901 7      1936.223 7        44.283               
G18  26483252.368 6 139170425.601 6      3373.058 6        36.517               
G20  24084897.890 7 126566951.871 7     -1450.224 7        45.393               
G21  24718391.207 7 129896021.525 7     -1850.250 7        46.455               
G24  27639466.230 6 145246371.833 6      3970.125 6        40.479               
G29  25315660.494 6 133034700.099 6     -1461.524 6        38.823               
G30  25840636.539 7 135793463.397 7     -1257.711 7        43.519               
> 2025 07 30 04 27 28.0000000  0 11                                             
G05  23266713.318 7 122267407.827 7      -268.351 7        43.830               
G07  28211894.180 6 148254477.822 6     -2373.382 6        40.857               
G11  25728744.256 7 135205446.974 7     -3217.266 7        47.441               
G13  22401585.018 7 117721141.458 7      -237.137 7        45.464               
G15  23420345.799 7 123074748.990 7      1936.050 7        44.241               
G18  26482611.227 6 139167056.638 6      3368.433 6        36.347               
G20  24085170.304 7 126568408.691 7     -1455.297 7        45.533               
G21  24718745.514 7 129897873.104 7     -1848.121 7        45.676               
G24  27638708.619 6 145242406.832 6      3966.194 6        40.960               
G29  25315946.756 6 133036161.321 6     -1467.732 6        38.445               
G30  25840881.113 7 135794721.842 7     -1260.029 7        43.503               
> 2025 07 30 04 27 29.0000000  0 11                                             
G05  23266755.114 7 122267678.722 7      -271.978 7        43.704               
G07  28212343.640 6 148256852.758 6     -2376.814 6        40.360               
G11  25729355.233 7 135208663.571 7     -3217.306 7        47.397               
G13  22401637.875 7 117721381.081 7      -237.578 7        45.747               
G15  23419979.127 7 123072811.555 7      1935.564 7        44.970               
G18  26481983.292 5 139163687.896 5      3369.184 5        35.916               
G20  24085451.222 7 126569865.796 7     -1455.660 7        45.591               
G21  24719099.464 7 129899724.895 7     -1852.130 7        46.208               
G24  27637951.384 6 145238441.745 6      3969.973 6        40.349               
G29  25316220.009 6 133037623.077 6     -1453.391 6        39.205               
G30  25841118.252 7 135795980.837 7     -1250.848 7        44.103               
> 2025 07 30 04 27 30.0000000  0 11                                             
G05  23266811.223 7 122267949.881 7      -277.225 7        43.003               
G07  28212795.565 6 148259227.990 6     -2378.038 6        39.815               
G11  25729970.964 7 135211880.410 7     -3216.005 7        47.358               
G13  22401682.208 7 117721621.259 7      -237.096 7        44.623               
G15  23419613.133 7 123070874.484 7      1935.363 7        45.343               
G18  26481334.521 6 139160319.258 6      3369.182 6        36.531               
G20  24085730.676 7 126571323.111 7     -1458.721 7        45.010               
G21  24719451.770 7 129901576.792 7     -1851.384 7        46.449               
G24  27637201.349 6 145234476.545 6      3960.440 6        40.637               
G29  25316497.479 6 133039085.360 6     -1465.839 6        38.818               
G30  25841358.269 7 135797240.317 7     -1261.313 7        43.843               
> 2025 07 30 04 27 31.0000000  0 11                                             
G05  23266864.526 7 122268221.331 7      -266.164 7        42.983               
G07  28213246.025 6 148261603.553 6     -2375.074 6        38.926               
G11  25730583.175 7 135215097.575 7     -3218.737 7        46.912               
G13  22401728.381 7 117721862.063 7      -236.180 7        45.313               
G15  23419241.065 7 123068937.872 7      1936.016 7        45.811               
G18  26480690.218 6 139156950.793 6      3363.556 6        36.182               
G20  24086004.019 7 126572780.712 7     -1454.907 7        44.886               
G21  24719801.788 7 129903428.899 7     -1853.250 7        47.006               
G24  27636446.204 6 145230511.274 6      3968.185 6        40.956               
G29  25316775.772 6 133040548.158 6     -1465.195 6        39.278               
G30  25841598.429 7 135798500.363 7     -1256.917 7        44.366               
> 2025 07 30 04 27 32.0000000  0 11                                             
G05  23266917.347 7 122268493.043 7      -274.409 7        42.781               
G07  28213693.734 6 148263979.426 6     -2382.967 6        39.403               
G11  25731191.811 7 135218315.022 7     -3217.230 7        46.997               
G13  22401772.750 7 117722103.467 7      -242.105 7        45.446               
G15  23418872.856 7 123067001.666 7      1939.904 7        45.654               
G18  26480047.827 6 139153582.503 6      3361.672 6        36.292               
G20  24086279.470 7 126574238.569 7     -1459.304 7        44.924               
G21  24720152.789 7 129905281.164 7     -1849.579 7        46.614               
G24  27635688.254 6 145226545.934 6      3964.104 6        41.069               
G29  25317063.695 6 133042011.490 6     -1465.568 6        39.447               
G30  25841842.984 7 135799760.958 7     -1260.799 7        44.722               
> 2025 07 30 04 27 33.0000000  0 11                                             
G05  23266967.005 7 122268764.957 7      -275.542 7        43.772               
G07  28214147.160 6 148266355.532 6     -2372.724 6        39.348               
G11  25731803.915 7 135221532.706 7     -3219.836 7        47.241               
G13  22401816.726 7 117722345.405 7      -242.147 7        45.907               
G15  23418506.094 7 123065065.852 7      1930.920 7        44.797               
G18  26479408.830 6 139150214.301 6      3373.034 6        36.995               
G20  24086556.046 7 126575696.618 7     -1458.556 7        44.580               
G21  24720506.739 7 129907133.534 7     -1848.536 7        46.467               
G24  27634938.613 6 145222580.450 6      3964.359 6        41.174               
G29  25317339.754 6 133043475.300 6     -1471.632 6        39.390               
G30  25842081.982 7 135801022.038 7     -1263.668 7        44.878               
> 2025 07 30 04 27 34.0000000  0 11                                             
G05  23267025.043 7 122269037.184 7      -271.352 7        44.166               
G07  28214603.767 6 148268731.999 6     -2377.050 6        39.855               
G11  25732417.519 7 135224750.694 7     -3217.257 7        47.105               
G13  22401866.062 7 117722587.981 7      -242.138 7        45.186               
G15  23418134.293 7 123063130.490 7      1937.477 7        44.923               
G18  26478773.140 6 139146846.303 6      3366.543 6        37.288               
G20  24086831.962 7 126577154.948 7     -1460.445 7        44.699               
G21  24720858.669 7 129908986.122 7     -1852.375 7        46.588               
G24  27634180.269 6 145218614.907 6      3961.864 6        41.196               
G29  25317617.724 6 133044939.667 6     -1468.553 6        39.251               
G30  25842321.642 7 135802283.678 7     -1261.295 7        45.036               
> 2025 07 30 04 27 35.0000000  0 11                                             
G05  23267074.809 7 122269309.713 7      -272.223 7        43.889               
G07  28215056.068 6 148271108.797 6     -2376.674 6        40.002               
G11  25733029.640 7 135227969.002 7     -3217.203 7        47.304               
G13  22401913.254 7 117722831.181 7      -243.718 7        45.427               
G15  23417764.387 7 123061195.579 7      1934.044 7        44.869               
G18  26478128.890 6 139143478.475 6      3367.933 6        36.086               
G20  24087110.969 7 126578613.575 7     -1457.306 7        45.427               
G21  24721211.922 7 129910838.894 7     -1850.422 7        46.932               
G24  27633423.731 6 145214649.302 6      3962.545 6        41.556               
G29  25317892.139 6 133046404.576 6     -1464.823 6        39.437               
G30  25842559.157 7 135803545.879 7     -1259.823 7        44.507               
> 2025 07 30 04 27 36.0000000  0 11                                             
G05  23267124.556 7 122269582.466 7      -271.506 7        44.233               
G07  28215505.099 6 148273485.886 6     -2379.427 6        39.391               
G11  25733642.530 7 135231187.552 7     -3219.844 7        46.786               
G13  22401956.229 7 117723074.920 7      -239.525 7        46.008               
G15  23417400.305 7 123059261.037 7      1934.852 7        44.481               
G18  26477489.769 6 139140110.778 6      3370.467 6        36.326               
G20  24087384.186 7 126580072.418 7     -1456.924 7        45.036               
G21  24721563.995 7 129912691.787 7     -1856.849 7        46.517               
G24  27632672.177 6 145210683.568 6      3967.932 6        41.601               
G29  25318176.935 6 133047869.984 6     -1463.571 6        40.099               
G30  25842800.496 7 135804808.581 7     -1260.100 7        44.196               
> 2025 07 30 04 27 37.0000000  0 11                                             
G05  23267182.809 7 122269855.517 7      -272.602 7        44.647               
G07  28215964.118 6 148275863.314 6     -2377.577 6        39.794               
G11  25734255.259 7 135234406.417 7     -3220.662 7        46.796               
G13  22402004.297 7 117723319.309 7      -246.056 7        45.659               
G15  23417026.914 7 123057326.952 7      1936.911 7        44.886               
G18  26476851.076 5 139136743.258 5      3375.232 5        35.748               
G20  24087665.284 7 126581531.547 7     -1457.182 7        45.266               
G21  24721917.230 7 129914544.880 7     -1854.974 7        46.555               
G24  27631917.747 6 145206717.802 6      3967.555 6        41.094               
G29  25318454.298 6 133049335.939 6     -1467.050 6        39.252               
G30  25843037.046 7 135806071.845 7     -1263.859 7        44.007               
> 2025 07 30 04 27 38.0000000  0 11                                             
G05  23267235.183 7 122270128.817 7      -273.533 7        44.955               
G07  28216418.903 6 148278241.035 6     -2379.869 6        40.041               
G11  25734868.166 7 135237625.555 7     -3217.926 7        47.281               
G13  22402048.737 7 117723564.268 7      -244.462 7        46.140               
G15  23416657.347 7 123055393.276 7      1935.550 7        44.776               
G18  26476203.699 6 139133375.892 6      3368.557 6        36.547               
G20  24087941.896 7 126582990.915 7     -1462.268 7        44.847               
G21  24722270.912 7 129916398.130 7     -1850.819 7        47.257               
G24  27631158.832 6 145202751.907 6      3967.099 6        40.838               
G29  25318733.341 6 133050802.414 6     -1471.914 6        39.118               
G30  25843275.830 7 135807335.643 7     -1261.883 7        43.963               
> 2025 07 30 04 27 39.0000000  0 11                                             
G05  23267282.536 7 122270402.345 7      -273.158 7        44.067               
G07  28216873.794 6 148280619.043 6     -2378.500 6        39.901               
G11  25735478.787 7 135240844.940 7     -3216.985 7        46.834               
G13  22402093.285 7 117723809.802 7      -247.513 7        45.891               
G15  23416285.618 7 123053459.978 7      1930.027 7        44.735               
G18  26475560.415 6 139130008.648 6      3362.328 6        36.481               
G20  24088222.047 7 126584450.505 7     -1464.637 7        45.258               
G21  24722622.771 7 129918251.502 7     -1852.090 7        47.081               
G24  27630410.745 6 145198785.903 6      3968.224 6        41.624               
G29  25319008.756 6 133052269.374 6     -1472.486 6        39.170               
G30  25843521.708 7 135808599.942 7     -1264.740 7        44.552               
> 2025 07 30 04 27 40.0000000  0 11                                             
G05  23267334.892 7 122270676.198 7      -272.009 7        44.528               
G07  28217326.881 6 148282997.398 6     -2380.716 6        40.441               
G11  25736092.462 7 135244064.663 7     -3219.421 7        46.981               
G13  22402142.281 7 117724055.967 7      -250.346 7        45.835               
G15  23415918.320 7 123051527.174 7      1934.188 7        43.893               
G18  26474916.361 6 139126641.608 6      3353.349 6        36.796               
G20  24088499.142 7 126585910.390 7     -1460.777 7        45.024               
G21  24722974.826 7 129920105.093 7     -1853.341 7        46.670               
G24  27629652.027 7 145194819.849 7      3967.720 7        42.735               
G29  25319286.977 6 133053736.889 6     -1461.433 6        39.714               
G30  25843758.990 7 135809864.810 7     -1265.202 7        44.489               
> 2025 07 30 04 27 41.0000000  0 11                                             
G05  23267387.785 7 122270950.313 7      -270.759 7        43.731               
G07  28217781.666 6 148285376.031 6     -2376.844 6        39.612               
G11  25736704.476 7 135247284.644 7     -3223.632 7        46.741               
G13  22402186.007 7 117724302.712 7      -247.041 7        46.019               
G15  23415552.845 7 123049594.761 7      1926.720 7        44.009               
G18  26474280.135 6 139123274.684 6      3369.560 6        36.321               
G20  24088775.844 7 126587370.509 7     -1454.046 7        44.651               
G21  24723326.792 7 129921958.832 7     -1849.622 7        46.464               
G24  27628896.024 7 145190853.695 7      3967.621 7        42.116               
G29  25319567.002 6 133055204.939 6     -1473.076 6        39.521               
G30  25844002.027 7 135811130.189 7     -1263.948 7        44.594               
> 2025 07 30 04 27 42.0000000  0 11                                             
G05  23267436.245 7 122271224.733 7      -271.248 7        43.843               
G07  28218233.806 6 148287755.058 6     -2386.343 6        39.966               
G11  25737317.027 7 135250504.967 7     -3222.894 7        46.995               
G13  22402232.431 7 117724550.097 7      -247.702 7        45.429               
G15  23415185.190 7 123047662.810 7      1930.633 7        44.691               
G18  26473641.639 6 139119908.023 6      3367.089 6        36.512               
G20  24089053.349 7 126588830.936 7     -1457.442 7        45.199               
G21  24723679.759 7 129923812.797 7     -1854.294 7        46.764               
G24  27628143.131 6 145186887.499 6      3963.632 6        41.738               
G29  25319848.136 6 133056673.527 6     -1480.016 6        39.205               
G30  25844242.401 7 135812396.170 7     -1265.359 7        44.470               
> 2025 07 30 04 27 43.0000000  0 11                                             
G05  23267489.531 7 122271499.445 7      -275.864 7        43.792               
G07  28218682.265 6 148290134.396 6     -2383.989 6        39.860               
G11  25737930.506 7 135253725.590 7     -3224.629 7        47.006               
G13  22402281.874 7 117724798.088 7      -250.263 7        45.698               
G15  23414819.035 7 123045731.294 7      1928.935 7        44.187               
G18  26472995.656 6 139116541.481 6      3366.590 6        36.640               
G20  24089335.555 7 126590291.631 7     -1459.626 7        45.589               
G21  24724033.333 7 129925666.915 7     -1854.147 7        46.520               
G24  27627387.396 7 145182921.227 7      3964.135 7        42.221               
G29  25320123.069 6 133058142.691 6     -1471.128 6        38.929               
G30  25844485.688 7 135813662.683 7     -1266.338 7        44.736               
> 2025 07 30 04 27 44.0000000  0 11                                             
G05  23267548.463 7 122271774.407 7      -273.050 7        43.346               
G07  28219135.584 6 148292514.032 6     -2383.889 6        39.534               
G11  25738541.591 7 135256946.492 7     -3219.432 7        46.411               
G13  22402332.640 7 117725046.665 7      -245.921 7        45.780               
G15  23414453.096 7 123043800.206 7      1930.897 7        44.489               
G18  26472368.542 6 139113175.102 6      3360.234 6        36.225               
G20  24089607.414 7 126591752.575 7     -1460.020 7        45.318               
G21  24724385.550 7 129927521.207 7     -1852.935 7        46.274               
G24  27626634.949 7 145178954.861 7      3963.388 7        42.123               
G29  25320416.978 6 133059612.348 6     -1467.563 6        39.904               
G30  25844725.722 7 135814929.739 7     -1269.999 7        44.868               
> 2025 07 30 04 27 45.0000000  0 11                                             
G05  23267597.013 7 122272049.614 7      -277.728 7        44.003               
G07  28219584.025 6 148294893.953 6     -2377.212 6        38.882               
G11  25739158.823 7 135260167.647 7     -3224.055 7        46.074               
G13  22402377.259 7 117725295.821 7      -251.831 7        45.228               
G15  23414090.283 7 123041869.523 7      1933.270 7        45.144               
G18  26471723.149 6 139109808.871 6      3364.331 6        36.370               
G20  24089889.673 7 126593213.732 7     -1461.342 7        45.273               
G21  24724738.391 7 129929375.653 7     -1854.589 7        45.749               
G24  27625882.270 7 145174988.392 7      3970.885 7        42.270               
G29  25320695.985 6 133061082.527 6     -1471.210 6        39.901               
G30  25844969.956 7 135816197.321 7     -1269.422 7        45.528               
> 2025 07 30 04 27 46.0000000  0 11                                             
G05  23267648.386 7 122272325.154 7      -272.064 7        43.783               
G07  28220035.521 6 148297274.274 6     -2384.147 6        38.265               
G11  25739768.371 7 135263389.159 7     -3222.713 7        46.735               
G13  22402424.523 7 117725545.648 7      -252.097 7        45.354               
G15  23413720.573 7 123039939.331 7      1931.670 7        44.932               
G18  26471078.810 5 139106442.830 5      3356.766 5        35.810               
G20  24090168.895 7 126594675.236 7     -1462.634 7        45.483               
G21  24725092.055 7 129931230.325 7     -1855.585 7        46.498               
G24  27625126.518 7 145171021.894 7      3963.729 7        42.211               
G29  25320975.725 6 133062553.309 6     -1475.397 6        39.478               
G30  25845214.565 7 135817465.482 7     -1267.103 7        44.700               
> 2025 07 30 04 27 47.0000000  0 11                                             
G05  23267701.654 7 122272600.974 7      -270.113 7        43.743               
G07  28220496.632 6 148299654.906 6     -2383.570 6        38.457               
G11  25740383.673 7 135266610.991 7     -3221.814 7        47.342               
G13  22402471.893 7 117725796.101 7      -248.722 7        45.726               
G15  23413354.615 7 123038009.593 7      1927.103 7        44.901               
G18  26470442.369 6 139103077.044 6      3369.246 6        37.072               
G20  24090443.238 7 126596137.018 7     -1465.542 7        45.801               
G21  24725447.345 7 129933085.209 7     -1855.413 7        47.166               
G24  27624371.909 7 145167055.375 7      3963.650 7        42.378               
G29  25321258.019 6 133064024.657 6     -1473.448 6        39.513               
G30  25845452.205 7 135818734.218 7     -1269.204 7        44.213               
> 2025 07 30 04 27 48.0000000  0 11                                             
G05  23267754.332 7 122272877.085 7      -278.421 7        44.140               
G07  28220942.499 6 148302035.862 6     -2374.046 6        38.817               
G11  25740998.653 7 135269833.096 7     -3221.339 7        46.397               
G13  22402518.675 7 117726047.141 7      -250.222 7        45.367               
G15  23412990.320 7 123036080.273 7      1930.433 7        45.201               
G18  26469791.543 6 139099711.373 6      3369.524 6        36.143               
G20  24090722.888 7 126597599.040 7     -1458.511 7        45.586               
G21  24725799.633 7 129934940.236 7     -1854.835 7        47.250               
G24  27623614.387 7 145163088.741 7      3964.903 7        42.207               
G29  25321538.599 6 133065496.483 6     -1467.976 6        40.694               
G30  25845696.493 7 135820003.484 7     -1267.192 7        44.839               
> 2025 07 30 04 27 49.0000000  0 11                                             
G05  23267800.380 7 122273153.452 7      -272.865 7        43.902               
G07  28221400.500 6 148304417.137 6     -2383.252 6        38.561               
G11  25741608.540 7 135273055.487 7     -3222.041 7        46.751               
G13  22402568.708 7 117726298.765 7      -253.118 7        44.818               
G15  23412622.003 7 123034151.387 7      1927.428 7        45.312               
G18  26469158.444 6 139096345.880 6      3363.162 6        36.282               
G20  24091003.289 7 126599061.315 7     -1459.660 7        44.645               
G21  24726153.046 7 129936795.436 7     -1857.444 7        47.282               
G24  27622860.744 7 145159122.032 7      3967.150 7        42.143               
G29  25321810.369 6 133066968.822 6     -1469.460 6        39.660               
G30  25845930.631 7 135821273.281 7     -1267.908 7        44.959               
> 2025 07 30 04 27 50.0000000  0 11                                             
G05  23267855.792 7 122273430.120 7      -275.594 7        43.748               
G07  28221856.411 6 148306798.768 6     -2390.936 6        38.459               
G11  25742223.056 7 135276278.177 7     -3221.811 7        46.540               
G13  22402619.635 7 117726551.024 7      -254.420 7        45.331               
G15  23412256.403 7 123032222.954 7      1925.299 7        45.187               
G18  26468516.839 6 139092980.540 6      3364.146 6        36.463               
G20  24091280.026 7 126600523.871 7     -1459.053 7        44.417               
G21  24726502.814 7 129938650.836 7     -1856.652 7        46.789               
G24  27622104.669 7 145155155.259 7      3970.440 7        42.055               
G29  25322090.966 6 133068441.758 6     -1479.221 6        39.032               
G30  25846175.204 7 135822543.657 7     -1268.742 7        44.215               
> 2025 07 30 04 27 51.0000000  0 11                                             
G05  23267909.149 7 122273707.058 7      -279.026 7        43.624               
G07  28222301.063 6 148309180.648 6     -2381.413 6        38.357               
G11  25742838.322 7 135279501.166 7     -3224.178 7        46.881               
G13  22402666.148 7 117726803.869 7      -251.038 7        45.315               
G15  23411887.515 7 123030294.922 7      1926.843 7        44.146               
G18  26467875.216 6 139089615.397 6      3371.703 6        36.252               
G20  24091555.191 7 126601986.705 7     -1465.957 7        44.074               
G21  24726859.176 7 129940506.397 7     -1852.481 7        46.451               
G24  27621352.544 7 145151188.397 7      3966.387 7        42.471               
G29  25322369.508 6 133069915.202 6     -1476.221 6        39.158               
G30  25846413.219 7 135823814.566 7     -1270.583 7        44.092               
> 2025 07 30 04 27 52.0000000  0 11                                             
G05  23267958.003 7 122273984.241 7      -277.701 7        43.799               
G07  28222758.921 6 148311562.870 6     -2385.517 6        37.784               
G11  25743449.193 7 135282724.433 7     -3225.991 7        46.582               
G13  22402711.732 7 117727057.317 7      -255.216 7        44.809               
G15  23411519.395 7 123028367.322 7      1927.296 7        44.319               
G18  26467234.343 6 139086250.407 6      3356.329 6        36.679               
G20  24091834.431 7 126603449.770 7     -1460.868 7        44.506               
G21  24727212.179 7 129942362.120 7     -1858.503 7        46.756               
G24  27620597.489 7 145147221.449 7      3969.090 7        42.201               
G29  25322641.725 6 133071389.192 6     -1472.336 6        38.497               
G30  25846656.828 7 135825085.977 7     -1271.447 7        44.256               
> 2025 07 30 04 27 53.0000000  0 11                                             
G05  23268014.648 7 122274261.741 7      -278.251 7        44.423               
G07  28223216.619 6 148313945.461 6     -2377.882 6        37.595               
G11  25744063.226 7 135285948.014 7     -3224.526 7        46.932               
G13  22402762.408 7 117727311.400 7      -255.514 7        45.066               
G15  23411151.847 7 123026440.174 7      1924.709 7        44.663               
G18  26466589.236 6 139082885.564 6      3378.225 6        36.004               
G20  24092111.311 7 126604913.136 7     -1463.879 7        44.788               
G21  24727565.789 7 129944218.036 7     -1854.964 7        47.128               
G24  27619842.272 7 145143254.450 7      3964.932 7        42.039               
G29  25322914.514 6 133072863.707 6     -1470.228 6        37.684               
G30  25846900.507 7 135826357.974 7     -1270.994 7        43.967               
> 2025 07 30 04 27 54.0000000  0 11                                             
G05  23268072.400 7 122274539.527 7      -278.809 7        43.870               
G07  28223660.557 6 148316328.348 6     -2378.879 6        37.355               
G11  25744676.938 7 135289171.910 7     -3222.355 7        46.464               
G13  22402811.155 7 117727566.095 7      -256.237 7        44.579               
G15  23410783.281 7 123024513.489 7      1926.773 7        44.655               
G18  26465949.596 6 139079520.958 6      3362.936 6        36.568               
G20  24092394.732 7 126606376.784 7     -1463.298 7        44.897               
G21  24727919.363 7 129946074.156 7     -1855.396 7        47.300               
G24  27619090.040 7 145139287.385 7      3967.414 7        42.352               
G29  25323195.325 6 133074338.825 6     -1486.383 6        36.715               
G30  25847143.758 7 135827630.555 7     -1270.822 7        44.362               
> 2025 07 30 04 27 55.0000000  0 11                                             
G05  23268122.309 7 122274817.584 7      -274.336 7        44.050               
G07  28224116.806 6 148318711.586 6     -2383.014 6        36.109               
G11  25745288.291 7 135292396.090 7     -3225.358 7        46.544               
G13  22402858.043 7 117727821.377 7      -254.339 7        44.737               
G15  23410417.216 7 123022587.212 7      1928.797 7        44.117               
G18  26465309.742 5 139076156.486 5      3368.764 5        35.965               
G20  24092670.433 7 126607840.659 7     -1467.943 7        44.783               
G21  24728272.866 7 129947930.437 7     -1855.640 7        47.436               
G24  27618332.965 7 145135320.239 7      3969.292 7        42.224               
G29  25323473.403 6 133075814.417 6     -1475.849 6        36.885               
G30  25847385.580 7 135828903.653 7     -1270.398 7        45.021               
> 2025 07 30 04 27 56.0000000  0 11                                             
G05  23268174.486 7 122275095.895 7      -273.262 7        43.710               
G07  28224580.472 5 148321095.103 5     -2381.343 5        35.506               
G11  25745902.074 7 135295620.541 7     -3222.569 7        46.828               
G13  22402906.272 7 117728077.258 7      -256.490 7        44.844               
G15  23410048.096 7 123020661.349 7      1924.596 7        44.505               
G18  26464670.639 6 139072792.170 6      3375.258 6        36.574               
G20  24092950.119 7 126609304.799 7     -1466.355 7        44.990               
G21  24728623.975 7 129949786.868 7     -1858.013 7        47.761               
G24  27617577.195 7 145131352.991 7      3959.136 7        42.307               
G29  25323759.111 6 133077290.513 6     -1463.257 6        37.676               
G30  25847628.617 7 135830177.275 7     -1276.738 7        45.018               
> 2025 07 30 04 27 57.0000000  0 11                                             
G05  23268230.130 7 122275374.525 7      -282.438 7        43.967               
G07  28225025.017 5 148323478.955 5     -2382.765 5        35.643               
G11  25746517.054 7 135298845.317 7     -3225.519 7        46.752               
G13  22402955.429 7 117728333.756 7      -254.538 7        45.012               
G15  23409681.566 7 123018735.943 7      1928.465 7        44.362               
G18  26464032.858 6 139069428.067 6      3365.082 6        36.576               
G20  24093229.983 7 126610769.233 7     -1461.999 7        44.939               
G21  24728975.637 7 129951643.511 7     -1856.294 7        47.164               
G24  27616814.599 7 145127385.707 7      3964.075 7        42.067               
G29  25324049.357 6 133078767.223 6     -1479.347 6        36.911               
G30  25847871.707 7 135831451.495 7     -1274.872 7        45.070               
> 2025 07 30 04 27 58.0000000  0 11                                             
G05  23268287.722 7 122275653.364 7      -290.078 7        44.099               
G07  28225481.374 5 148325863.116 5     -2388.532 5        35.103               
G11  25747132.249 7 135302070.331 7     -3226.047 7        46.157               
G13  22403004.569 7 117728590.828 7      -255.120 7        45.034               
G15  23409315.644 7 123016810.965 7      1926.623 7        43.961               
G18  26463396.041 6 139066064.036 6      3363.882 6        36.162               
G20  24093508.168 7 126612233.872 7     -1467.527 7        44.972               
G21  24729329.033 7 129953500.280 7     -1857.799 7        46.854               
G24  27616064.332 6 145123418.302 6      3968.288 6        41.513               
G29  25324328.472 6 133080244.412 6     -1488.920 6        36.982               
G30  25848116.101 7 135832726.187 7     -1276.164 7        44.885               
> 2025 07 30 04 27 59.0000000  0 11                                             
G05  23268335.325 7 122275932.514 7      -276.879 7        43.921               
G07  28225938.214 6 148328247.603 6     -2386.007 6        36.070               
G11  25747746.443 7 135305295.677 7     -3225.690 7        46.699               
G13  22403052.726 7 117728848.532 7      -261.422 7        44.887               
G15  23408951.349 7 123014886.439 7      1925.984 7        44.501               
G18  26462759.243 6 139062700.254 6      3362.938 6        37.048               
G20  24093786.764 7 126613698.795 7     -1464.190 7        44.943               
G21  24729680.802 7 129955357.255 7     -1858.492 7        46.980               
G24  27615308.490 6 145119450.824 6      3962.710 6        41.761               
G29  25324611.177 6 133081722.116 6     -1476.195 6        37.681               
G30  25848354.760 7 135834001.451 7     -1276.512 7        45.341               
> 2025 07 30 04 28 00.0000000  0 11                                             
G05  23268389.361 7 122276211.993 7      -279.411 7        43.938               
G07  28226391.855 5 148330632.488 5     -2388.344 5        35.491               
G11  25748359.940 7 135308521.332 7     -3222.961 7        46.754               
G13  22403104.189 7 117729106.862 7      -259.622 7        45.054               
G15  23408586.785 7 123012962.377 7      1925.269 7        45.047               
G18  26462116.780 6 139059336.655 6      3366.744 6        36.729               
G20  24094066.182 7 126615164.029 7     -1467.181 7        44.860               
G21  24730033.984 7 129957214.438 7     -1856.455 7        46.881               
G24  27614555.436 7 145115483.335 7      3967.880 7        42.224               
G29  25324897.850 6 133083200.403 6     -1479.538 6        38.453               
G30  25848598.386 7 135835277.292 7     -1276.382 7        45.065               
> 2025 07 30 04 28 01.0000000  0 11                                             
G05  23268440.663 7 122276491.738 7      -281.015 7        43.488               
G07  28226854.912 5 148333017.666 5     -2379.187 5        34.131               
G11  25748971.614 7 135311747.312 7     -3225.708 7        47.265               
G13  22403150.416 7 117729365.819 7      -257.181 7        44.565               
G15  23408225.563 7 123011038.768 7      1918.304 7        44.805               
G18  26461479.732 6 139055973.231 6      3364.044 6        36.237               
G20  24094343.081 7 126616629.522 7     -1460.860 7        44.729               
G21  24730388.362 7 129959071.807 7     -1857.915 7        46.582               
G24  27613797.664 6 145111515.779 6      3963.244 6        41.563               
G29  25325171.282 6 133084679.268 6     -1476.658 6        37.693               
G30  25848835.455 7 135836553.691 7     -1277.553 7        44.504               
> 2025 07 30 04 28 02.0000000  0 10                                             
G05  23268488.927 7 122276771.787 7      -279.287 7        43.608               
G11  25749586.487 7 135314973.581 7     -3226.085 7        47.147               
G13  22403202.951 7 117729625.373 7      -263.328 7        44.785               
G15  23407857.604 7 123009115.572 7      1922.440 7        44.814               
G18  26460836.375 6 139052610.006 6      3365.415 6        36.912               
G20  24094623.785 7 126618095.292 7     -1464.551 7        45.274               
G21  24730745.743 7 129960929.369 7     -1858.696 7        47.075               
G24  27613043.216 6 145107548.137 6      3969.995 6        41.282               
G29  25325455.667 6 133086158.626 6     -1487.255 6        37.135               
G30  25849079.474 7 135837830.657 7     -1276.313 7        44.309               
> 2025 07 30 04 28 03.0000000  0 10                                             
G05  23268541.677 7 122277052.096 7      -279.558 7        44.135               
G11  25750199.681 7 135318200.134 7     -3229.872 7        46.770               
G13  22403246.819 7 117729885.527 7      -257.830 7        44.347               
G15  23407490.377 7 123007192.812 7      1924.163 7        45.375               
G18  26460191.268 6 139049246.941 6      3355.641 6        36.594               
G20  24094900.523 7 126619561.314 7     -1464.348 7        45.345               
G21  24731096.458 7 129962787.086 7     -1858.076 7        47.452               
G24  27612286.177 7 145103580.395 7      3969.373 7        42.121               
G29  25325728.831 6 133087638.552 6     -1479.835 6        36.285               
G30  25849325.209 7 135839108.132 7     -1278.472 7        44.706               
> 2025 07 30 04 28 04.0000000  0 10                                             
G05  23268600.216 7 122277332.674 7      -279.319 7        44.210               
G11  25750815.090 7 135321426.956 7     -3226.610 7        46.399               
G13  22403299.247 7 117730146.265 7      -261.830 7        44.627               
G15  23407125.617 7 123005270.462 7      1922.830 7        44.955               
G18  26459550.878 5 139045883.991 5      3360.281 5        35.751               
G20  24095178.457 7 126621027.582 7     -1469.302 7        45.087               
G21  24731449.889 7 129964644.965 7     -1859.507 7        47.592               
G24  27611533.588 6 145099612.582 6      3970.913 6        41.787               
G29  25326012.949 6 133089118.986 6     -1481.746 6        36.253               
G30  25849573.552 7 135840386.138 7     -1278.614 7        44.436               
> 2025 07 30 04 28 05.0000000  0 10                                             
G05  23268656.217 7 122277613.564 7      -277.762 7        44.140               
G11  25751430.213 7 135324654.107 7     -3227.375 7        47.278               
G13  22403348.262 7 117730407.654 7      -261.723 7        44.735               
G15  23406761.411 7 123003348.587 7      1919.288 7        45.203               
G18  26458918.493 6 139042521.288 6      3359.600 6        36.229               
G20  24095456.660 7 126622494.150 7     -1472.135 7        44.745               
G21  24731803.750 7 129966503.056 7     -1856.455 7        47.079               
G24  27610779.837 6 145095644.726 6      3971.691 6        41.489               
G29  25326291.455 6 133090599.951 6     -1471.015 6        36.380               
G30  25849811.836 7 135841664.734 7     -1277.581 7        44.337               
> 2025 07 30 04 28 06.0000000  0 10                                             
G05  23268708.591 7 122277894.749 7      -281.979 7        44.243               
G11  25752042.513 7 135327881.555 7     -3226.969 7        46.930               
G13  22403401.512 7 117730669.660 7      -265.527 7        45.044               
G15  23406393.898 7 123001427.144 7      1922.244 7        45.443               
G18  26458273.082 6 139039158.743 6      3357.608 6        36.288               
G20  24095737.311 7 126623960.987 7     -1469.528 7        44.593               
G21  24732155.305 7 129968361.339 7     -1857.561 7        46.672               
G24  27610027.444 6 145091676.810 6      3967.983 6        41.559               
G29  25326572.410 6 133092081.529 6     -1479.162 6        36.222               
G30  25850060.215 7 135842943.891 7     -1277.788 7        44.666               
> 2025 07 30 04 28 07.0000000  0 10                                             
G05  23268767.398 7 122278176.165 7      -280.192 7        44.236               
G11  25752655.832 7 135331109.279 7     -3228.925 7        47.113               
G13  22403453.224 7 117730932.234 7      -260.524 7        45.537               
G15  23406029.192 7 122999506.133 7      1919.522 7        44.483               
G18  26457632.799 6 139035796.323 6      3361.373 6        36.604               
G20  24096018.766 7 126625428.076 7     -1467.408 7        45.106               
G21  24732506.878 7 129970219.764 7     -1860.011 7        47.000               
G24  27609271.870 6 145087708.796 6      3968.502 6        41.651               
G29  25326855.616 6 133093563.595 6     -1492.072 6        36.097               
G30  25850305.396 7 135844223.572 7     -1278.200 7        45.213               
> 2025 07 30 04 28 08.0000000  0 10                                             
G05  23268821.863 7 122278457.944 7      -279.997 7        44.423               
G11  25753272.098 7 135334337.371 7     -3227.628 7        46.698               
G13  22403503.258 7 117731195.487 7      -261.082 7        45.109               
G15  23405658.892 7 122997585.599 7      1921.655 7        44.742               
G18  26456994.160 5 139032434.171 5      3364.335 5        35.791               
G20  24096301.526 7 126626895.486 7     -1468.131 7        45.997               
G21  24732863.794 7 129972078.446 7     -1860.077 7        47.379               
G24  27608514.813 6 145083740.782 6      3966.451 6        40.867               
G29  25327145.416 6 133095046.204 6     -1473.859 6        36.288               
G30  25850547.218 7 135845503.846 7     -1279.609 7        44.610               
> 2025 07 30 04 28 09.0000000  0 10                                             
G05  23268872.432 7 122278739.860 7      -279.516 7        44.539               
G11  25753885.042 7 135337565.602 7     -3230.064 7        46.702               
G13  22403549.896 7 117731459.214 7      -262.320 7        45.383               
G15  23405293.077 7 122995665.365 7      1918.014 7        44.878               
G18  26456353.466 6 139029072.049 6      3358.645 6        36.126               
G20  24096582.998 7 126628363.019 7     -1471.794 7        45.735               
G21  24733218.726 7 129973937.161 7     -1857.125 7        47.405               
G24  27607756.452 6 145079772.557 6      3966.279 6        41.048               
G29  25327424.458 6 133096529.251 6     -1483.895 6        36.752               
G30  25850787.395 7 135846784.539 7     -1281.968 7        44.373               
> 2025 07 30 04 28 10.0000000  0 10                                             
G05  23268923.573 7 122279022.068 7      -281.783 7        44.593               
G11  25754500.236 7 135340794.141 7     -3227.949 7        46.536               
G13  22403595.158 7 117731723.535 7      -265.854 7        44.821               
G15  23404929.175 7 122993745.574 7      1919.928 7        44.765               
G18  26455709.931 6 139025710.072 6      3361.060 6        36.263               
G20  24096860.665 7 126629830.817 7     -1469.115 7        45.598               
G21  24733573.909 7 129975796.046 7     -1857.893 7        47.118               
G24  27607002.826 6 145075804.241 6      3971.713 6        41.234               
G29  25327712.257 6 133098012.772 6     -1483.275 6        36.820               
G30  25851035.149 7 135848065.781 7     -1282.456 7        44.285               
> 2025 07 30 04 28 11.0000000  0 10                                             
G05  23268978.074 7 122279304.533 7      -282.065 7        44.198               
G11  25755113.251 7 135344022.972 7     -3232.572 7        46.318               
G13  22403646.639 7 117731988.458 7      -266.430 7        45.098               
G15  23404562.788 7 122991826.202 7      1917.693 7        44.709               
G18  26455082.336 6 139022348.286 6      3358.673 6        36.442               
G20  24097140.530 7 126631298.881 7     -1469.904 7        45.901               
G21  24733928.609 7 129977655.105 7     -1860.091 7        47.586               
G24  27606251.058 6 145071835.856 6      3963.308 6        40.815               
G29  25327985.582 6 133099496.890 6     -1477.803 6        36.472               
G30  25851275.738 7 135849347.547 7     -1282.318 7        43.972               
> 2025 07 30 04 28 12.0000000  0 10                                             
G05  23269031.288 7 122279587.298 7      -283.187 7        44.314               
G11  25755726.355 7 135347252.105 7     -3228.898 7        46.049               
G13  22403698.262 7 117732254.006 7      -268.304 7        44.867               
G15  23404193.453 7 122989907.277 7      1914.992 7        44.867               
G18  26454439.033 6 139018986.684 6      3360.038 6        36.174               
G20  24097416.910 7 126632767.225 7     -1466.316 7        46.236               
G21  24734281.111 7 129979514.358 7     -1863.513 7        47.564               
G24  27605494.966 6 145067867.413 6      3968.964 6        40.956               
G29  25328268.680 6 133100981.547 6     -1487.130 6        36.947               
G30  25851518.506 7 135850629.887 7     -1284.748 7        44.156               
> 2025 07 30 04 28 13.0000000  0 10                                             
G05  23269086.682 7 122279870.341 7      -279.682 7        44.442               
G11  25756339.709 7 135350481.524 7     -3229.828 7        45.610               
G13  22403754.353 7 117732520.140 7      -265.574 7        45.524               
G15  23403831.838 7 122987988.782 7      1919.250 7        44.499               
G18  26453804.057 6 139015625.247 6      3363.462 6        36.563               
G20  24097698.043 7 126634235.815 7     -1476.544 7        45.672               
G21  24734635.293 7 129981373.779 7     -1859.921 7        47.742               
G24  27604736.497 6 145063898.888 6      3970.617 6        40.892               
G29  25328554.138 6 133102466.703 6     -1489.522 6        38.573               
G30  25851762.829 7 135851912.758 7     -1283.588 7        44.383               
> 2025 07 30 04 28 14.0000000  0 10                                             
G05  23269137.912 7 122280153.650 7      -283.123 7        44.101               
G11  25756955.083 7 135353711.242 7     -3231.052 7        45.331               
G13  22403809.158 7 117732786.889 7      -270.803 7        45.500               
G15  23403470.723 7 122986070.719 7      1917.375 7        44.583               
G18  26453156.180 6 139012263.980 6      3357.203 6        36.281               
G20  24097977.229 7 126635704.665 7     -1474.169 7        45.419               
G21  24734983.524 7 129983233.373 7     -1860.748 7        47.148               
G24  27603983.568 6 145059930.303 6      3971.365 6        41.174               
G29  25328841.240 6 133103952.390 6     -1490.064 6        38.771               
G30  25852010.155 7 135853196.170 7     -1281.322 7        44.366               
> 2025 07 30 04 28 15.0000000  0 10                                             
G05  23269197.273 7 122280437.285 7      -283.835 7        43.933               
G11  25757571.886 7 135356941.293 7     -3228.328 7        45.893               
G13  22403856.457 7 117733054.290 7      -269.890 7        45.842               
G15  23403104.729 7 122984153.150 7      1914.402 7        44.988               
G18  26452518.631 6 139008902.939 6      3374.284 6        37.105               
G20  24098253.913 7 126637173.833 7     -1467.106 7        44.976               
G21  24735338.528 7 129985093.210 7     -1859.943 7        46.805               
G24  27603223.152 6 145055961.643 6      3971.467 6        41.078               
G29  25329126.143 6 133105438.657 6     -1487.985 6        37.519               
G30  25852251.011 7 135854480.167 7     -1281.089 7        44.384               
> 2025 07 30 04 28 16.0000000  0 10                                             
G05  23269243.125 7 122280721.162 7      -287.397 7        44.084               
G11  25758186.991 7 135360171.608 7     -3227.160 7        45.918               
G13  22403905.436 7 117733322.267 7      -265.886 7        45.268               
G15  23402741.327 7 122982235.975 7      1919.431 7        44.943               
G18  26451876.954 6 139005542.038 6      3354.769 6        36.560               
G20  24098537.923 7 126638643.230 7     -1480.602 7        44.692               
G21  24735694.676 7 129986953.182 7     -1857.563 7        45.721               
G24  27602474.243 6 145051992.937 6      3970.856 6        40.631               
G29  25329408.724 6 133106925.411 6     -1480.207 6        38.213               
G30  25852494.673 7 135855764.692 7     -1284.089 7        44.053               
> 2025 07 30 04 28 17.0000000  0 10                                             
G05  23269298.340 7 122281005.296 7      -286.806 7        43.958               
G11  25758800.435 7 135363402.192 7     -3232.433 7        47.095               
G13  22403956.470 7 117733590.826 7      -265.666 7        45.364               
G15  23402373.547 7 122980319.216 7      1916.980 7        44.585               
G18  26451244.820 6 139002181.291 6      3360.423 6        36.957               
G20  24098818.377 7 126640112.870 7     -1471.407 7        45.189               
G21  24736046.999 7 129988813.314 7     -1860.210 7        46.999               
G24  27601718.187 6 145048024.120 6      3964.226 6        41.148               
G29  25329701.383 6 133108412.712 6     -1481.821 6        37.240               
G30  25852743.303 7 135857049.760 7     -1287.317 7        43.960               
> 2025 07 30 04 28 18.0000000  0 10                                             
G05  23269349.231 7 122281289.703 7      -285.363 7        43.894               
G11  25759417.309 7 135366633.036 7     -3233.095 7        47.198               
G13  22404003.787 7 117733859.963 7      -269.238 7        44.992               
G15  23402010.984 7 122978402.855 7      1913.180 7        45.225               
G18  26450600.552 6 138998820.683 6      3366.117 6        36.715               
G20  24099094.793 7 126641582.730 7     -1470.595 7        45.404               
G21  24736403.397 7 129990673.575 7     -1860.221 7        46.703               
G24  27600966.616 6 145044055.188 6      3974.226 6        41.015               
G29  25329977.817 6 133109900.500 6     -1486.348 6        37.340               
G30  25852991.914 7 135858335.308 7     -1283.301 7        44.614               
> 2025 07 30 04 28 19.0000000  0 10                                             
G05  23269403.446 7 122281574.359 7      -284.479 7        43.558               
G11  25760033.558 7 135369864.182 7     -3232.288 7        46.964               
G13  22404054.231 7 117734129.704 7      -270.968 7        44.393               
G15  23401647.564 7 122976486.947 7      1914.190 7        45.191               
G18  26449955.909 6 138995460.235 6      3356.155 6        36.905               
G20  24099378.303 7 126643052.873 7     -1467.155 7        44.815               
G21  24736758.061 7 129992534.029 7     -1862.148 7        47.056               
G24  27600204.645 6 145040086.202 6      3973.683 6        41.295               
G29  25330261.899 6 133111388.839 6     -1494.990 6        36.750               
G30  25853233.932 7 135859621.422 7     -1287.235 7        44.608               
> 2025 07 30 04 28 20.0000000  0 10                                             
G05  23269455.588 7 122281859.329 7      -285.738 7        43.687               
G11  25760647.466 7 135373095.630 7     -3229.776 7        46.894               
G13  22404110.590 7 117734400.080 7      -271.803 7        44.612               
G15  23401280.052 7 122974571.465 7      1919.972 7        45.285               
G18  26449321.309 6 138992099.997 6      3360.662 6        36.284               
G20  24099654.272 7 126644523.306 7     -1473.053 7        45.277               
G21  24737116.389 7 129994394.680 7     -1862.007 7        47.572               
G24  27599454.003 6 145036117.138 6      3968.860 6        40.605               
G29  25330535.295 6 133112877.694 6     -1490.837 6        36.165               
G30  25853474.235 7 135860908.098 7     -1287.484 7        44.481               
> 2025 07 30 04 28 21.0000000  0 10                                             
G05  23269510.178 7 122282144.575 7      -284.587 7        44.040               
G11  25761262.840 7 135376327.378 7     -3229.669 7        47.155               
G13  22404163.000 7 117734671.054 7      -275.502 7        44.773               
G15  23400917.811 7 122972656.436 7      1916.244 7        45.435               
G18  26448683.706 5 138988739.924 5      3356.920 5        35.949               
G20  24099932.582 7 126645994.001 7     -1470.238 7        45.336               
G21  24737469.606 7 129996255.499 7     -1859.702 7        47.410               
G24  27598695.892 6 145032148.048 6      3974.542 6        40.843               
G29  25330814.391 5 133114367.127 5     -1481.545 5        35.664               
G30  25853722.078 7 135862195.333 7     -1285.710 7        44.438               
> 2025 07 30 04 28 22.0000000  0 10                                             
G05  23269571.772 7 122282430.116 7      -284.294 7        43.939               
G11  25761879.089 7 135379559.418 7     -3231.638 7        47.510               
G13  22404215.499 7 117734942.625 7      -270.946 7        45.029               
G15  23400554.820 7 122970741.836 7      1913.337 7        45.105               
G18  26448040.547 6 138985380.036 6      3363.575 6        37.179               
G20  24100214.341 7 126647464.970 7     -1471.422 7        44.984               
G21  24737820.142 7 129998116.508 7     -1864.068 7        47.381               
G24  27597941.069 6 145028178.854 6      3968.700 6        40.794               
G29  25331103.154 5 133115857.099 5     -1485.329 5        35.838               
G30  25853964.865 7 135863483.106 7     -1285.264 7        43.691               
> 2025 07 30 04 28 23.0000000  0 10                                             
G05  23269625.308 7 122282715.957 7      -284.990 7        44.082               
G11  25762492.264 7 135382791.778 7     -3231.642 7        47.818               
G13  22404268.928 7 117735214.838 7      -272.042 7        45.303               
G15  23400190.345 7 122968827.691 7      1914.335 7        45.129               
G18  26447402.480 6 138982020.345 6      3355.352 6        36.934               
G20  24100492.669 7 126648936.232 7     -1472.977 7        45.361               
G21  24738172.216 7 129999977.728 7     -1859.588 7        46.661               
G24  27597186.192 6 145024209.636 6      3964.723 6        41.170               
G29  25331389.916 6 133117347.586 6     -1494.646 6        36.076               
G30  25854204.810 7 135864771.444 7     -1292.393 7        43.316               
> 2025 07 30 04 28 24.0000000  0 10                                             
G05  23269680.559 7 122283002.124 7      -283.928 7        44.510               
G11  25763105.261 7 135386024.478 7     -3233.901 7        46.924               
G13  22404316.048 7 117735487.696 7      -272.897 7        45.454               
G15  23399824.602 7 122966914.036 7      1917.453 7        44.851               
G18  26446768.451 6 138978660.860 6      3365.173 6        36.562               
G20  24100772.748 7 126650407.797 7     -1472.993 7        45.527               
G21  24738526.719 7 130001839.157 7     -1863.241 7        46.371               
G24  27596434.245 6 145020240.352 6      3969.805 6        41.257               
G29  25331661.811 6 133118838.690 6     -1487.680 6        36.097               
G30  25854449.848 7 135866060.358 7     -1287.993 7        43.707               
> 2025 07 30 04 28 25.0000000  0 10                                             
G05  23269737.543 7 122283288.479 7      -283.716 7        44.353               
G11  25763724.655 7 135389257.391 7     -3235.608 7        47.394               
G13  22404366.993 7 117735761.054 7      -270.034 7        45.012               
G15  23399458.323 7 122965000.715 7      1908.149 7        45.170               
G18  26446128.972 6 138975301.468 6      3352.789 6        36.951               
G20  24101051.970 7 126651879.537 7     -1470.545 7        45.496               
G21  24738878.489 7 130003700.680 7     -1859.475 7        46.281               
G24  27595672.418 6 145016270.932 6      3973.133 6        40.643               
G29  25331956.561 6 133120330.188 6     -1488.781 6        36.449               
G30  25854699.621 7 135867349.732 7     -1287.343 7        43.450               
> 2025 07 30 04 28 26.0000000  0 10                                             
G05  23269793.920 7 122283575.190 7      -281.619 7        44.502               
G11  25764337.920 7 135392490.665 7     -3232.331 7        47.004               
G13  22404420.564 7 117736035.109 7      -276.330 7        44.902               
G15  23399095.117 7 122963087.929 7      1907.419 7        44.810               
G18  26445479.129 6 138971942.323 6      3352.686 6        36.692               
G20  24101332.495 7 126653351.650 7     -1477.915 7        45.713               
G21  24739232.438 7 130005562.461 7     -1861.649 7        46.533               
G24  27594918.738 6 145012301.536 6      3967.339 6        40.840               
G29  25332238.606 5 133121822.358 5     -1501.494 5        35.912               
G30  25854946.571 7 135868639.750 7     -1289.385 7        43.659               
> 2025 07 30 04 28 27.0000000  0 10                                             
G05  23269841.291 7 122283862.110 7      -290.973 7        43.873               
G11  25764952.829 7 135395724.152 7     -3232.749 7        47.100               
G13  22404470.043 7 117736309.663 7      -273.126 7        44.425               
G15  23398731.375 7 122961175.477 7      1914.657 7        44.399               
G18  26444841.080 6 138968583.282 6      3364.585 6        36.463               
G20  24101617.202 7 126654823.905 7     -1472.716 7        46.406               
G21  24739590.141 7 130007424.333 7     -1860.658 7        47.259               
G24  27594161.484 6 145008331.969 6      3969.205 6        40.894               
G29  25332521.025 6 133123314.939 6     -1495.997 6        36.033               
G30  25855195.790 7 135869930.211 7     -1290.271 7        44.264               
> 2025 07 30 04 28 28.0000000  0 10                                             
G05  23269895.541 7 122284149.332 7      -285.475 7        44.251               
G11  25765568.095 7 135398957.952 7     -3230.868 7        47.468               
G13  22404522.739 7 117736584.869 7      -273.889 7        44.935               
G15  23398364.131 7 122959263.495 7      1913.738 7        44.106               
G18  26444194.007 6 138965224.405 6      3355.087 6        36.501               
G20  24101900.444 7 126656296.473 7     -1471.734 7        46.503               
G21  24739945.591 7 130009286.415 7     -1863.999 7        47.456               
G24  27593408.323 6 145004362.338 6      3970.211 6        40.774               
G29  25332804.446 5 133124808.074 5     -1486.928 5        35.739               
G30  25855439.309 7 135871221.247 7     -1291.004 7        44.776               
> 2025 07 30 04 28 29.0000000  0 10                                             
G05  23269949.255 7 122284436.809 7      -285.990 7        44.005               
G11  25766183.450 7 135402192.028 7     -3233.122 7        47.147               
G13  22404571.950 7 117736860.669 7      -276.211 7        44.662               
G15  23398001.712 7 122957351.931 7      1909.693 7        45.050               
G18  26443559.192 5 138961865.738 5      3363.658 5        35.383               
G20  24102177.378 7 126657769.286 7     -1473.647 7        46.126               
G21  24740300.041 7 130011148.658 7     -1861.946 7        47.545               
G24  27592652.713 6 145000392.646 6      3969.385 6        40.667               
G29  25333080.808 5 133126301.778 5     -1495.719 5        35.450               
G30  25855685.777 7 135872512.835 7     -1293.905 7        44.524               
> 2025 07 30 04 28 30.0000000  0 10                                             
G05  23270007.830 7 122284724.576 7      -286.717 7        43.783               
G11  25766798.395 7 135405426.403 7     -3232.221 7        47.665               
G13  22404624.950 7 117737137.078 7      -275.367 7        44.500               
G15  23397639.364 7 122955440.800 7      1911.921 7        44.672               
G18  26442917.819 5 138958507.220 5      3347.956 5        35.804               
G20  24102453.205 7 126659242.373 7     -1471.807 7        45.803               
G21  24740653.312 7 130013011.073 7     -1864.238 7        47.167               
G24  27591895.889 6 144996422.895 6      3964.777 6        40.765               
G29  25333369.161 5 133127795.962 5     -1492.391 5        35.184               
G30  25855933.156 7 135873804.964 7     -1288.570 7        44.395               
> 2025 07 30 04 28 31.0000000  0  9                                             
G05  23270059.740 7 122285012.584 7      -291.384 7        43.786               
G11  25767412.518 7 135408661.051 7     -3232.366 7        47.316               
G13  22404679.772 7 117737414.046 7      -280.761 7        44.943               
G15  23397275.175 7 122953530.099 7      1912.043 7        45.269               
G18  26442280.092 6 138955148.861 6      3351.883 6        36.077               
G20  24102730.871 7 126660715.706 7     -1470.642 7        44.843               
G21  24741005.635 7 130014873.633 7     -1862.979 7        46.584               
G24  27591137.653 6 144992453.038 6      3969.551 6        40.395               
G30  25856179.444 7 135875097.594 7     -1291.614 7        44.648               
> 2025 07 30 04 28 32.0000000  0  9                                             
G05  23270116.188 7 122285300.877 7      -291.136 7        44.414               
G11  25768029.696 7 135411895.972 7     -3235.885 7        47.800               
G13  22404730.878 7 117737691.627 7      -279.289 7        44.846               
G15  23396912.505 7 122951619.785 7      1909.137 7        45.612               
G18  26441655.480 6 138951790.624 6      3360.581 6        36.711               
G20  24103016.490 7 126662189.276 7     -1476.964 7        45.341               
G21  24741360.693 7 130016736.373 7     -1862.445 7        47.044               
G24  27590383.812 6 144988483.070 6      3968.021 6        40.109               
G30  25856424.893 7 135876390.767 7     -1291.788 7        44.450               
> 2025 07 30 04 28 33.0000000  0  9                                             
G05  23270172.029 7 122285589.504 7      -288.812 7        44.456               
G11  25768647.696 7 135415131.250 7     -3233.791 7        47.561               
G13  22404787.790 7 117737969.878 7      -278.745 7        44.278               
G15  23396551.176 7 122949709.985 7      1904.765 7        45.486               
G18  26441007.800 6 138948432.662 6      3352.151 6        37.240               
G20  24103296.140 7 126663663.196 7     -1479.776 7        44.626               
G21  24741713.409 7 130018599.341 7     -1861.280 7        47.168               
G24  27589626.880 6 144984513.111 6      3965.588 6        40.028               
G30  25856665.714 7 135877684.539 7     -1294.936 7        44.540               
> 2025 07 30 04 28 34.0000000  0  9                                             
G05  23270226.261 7 122285878.456 7      -292.089 7        44.338               
G11  25769262.569 7 135418366.844 7     -3235.340 7        47.655               
G13  22404841.290 7 117738248.757 7      -283.446 7        43.976               
G15  23396184.146 7 122947800.644 7      1912.728 7        45.375               
G18  26440363.514 6 138945074.870 6      3351.660 6        36.770               
G20  24103575.683 7 126665137.383 7     -1477.617 7        45.013               
G21  24742070.325 7 130020462.521 7     -1861.897 7        46.688               
G24  27588875.863 6 144980543.102 6      3971.903 6        40.175               
G30  25856913.236 7 135878978.894 7     -1297.454 7        44.201               
> 2025 07 30 04 28 35.0000000  0  9                                             
G05  23270280.154 7 122286167.665 7      -291.869 7        44.166               
G11  25769878.300 7 135421602.724 7     -3234.074 7        47.490               
G13  22404895.558 7 117738528.230 7      -281.315 7        44.396               
G15  23395821.316 7 122945891.736 7      1908.007 7        45.716               
G18  26439733.149 6 138941717.283 6      3361.152 6        36.938               
G20  24103855.101 7 126666611.851 7     -1477.856 7        45.014               
G21  24742423.631 7 130022325.872 7     -1863.102 7        47.282               
G24  27588111.319 6 144976573.028 6      3962.351 6        39.709               
G30  25857163.152 7 135880273.776 7     -1298.900 7        44.012               
> 2025 07 30 04 28 36.0000000  0  9                                             
G05  23270335.548 7 122286457.167 7      -286.674 7        44.298               
G11  25770496.818 7 135424838.919 7     -3235.954 7        47.794               
G13  22404950.184 7 117738808.326 7      -280.067 7        44.489               
G15  23395457.806 7 122943983.279 7      1907.559 7        45.209               
G18  26439090.757 6 138938359.850 6      3365.996 6        36.766               
G20  24104138.879 7 126668086.585 7     -1476.347 7        45.627               
G21  24742781.066 7 130024189.410 7     -1863.697 7        46.784               
G24  27587357.246 6 144972602.896 6      3977.441 6        39.505               
G30  25857406.278 7 135881569.227 7     -1294.821 7        44.036               
> 2025 07 30 04 28 37.0000000  0  9                                             
G05  23270395.963 7 122286746.955 7      -285.724 7        44.184               
G11  25771112.781 7 135428075.389 7     -3234.808 7        47.773               
G13  22405006.507 7 117739089.024 7      -278.012 7        44.842               
G15  23395096.816 7 122942075.234 7      1905.985 7        45.236               
G18  26438459.141 6 138935002.602 6      3359.673 6        36.882               
G20  24104415.938 7 126669561.578 7     -1477.498 7        45.169               
G21  24743136.337 7 130026053.111 7     -1863.320 7        47.208               
G24  27586602.101 6 144968632.692 6      3968.385 6        39.411               
G30  25857654.854 7 135882865.209 7     -1293.858 7        43.589               
> 2025 07 30 04 28 38.0000000  0  9                                             
G05  23270453.877 7 122287037.028 7      -289.280 7        42.781               
G11  25771726.421 7 135431312.157 7     -3239.078 7        47.065               
G13  22405057.309 7 117739370.331 7      -281.508 7        44.412               
G15  23394736.827 7 122940167.650 7      1908.515 7        45.692               
G18  26437819.751 6 138931645.559 6      3351.262 6        37.386               
G20  24104702.075 7 126671036.850 7     -1469.606 7        44.997               
G21  24743491.592 7 130027917.010 7     -1861.870 7        47.203               
G24  27585852.478 6 144964662.426 6      3966.322 6        39.371               
G30  25857900.964 7 135884161.759 7     -1297.224 7        44.268               
> 2025 07 30 04 28 39.0000000  0  9                                             
G05  23270512.969 7 122287327.406 7      -294.239 7        43.324               
G11  25772340.115 7 135434549.258 7     -3235.416 7        46.797               
G13  22405109.218 7 117739652.263 7      -277.009 7        44.699               
G15  23394370.208 7 122938260.514 7      1905.840 7        45.667               
G18  26437169.641 6 138928288.693 6      3356.258 6        36.630               
G20  24104980.010 7 126672512.425 7     -1476.095 7        45.561               
G21  24743844.737 7 130029781.113 7     -1864.298 7        46.976               
G24  27585092.098 6 144960692.116 6      3975.434 6        38.722               
G30  25858148.021 7 135885458.873 7     -1298.100 7        44.308               
> 2025 07 30 04 28 40.0000000  0  9                                             
G05  23270568.185 7 122287618.066 7      -293.132 7        43.557               
G11  25772951.361 7 135437786.656 7     -3238.843 7        46.826               
G13  22405163.040 7 117739934.811 7      -282.374 7        44.705               
G15  23394006.806 7 122936353.831 7      1906.441 7        45.308               
G18  26436530.519 6 138924931.978 6      3356.996 6        36.274               
G20  24105262.304 7 126673988.258 7     -1478.102 7        45.325               
G21  24744196.399 7 130031645.403 7     -1864.729 7        46.920               
G24  27584338.847 6 144956721.738 6      3969.031 6        39.276               
G30  25858400.993 7 135886756.544 7     -1298.766 7        44.326               
> 2025 07 30 04 28 41.0000000  0  9                                             
G05  23270619.755 7 122287908.946 7      -291.879 7        43.715               
G11  25773569.825 7 135441024.307 7     -3236.959 7        46.340               
G13  22405213.216 7 117740217.903 7      -284.161 7        44.366               
G15  23393645.869 7 122934447.558 7      1899.581 7        45.350               
G18  26435898.063 6 138921575.446 6      3352.878 6        36.788               
G20  24105543.027 7 126675464.336 7     -1478.515 7        44.989               
G21  24744551.743 7 130033509.832 7     -1860.374 7        46.248               
G24  27583577.001 6 144952751.252 6      3960.400 6        38.896               
G30  25858642.921 7 135888054.696 7     -1299.526 7        44.191               
> 2025 07 30 04 28 42.0000000  0  9                                             
G05  23270667.537 7 122288200.173 7      -288.158 7        43.559               
G11  25774190.506 7 135444262.298 7     -3240.951 7        46.026               
G13  22405268.467 7 117740501.669 7      -281.686 7        44.270               
G15  23393284.290 7 122932541.734 7      1901.952 7        46.144               
G18  26435265.893 6 138918219.129 6      3347.174 6        36.039               
G20  24105824.196 7 126676940.705 7     -1479.503 7        45.849               
G21  24744905.817 7 130035374.483 7     -1868.689 7        46.310               
G24  27582828.968 6 144948780.719 6      3970.748 6        39.312               
G30  25858888.567 7 135889353.449 7     -1296.731 7        44.018               
> 2025 07 30 04 28 43.0000000  0  9                                             
G05  23270721.233 7 122288491.661 7      -291.410 7        43.206               
G11  25774802.860 7 135447500.551 7     -3239.017 7        45.999               
G13  22405324.183 7 117740786.004 7      -282.507 7        43.923               
G15  23392920.351 7 122930636.328 7      1904.938 7        45.265               
G18  26434615.871 6 138914862.961 6      3355.660 6        37.262               
G20  24106103.042 7 126678417.313 7     -1475.210 7        45.804               
G21  24745262.269 7 130037239.283 7     -1866.145 7        46.879               
G24  27582068.033 6 144944810.114 6      3977.620 6        39.708               
G30  25859135.320 7 135890652.726 7     -1302.778 7        43.849               
> 2025 07 30 04 28 44.0000000  0  9                                             
G05  23270775.573 7 122288783.452 7      -293.311 7        42.839               
G11  25775419.502 7 135450739.108 7     -3242.076 7        46.639               
G13  22405375.306 7 117741070.961 7      -285.533 7        44.329               
G15  23392557.807 7 122928731.368 7      1905.330 7        46.116               
G18  26433981.700 6 138911506.963 6      3357.465 6        37.586               
G20  24106383.067 7 126679894.201 7     -1479.596 7        45.910               
G21  24745617.094 7 130039104.271 7     -1865.129 7        47.048               
G24  27581316.123 6 144940839.473 6      3966.773 6        39.200               
G30  25859380.394 7 135891952.550 7     -1298.546 7        43.773               
> 2025 07 30 04 28 45.0000000  0  9                                             
G05  23270827.536 7 122289075.462 7      -289.195 7        43.011               
G11  25776037.984 7 135453977.939 7     -3239.271 7        46.551               
G13  22405433.273 7 117741356.496 7      -285.299 7        44.406               
G15  23392195.173 7 122926826.829 7      1907.342 7        46.138               
G18  26433343.776 6 138908151.151 6      3359.744 6        36.577               
G20  24106663.718 7 126681371.328 7     -1473.962 7        45.787               
G21  24745970.365 7 130040969.428 7     -1867.645 7        46.237               
G24  27580561.067 6 144936868.692 6      3971.020 6        39.164               
G30  25859629.560 7 135893252.912 7     -1301.748 7        44.143               
> 2025 07 30 04 28 46.0000000  0  9                                             
G05  23270885.199 7 122289367.888 7      -293.912 7        42.792               
G11  25776656.592 7 135457217.135 7     -3239.277 7        46.275               
G13  22405485.594 7 117741642.729 7      -288.344 7        44.462               
G15  23391831.502 7 122924922.815 7      1904.270 7        45.396               
G18  26432697.650 6 138904795.572 6      3348.400 6        36.788               
G20  24106944.602 7 126682848.816 7     -1478.006 7        44.843               
G21  24746329.889 7 130042834.846 7     -1864.934 7        46.398               
G24  27579804.886 6 144932897.963 6      3974.013 6        39.670               
G30  25859873.829 7 135894553.882 7     -1297.498 7        43.867               
> 2025 07 30 04 28 47.0000000  0  9                                             
G05  23270943.649 7 122289660.554 7      -299.547 7        43.082               
G11  25777272.984 7 135460456.601 7     -3238.907 7        47.131               
G13  22405539.665 7 117741929.558 7      -284.201 7        44.345               
G15  23391467.796 7 122923019.215 7      1901.804 7        45.283               
G18  26432059.708 6 138901440.154 6      3362.932 6        36.950               
G20  24107227.343 7 126684326.562 7     -1478.218 7        45.715               
G21  24746681.355 7 130044700.408 7     -1863.996 7        46.933               
G24  27579049.866 6 144928927.138 6      3974.581 6        38.860               
G30  25860120.779 7 135895855.406 7     -1301.857 7        44.044               
> 2025 07 30 04 28 48.0000000  0  9                                             
G05  23270998.256 7 122289953.504 7      -289.691 7        43.415               
G11  25777891.341 7 135463696.368 7     -3238.934 7        47.206               
G13  22405592.522 7 117742216.972 7      -288.813 7        44.358               
G15  23391107.056 7 122921116.047 7      1902.756 7        45.512               
G18  26431427.144 6 138898084.923 6      3356.794 6        36.857               
G20  24107505.707 7 126685804.564 7     -1476.862 7        45.579               
G21  24747040.433 7 130046566.165 7     -1865.601 7        47.166               
G24  27578297.598 6 144924956.242 6      3970.981 6        39.089               
G30  25860372.625 7 135897157.458 7     -1297.935 7        44.128               
> 2025 07 30 04 28 49.0000000  0  9                                             
G05  23271056.920 7 122290246.718 7      -299.803 7        43.520               
G11  25778507.072 7 135466936.406 7     -3240.500 7        47.476               
G13  22405651.007 7 117742504.981 7      -286.334 7        43.821               
G15  23390744.351 7 122919213.305 7      1903.440 7        45.754               
G18  26430782.698 6 138894729.854 6      3351.294 6        37.152               
G20  24107794.095 7 126687282.833 7     -1481.257 7        45.183               
G21  24747394.115 7 130048432.083 7     -1864.727 7        47.086               
G24  27577533.340 6 144920985.267 6      3971.266 6        38.660               
G30  25860622.023 7 135898460.056 7     -1304.253 7        44.634               
> 2025 07 30 04 28 50.0000000  0  9                                             
G05  23271115.513 7 122290540.233 7      -297.684 7        43.184               
G11  25779124.250 7 135470176.782 7     -3239.607 7        47.233               
G13  22405701.934 7 117742793.643 7      -290.263 7        44.267               
G15  23390384.522 7 122917311.037 7      1904.554 7        45.836               
G18  26430150.814 6 138891374.997 6      3343.866 6        37.511               
G20  24108075.264 7 126688761.403 7     -1485.595 7        45.726               
G21  24747748.690 7 130050298.219 7     -1863.802 7        47.445               
G24  27576781.394 6 144917014.304 6      3979.413 6        39.150               
G30  25860867.579 7 135899763.240 7     -1299.447 7        44.085               
> 2025 07 30 04 28 51.0000000  0  9                                             
G05  23271174.856 7 122290834.024 7      -291.888 7        43.800               
G11  25779741.107 7 135473417.429 7     -3242.593 7        47.322               
G13  22405761.598 7 117743082.890 7      -283.048 7        44.664               
G15  23390021.835 7 122915409.195 7      1899.728 7        45.984               
G18  26429516.410 6 138888020.294 6      3357.886 6        36.754               
G20  24108358.113 7 126690240.216 7     -1481.789 7        45.970               
G21  24748104.712 7 130052164.516 7     -1864.199 7        47.520               
G24  27576028.893 6 144913043.201 6      3981.447 6        39.457               
G30  25861113.600 7 135901066.952 7     -1302.687 7        43.629               
> 2025 07 30 04 28 52.0000000  0  9                                             
G05  23271231.858 7 122291128.076 7      -294.325 7        43.439               
G11  25780356.766 7 135476658.350 7     -3240.717 7        47.951               
G13  22405813.990 7 117743372.715 7      -289.536 7        44.492               
G15  23389659.969 7 122913507.757 7      1896.038 7        46.128               
G18  26428868.783 6 138884665.760 6      3356.798 6        36.635               
G20  24108636.941 7 126691719.277 7     -1479.139 7        46.120               
G21  24748463.111 8 130054030.969 8     -1866.548 8        48.339               
G24  27575274.606 6 144909072.014 6      3969.721 6        39.139               
G30  25861364.016 7 135902371.178 7     -1302.441 7        43.847               
> 2025 07 30 04 28 53.0000000  0  9                                             
G05  23271289.039 7 122291422.389 7      -298.197 7        43.261               
G11  25780972.980 7 135479899.558 7     -3242.565 7        47.253               
G13  22405873.816 7 117743663.150 7      -290.157 7        44.496               
G15  23389297.282 7 122911606.746 7      1897.643 7        46.247               
G18  26428240.669 6 138881311.380 6      3359.003 6        37.489               
G20  24108921.166 7 126693198.583 7     -1473.993 7        46.088               
G21  24748817.311 7 130055897.584 7     -1866.867 7        47.796               
G24  27574513.439 6 144905100.765 6      3975.232 6        39.493               
G30  25861611.467 7 135903675.937 7     -1306.589 7        43.823               
> 2025 07 30 04 28 54.0000000  0  9                                             
G05  23271344.004 7 122291716.954 7      -293.580 7        43.206               
G11  25781588.049 7 135483141.027 7     -3242.039 7        47.410               
G13  22405925.100 7 117743954.139 7      -291.258 7        44.822               
G15  23388938.007 7 122909706.145 7      1902.786 7        45.893               
G18  26427592.112 6 138877957.152 6      3357.303 6        37.051               
G20  24109199.154 7 126694678.134 7     -1479.148 7        45.664               
G21  24749174.352 7 130057764.345 7     -1865.887 7        46.998               
G24  27573759.760 6 144901129.401 6      3960.795 6        39.063               
G30  25861859.238 7 135904981.215 7     -1302.856 7        44.173               
> 2025 07 30 04 28 55.0000000  0  9                                             
G05  23271399.613 7 122292011.843 7      -298.919 7        44.240               
G11  25782205.067 7 135486382.829 7     -3241.620 7        47.199               
G13  22405985.819 7 117744245.783 7      -293.800 7        44.517               
G15  23388576.517 7 122907806.019 7      1898.208 7        46.360               
G18  26426958.316 6 138874603.152 6      3351.743 6        37.766               
G20  24109482.396 7 126696158.003 7     -1477.853 7        45.947               
G21  24749525.657 7 130059631.324 7     -1868.918 7        47.966               
G24  27573005.151 6 144897158.020 6      3973.375 6        38.907               
G30  25862109.834 7 135906287.078 7     -1305.701 7        43.990               
> 2025 07 30 04 28 56.0000000  0  9                                             
G05  23271454.703 7 122292307.038 7      -296.687 7        44.027               
G11  25782821.351 7 135489624.961 7     -3245.511 7        46.879               
G13  22406043.661 7 117744538.045 7      -296.753 7        44.220               
G15  23388213.633 7 122905906.361 7      1901.469 7        46.380               
G18  26426317.336 6 138871249.355 6      3336.756 6        37.232               
G20  24109761.617 7 126697638.169 7     -1478.212 7        45.306               
G21  24749877.301 7 130061498.522 7     -1868.344 7        46.902               
G24  27572250.810 6 144893186.617 6      3971.689 6        39.080               
G30  25862358.302 7 135907593.517 7     -1307.681 7        44.294               
> 2025 07 30 04 28 57.0000000  0  9                                             
G05  23271512.420 7 122292602.475 7      -295.898 7        43.975               
G11  25783439.226 7 135492867.331 7     -3243.916 7        46.482               
G13  22406095.017 7 117744830.886 7      -292.797 7        44.780               
G15  23387851.356 7 122904007.100 7      1896.206 7        46.891               
G18  26425689.669 6 138867895.668 6      3365.551 6        37.094               
G20  24110040.928 7 126699118.553 7     -1479.634 7        44.863               
G21  24750231.340 7 130063365.857 7     -1868.357 7        46.692               
G24  27571491.591 6 144889215.097 6      3967.001 6        39.610               
G30  25862608.093 7 135908900.455 7     -1305.310 7        44.637               
> 2025 07 30 04 28 58.0000000  0  9                                             
G05  23271566.652 7 122292898.244 7      -295.133 7        44.733               
G11  25784059.353 7 135496110.047 7     -3243.369 7        46.215               
G13  22406149.821 7 117745124.375 7      -294.795 7        44.585               
G15  23387489.651 7 122902108.314 7      1898.841 7        46.304               
G18  26425049.118 6 138864542.218 6      3356.660 6        37.807               
G20  24110320.364 7 126700599.232 7     -1481.170 7        45.015               
G21  24750586.505 7 130065233.405 7     -1865.535 7        46.917               
G24  27570736.482 6 144885243.516 6      3976.185 6        39.232               
G30  25862859.761 7 135910207.973 7     -1309.015 7        44.991               
> 2025 07 30 04 28 59.0000000  0  9                                             
G05  23271616.685 7 122293194.293 7      -292.388 7        44.809               
G11  25784674.994 7 135499353.050 7     -3243.682 7        46.558               
G13  22406206.627 7 117745418.467 7      -299.831 7        44.578               
G15  23387129.305 7 122900209.971 7      1898.552 7        47.124               
G18  26424405.065 6 138861188.932 6      3351.207 6        36.835               
G20  24110605.142 7 126702080.197 7     -1485.146 7        45.597               
G21  24750941.151 7 130067101.152 7     -1869.904 7        47.084               
G24  27569988.842 6 144881271.943 6      3976.257 6        39.606               
G30  25863111.678 7 135911516.046 7     -1306.910 7        44.581               
> 2025 07 30 04 29 00.0000000  0  9                                             
G05  23271678.959 7 122293490.712 7      -298.576 7        44.427               
G11  25785290.564 7 135502596.426 7     -3245.070 7        45.466               
G13  22406260.591 7 117745713.249 7      -296.424 7        44.138               
G15  23386768.493 7 122898312.147 7      1902.872 7        46.833               
G18  26423765.801 6 138857835.932 6      3354.126 6        36.960               
G20  24110888.402 7 126703561.509 7     -1482.396 7        45.438               
G21  24751298.353 7 130068969.148 7     -1872.036 7        46.040               
G24  27569228.158 6 144877300.344 6      3972.518 6        39.766               
G30  25863353.893 7 135912824.739 7     -1309.156 7        44.859               
> 2025 07 30 04 29 01.0000000  0  9                                             
G05  23271731.923 7 122293787.375 7      -301.345 7        44.008               
G11  25785906.635 7 135505840.063 7     -3244.501 7        45.623               
G13  22406310.910 7 117746008.584 7      -294.983 7        43.994               
G15  23386407.754 7 122896414.733 7      1895.927 7        46.699               
G18  26423131.182 6 138854483.101 6      3339.409 6        36.128               
G20  24111171.876 7 126705043.040 7     -1480.631 7        45.154               
G21  24751657.235 7 130070837.297 7     -1870.356 7        47.072               
G24  27568473.710 6 144873328.656 6      3975.481 6        40.098               
G30  25863604.738 7 135914133.968 7     -1306.153 7        44.660               
> 2025 07 30 04 29 02.0000000  0  9                                             
G05  23271789.425 7 122294084.323 7      -295.511 7        44.532               
G11  25786525.939 7 135509083.988 7     -3244.907 7        45.848               
G13  22406374.113 7 117746304.521 7      -297.673 7        44.058               
G15  23386045.316 7 122894517.752 7      1898.472 7        46.513               
G18  26422496.242 6 138851130.408 6      3351.077 6        36.419               
G20  24111454.832 7 126706524.845 7     -1480.019 7        45.643               
G21  24752014.168 7 130072705.611 7     -1867.700 7        47.192               
G24  27567718.511 6 144869356.902 6      3970.285 6        39.886               
G30  25863850.848 7 135915443.730 7     -1312.944 7        43.709               
> 2025 07 30 04 29 03.0000000  0  9                                             
G05  23271841.102 7 122294381.535 7      -296.085 7        44.225               
G11  25787142.081 7 135512328.203 7     -3243.428 7        45.696               
G13  22406430.776 7 117746601.078 7      -297.808 7        44.173               
G15  23385682.468 7 122892621.210 7      1895.793 7        46.589               
G18  26421854.494 6 138847777.895 6      3356.263 6        36.669               
G20  24111732.499 7 126708006.915 7     -1480.080 7        45.294               
G21  24752371.871 7 130074574.109 7     -1866.798 7        46.537               
G24  27566955.540 6 144865385.085 6      3973.988 6        40.429               
G30  25864100.228 7 135916754.026 7     -1308.188 7        43.673               
> 2025 07 30 04 29 04.0000000  0  9                                             
G05  23271898.802 7 122294679.077 7      -302.067 7        44.293               
G11  25787759.885 7 135515572.717 7     -3246.316 7        46.488               
G13  22406488.618 7 117746898.252 7      -298.569 7        44.770               
G15  23385325.766 7 122890725.112 7      1895.177 7        46.710               
G18  26421221.341 6 138844425.576 6      3358.319 6        36.774               
G20  24112016.402 7 126709489.265 7     -1485.049 7        45.828               
G21  24752726.731 7 130076442.801 7     -1871.300 7        47.203               
G24  27566205.827 6 144861413.198 6      3967.621 6        40.889               
G30  25864353.575 7 135918064.889 7     -1310.895 7        43.527               
> 2025 07 30 04 29 05.0000000  0  9                                             
G05  23271956.715 7 122294976.873 7      -298.289 7        44.247               
G11  25788375.580 7 135518817.519 7     -3243.859 7        46.551               
G13  22406549.336 7 117747196.027 7      -303.243 7        44.800               
G15  23384963.901 7 122888829.442 7      1893.637 7        47.005               
G18  26420584.704 6 138841073.457 6      3353.598 6        36.988               
G20  24112298.893 7 126710971.865 7     -1479.659 7        45.526               
G21  24753077.643 7 130078311.653 7     -1865.342 7        46.955               
G24  27565449.538 6 144857441.222 6      3975.334 6        40.668               
G30  25864597.970 7 135919376.288 7     -1310.961 7        43.429               
> 2025 07 30 04 29 06.0000000  0  9                                             
G05  23272012.145 7 122295275.006 7      -295.716 7        44.388               
G11  25788994.438 7 135522062.650 7     -3244.170 7        46.860               
G13  22406603.390 7 117747494.441 7      -298.770 7        44.841               
G15  23384605.019 7 122886934.251 7      1894.618 7        46.957               
G18  26419940.829 5 138837721.529 5      3356.359 5        35.783               
G20  24112581.564 7 126712454.776 7     -1480.440 7        45.657               
G21  24753432.165 7 130080180.729 7     -1869.509 7        46.120               
G24  27564693.339 6 144853469.247 6      3977.375 6        40.368               
G30  25864845.831 7 135920688.261 7     -1308.810 7        43.062               
> 2025 07 30 04 29 07.0000000  0  9                                             
G05  23272073.042 7 122295573.369 7      -295.024 7        43.461               
G11  25789609.221 7 135525308.026 7     -3246.370 7        47.015               
G13  22406657.784 7 117747793.409 7      -297.232 7        44.768               
G15  23384242.493 7 122885039.459 7      1893.856 7        47.109               
G18  26419301.654 6 138834369.738 6      3342.608 6        36.139               
G20  24112863.269 7 126713937.935 7     -1484.636 7        45.763               
G21  24753786.025 7 130082049.943 7     -1871.864 7        46.401               
G24  27563935.889 6 144849497.135 6      3969.965 6        40.337               
G30  25865095.372 7 135922000.726 7     -1311.444 7        43.299               
> 2025 07 30 04 29 08.0000000  0  9                                             
G05  23272132.671 7 122295871.968 7      -297.462 7        43.882               
G11  25790230.152 7 135528553.647 7     -3244.641 7        46.563               
G13  22406716.716 7 117748092.948 7      -299.773 7        44.804               
G15  23383882.360 7 122883145.054 7      1892.104 7        47.235               
G18  26418658.709 6 138831018.055 6      3362.442 6        36.071               
G20  24113142.972 7 126715421.300 7     -1486.590 7        45.865               
G21  24754137.848 7 130083919.299 7     -1866.496 7        46.426               
G24  27563183.157 6 144845524.933 6      3971.656 6        40.818               
G30  25865351.221 7 135923313.735 7     -1316.675 7        43.576               
> 2025 07 30 04 29 09.0000000  0  9                                             
G05  23272189.423 7 122296170.822 7      -300.727 7        44.270               
G11  25790848.724 7 135531799.546 7     -3247.240 7        47.193               
G13  22406770.680 7 117748393.058 7      -295.756 7        44.434               
G15  23383524.747 7 122881251.080 7      1893.570 7        47.078               
G18  26418023.036 6 138827666.569 6      3362.232 6        36.325               
G20  24113427.161 7 126716904.921 7     -1482.856 7        45.543               
G21  24754498.910 7 130085788.816 7     -1871.602 7        46.385               
G24  27562424.456 6 144841552.644 6      3971.433 6        40.932               
G30  25865598.296 7 135924627.233 7     -1315.995 7        44.273               
> 2025 07 30 04 29 10.0000000  0  9                                             
G05  23272246.694 7 122296469.917 7      -298.639 7        44.537               
G11  25791464.437 7 135535045.692 7     -3246.314 7        46.128               
G13  22406831.256 7 117748693.754 7      -301.295 7        44.086               
G15  23383164.776 7 122879357.496 7      1892.866 7        47.723               
G18  26417388.311 6 138824315.228 6      3354.840 6        36.778               
G20  24113711.332 7 126718388.771 7     -1481.514 7        45.745               
G21  24754856.076 7 130087658.468 7     -1870.147 7        46.481               
G24  27561669.418 6 144837580.248 6      3977.314 6        41.034               
G30  25865853.698 7 135925941.250 7     -1313.748 7        44.042               
> 2025 07 30 04 29 11.0000000  0  9                                             
G05  23272302.105 7 122296769.300 7      -297.591 7        44.426               
G11  25792078.685 7 135538292.147 7     -3247.260 7        45.942               
G13  22406889.902 7 117748995.048 7      -300.498 7        44.171               
G15  23382804.948 7 122877464.346 7      1896.088 7        47.341               
G18  26416748.081 6 138820964.051 6      3354.295 6        37.449               
G20  24113992.323 7 126719872.903 7     -1483.388 7        46.212               
G21  24755215.940 7 130089528.305 7     -1870.324 7        46.953               
G24  27560913.594 6 144833607.786 6      3970.026 6        41.484               
G30  25866103.471 7 135927255.815 7     -1317.352 7        44.080               
> 2025 07 30 04 29 12.0000000  0  9                                             
G05  23272360.537 7 122297068.992 7      -301.027 7        44.455               
G11  25792699.294 7 135541538.892 7     -3242.778 7        46.177               
G13  22406949.013 7 117749296.957 7      -303.794 7        44.633               
G15  23382443.332 7 122875571.652 7      1895.372 7        47.235               
G18  26416114.392 6 138817613.064 6      3350.951 6        36.184               
G20  24114279.246 7 126721357.295 7     -1485.354 7        46.347               
G21  24755574.571 7 130091398.311 7     -1870.942 7        46.936               
G24  27560156.609 6 144829635.283 6      3970.934 6        41.131               
G30  25866354.495 7 135928570.937 7     -1312.983 7        44.531               
> 2025 07 30 04 29 13.0000000  0  9                                             
G05  23272425.670 7 122297368.942 7      -296.795 7        44.237               
G11  25793315.203 7 135544785.923 7     -3250.190 7        46.253               
G13  22407006.015 7 117749599.436 7      -297.468 7        44.476               
G15  23382082.699 7 122873679.382 7      1889.863 7        47.507               
G18  26415477.826 6 138814262.242 6      3348.521 6        36.714               
G20  24114557.252 7 126722841.937 7     -1488.014 7        46.037               
G21  24755930.058 7 130093268.502 7     -1872.345 7        46.889               
G24  27559405.163 6 144825662.685 6      3977.537 6        41.006               
G30  25866603.553 7 135929886.598 7     -1315.825 7        44.507               
> 2025 07 30 04 29 14.0000000  0  9                                             
G05  23272479.831 7 122297669.146 7      -297.451 7        43.912               
G11  25793933.829 7 135548033.218 7     -3248.648 7        46.295               
G13  22407056.584 7 117749902.534 7      -303.447 7        44.539               
G15  23381721.388 7 122871787.526 7      1891.572 7        47.530               
G18  26414842.404 6 138810911.577 6      3345.666 6        37.282               
G20  24114840.065 7 126724326.828 7     -1489.763 7        46.125               
G21  24756280.827 7 130095138.846 7     -1868.430 7        46.812               
G24  27558646.676 6 144821690.017 6      3973.193 6        41.163               
G30  25866857.419 7 135931202.771 7     -1318.559 7        44.402               
> 2025 07 30 04 29 15.0000000  0  9                                             
G05  23272532.616 7 122297969.669 7      -300.847 7        44.336               
G11  25794551.489 7 135551280.824 7     -3248.250 7        46.088               
G13  22407114.444 7 117750206.246 7      -304.346 7        43.856               
G15  23381362.042 7 122869896.134 7      1892.291 7        47.530               
G18  26414209.947 6 138807561.120 6      3357.585 6        37.158               
G20  24115120.609 7 126725811.995 7     -1483.711 7        45.593               
G21  24756634.937 7 130097009.393 7     -1869.608 7        46.168               
G24  27557885.724 6 144817717.294 6      3978.000 6        40.978               
G30  25867100.527 7 135932519.517 7     -1315.147 7        44.291               
> 2025 07 30 04 29 16.0000000  0  9                                             
G05  23272585.204 7 122298270.426 7      -304.266 7        44.596               
G11  25795172.581 7 135554528.701 7     -3247.760 7        46.190               
G13  22407172.036 7 117750510.518 7      -305.624 7        44.139               
G15  23381004.786 7 122868005.151 7      1889.822 7        47.723               
G18  26413563.268 6 138804210.820 6      3358.489 6        36.773               
G20  24115400.902 7 126727297.417 7     -1487.972 7        46.038               
G21  24756987.260 7 130098880.086 7     -1871.263 7        45.862               
G24  27557135.064 6 144813744.474 6      3975.513 6        41.221               
G30  25867347.959 7 135933836.777 7     -1317.632 7        43.816               
> 2025 07 30 04 29 17.0000000  0  9                                             
G05  23272643.797 7 122298571.467 7      -304.026 7        44.614               
G11  25795793.922 7 135557776.865 7     -3249.240 7        47.105               
G13  22407227.180 7 117750815.416 7      -306.304 7        43.719               
G15  23380644.475 7 122866114.598 7      1891.079 7        47.367               
G18  26412930.150 6 138800860.688 6      3354.443 6        37.020               
G20  24115686.628 7 126728783.118 7     -1485.060 7        45.537               
G21  24757341.389 7 130100750.967 7     -1868.351 7        45.891               
G24  27556377.936 6 144809771.596 6      3975.039 6        41.182               
G30  25867600.466 7 135935154.601 7     -1321.759 7        44.439               
> 2025 07 30 04 29 18.0000000  0  9                                             
G05  23272692.597 7 122298872.820 7      -299.279 7        43.813               
G11  25796409.260 7 135561025.340 7     -3247.159 7        46.554               
G13  22407289.739 7 117751120.928 7      -310.177 7        44.214               
G15  23380285.540 8 122864224.514 8      1890.416 8        48.047               
G18  26412284.864 6 138797510.772 6      3359.183 6        37.349               
G20  24115967.136 7 126730269.097 7     -1484.557 7        45.318               
G21  24757699.323 7 130102622.057 7     -1872.077 7        45.644               
G24  27555620.879 6 144805798.664 6      3970.153 6        41.255               
G30  25867847.970 7 135936472.973 7     -1322.264 7        43.977               
> 2025 07 30 04 29 19.0000000  0  9                                             
G05  23272751.511 7 122299174.486 7      -300.748 7        44.060               
G11  25797029.637 7 135564274.144 7     -3249.319 7        47.406               
G13  22407348.082 7 117751427.081 7      -308.249 7        44.355               
G15  23379926.713 7 122862334.896 7      1889.983 7        47.663               
G18  26411657.983 6 138794161.051 6      3345.531 6        37.417               
G20  24116250.556 7 126731755.385 7     -1488.902 7        45.582               
G21  24758056.543 7 130104493.351 7     -1867.118 7        46.023               
G24  27554860.355 6 144801825.722 6      3969.885 6        40.788               
G30  25868097.529 7 135937791.912 7     -1316.650 7        43.607               
> 2025 07 30 04 29 20.0000000  0  9                                             
G05  23272806.476 7 122299476.384 7      -302.733 7        43.730               
G11  25797646.654 7 135567523.203 7     -3250.828 7        47.206               
G13  22407408.908 7 117751733.805 7      -308.198 7        44.784               
G15  23379565.222 7 122860445.681 7      1887.313 7        47.672               
G18  26411009.856 6 138790811.485 6      3344.811 6        37.147               
G20  24116536.336 7 126733241.891 7     -1484.031 7        45.691               
G21  24758416.997 7 130106364.780 7     -1873.499 7        45.924               
G24  27554109.338 6 144797852.685 6      3975.985 6        41.278               
G30  25868349.607 7 135939111.368 7     -1319.953 7        43.757               
> 2025 07 30 04 29 21.0000000  0  9                                             
G05  23272874.057 7 122299778.632 7      -306.321 7        43.619               
G11  25798262.206 7 135570772.577 7     -3251.725 7        46.520               
G13  22407467.161 7 117752041.135 7      -306.758 7        44.189               
G15  23379205.965 7 122858556.930 7      1884.995 7        47.143               
G18  26410381.563 6 138787462.129 6      3350.959 6        37.133               
G20  24116818.881 7 126734728.694 7     -1484.300 7        45.690               
G21  24758775.825 7 130108236.418 7     -1870.801 7        46.070               
G24  27553355.408 6 144793879.587 6      3971.661 6        41.061               
G30  25868599.791 7 135940431.391 7     -1323.438 7        42.832               
> 2025 07 30 04 29 22.0000000  0  9                                             
G05  23272935.437 7 122300081.147 7      -305.523 7        44.572               
G11  25798882.440 7 135574022.246 7     -3247.422 7        46.457               
G13  22407522.841 7 117752349.113 7      -312.978 7        44.410               
G15  23378845.565 7 122856668.618 7      1888.515 7        47.075               
G18  26409736.866 6 138784112.966 6      3357.707 6        37.396               
G20  24117102.962 7 126736215.787 7     -1488.013 7        45.062               
G21  24759130.846 7 130110108.251 7     -1870.165 7        46.377               
G24  27552596.314 6 144789906.451 6      3974.482 6        41.152               
G30  25868852.727 7 135941751.956 7     -1317.545 7        43.172               
> 2025 07 30 04 29 23.0000000  0  9                                             
G05  23272991.474 7 122300383.865 7      -301.740 7        44.243               
G11  25799497.724 7 135577272.133 7     -3247.648 7        46.348               
G13  22407580.361 7 117752657.588 7      -309.247 7        43.989               
G15  23378486.737 7 122854780.682 7      1888.278 7        47.747               
G18  26409105.947 6 138780763.908 6      3345.998 6        37.605               
G20  24117384.328 7 126737703.055 7     -1487.181 7        45.212               
G21  24759487.369 7 130111980.182 7     -1871.892 7        46.311               
G24  27551840.455 6 144785933.173 6      3971.359 6        40.546               
G30  25869109.809 7 135943073.037 7     -1327.102 7        43.852               
> 2025 07 30 04 29 24.0000000  0  9                                             
G05  23273047.851 7 122300686.916 7      -299.971 7        44.352               
G11  25800119.513 7 135580522.347 7     -3251.298 7        46.399               
G13  22407642.367 7 117752966.730 7      -310.876 7        44.267               
G15  23378127.141 7 122852893.198 7      1885.669 7        47.395               
G18  26408467.773 6 138777415.034 6      3354.318 6        37.476               
G20  24117665.193 7 126739190.647 7     -1488.011 7        44.790               
G21  24759840.872 7 130113852.332 7     -1872.901 7        45.925               
G24  27551084.148 6 144781959.846 6      3976.902 6        40.645               
G30  25869362.477 7 135944394.651 7     -1323.305 7        44.379               
> 2025 07 30 04 29 25.0000000  0  9                                             
G05  23273112.912 7 122300990.180 7      -305.753 7        44.806               
G11  25800737.763 7 135583772.802 7     -3249.288 7        46.567               
G13  22407705.230 7 117753276.380 7      -308.827 7        44.899               
G15  23377765.758 7 122851006.089 7      1883.919 7        47.288               
G18  26407830.867 6 138774066.322 6      3357.994 6        37.542               
G20  24117945.219 7 126740678.417 7     -1484.035 7        44.823               
G21  24760198.931 7 130115724.596 7     -1874.484 7        45.961               
G24  27550323.357 6 144777986.395 6      3975.304 6        39.919               
G30  25869615.592 7 135945716.757 7     -1322.136 7        44.127               
> 2025 07 30 04 29 26.0000000  0  9                                             
G05  23273172.952 7 122301293.749 7      -302.594 7        44.918               
G11  25801355.727 7 135587023.574 7     -3250.709 7        46.499               
G13  22407764.162 7 117753586.704 7      -313.323 7        45.242               
G15  23377409.575 7 122849119.471 7      1886.177 7        47.250               
G18  26407196.606 6 138770717.828 6      3339.794 6        37.566               
G20  24118225.351 7 126742166.519 7     -1482.661 7        44.453               
G21  24760552.005 7 130117597.075 7     -1872.655 7        45.161               
G24  27549570.017 6 144774012.927 6      3976.242 6        40.527               
G30  25869863.167 7 135947039.455 7     -1321.867 7        43.477               
> 2025 07 30 04 29 27.0000000  0  9                                             
G05  23273229.329 7 122301597.546 7      -301.722 7        44.850               
G11  25801974.246 7 135590274.581 7     -3250.633 7        46.357               
G13  22407825.667 7 117753897.556 7      -312.330 7        45.446               
G15  23377049.371 7 122847233.220 7      1884.913 7        46.618               
G18  26406558.253 6 138767369.398 6      3352.041 6        37.888               
G20  24118512.721 7 126743654.809 7     -1488.839 7        44.863               
G21  24760910.065 7 130119469.681 7     -1873.527 7        45.287               
G24  27548816.998 6 144770039.342 6      3975.615 6        40.603               
G30  25870119.212 7 135948362.630 7     -1323.248 7        42.893               
> 2025 07 30 04 29 28.0000000  0  9                                             
G05  23273283.544 7 122301901.574 7      -299.442 7        44.913               
G11  25802594.265 7 135593525.812 7     -3250.863 7        46.757               
G13  22407882.794 7 117754208.968 7      -314.857 7        44.399               
G15  23376690.221 7 122845347.361 7      1884.540 7        46.438               
G18  26405923.831 6 138764021.164 6      3343.619 6        37.865               
G20  24118799.144 7 126745143.323 7     -1491.559 7        44.321               
G21  24761268.839 7 130121342.395 7     -1873.509 7        45.767               
G24  27548056.832 6 144766065.628 6      3968.293 6        41.041               
G30  25870369.039 7 135949686.284 7     -1326.791 7        42.865               
> 2025 07 30 04 29 29.0000000  0  9                                             
G05  23273345.710 7 122302205.911 7      -302.309 7        44.286               
G11  25803213.230 7 135596777.381 7     -3248.440 7        45.860               
G13  22407943.085 7 117754521.021 7      -312.740 7        44.710               
G15  23376333.270 7 122843461.964 7      1882.363 7        47.419               
G18  26405276.740 6 138760673.102 6      3360.082 6        37.824               
G20  24119084.476 7 126746632.140 7     -1489.514 7        45.105               
G21  24761627.310 7 130123215.334 7     -1873.917 7        46.239               
G24  27547304.296 6 144762091.867 6      3968.741 6        40.573               
G30  25870610.092 7 135951010.516 7     -1323.635 7        42.299               
> 2025 07 30 04 29 30.0000000  0  9                                             
G05  23273399.460 7 122302510.538 7      -299.421 7        44.362               
G11  25803830.766 7 135600029.223 7     -3255.825 7        46.057               
G13  22407997.942 7 117754833.662 7      -306.985 7        44.841               
G15  23375979.981 7 122841577.005 7      1884.405 7        47.617               
G18  26404639.817 6 138757325.229 6      3343.903 6        37.934               
G20  24119370.613 7 126748121.208 7     -1488.429 7        45.451               
G21  24761983.421 7 130125088.441 7     -1873.027 7        46.281               
G24  27546545.935 6 144758118.076 6      3974.866 6        40.529               
G30  25870861.527 7 135952335.311 7     -1322.622 7        42.625               
> 2025 07 30 04 29 31.0000000  0  9                                             
G05  23273453.728 7 122302815.394 7      -304.113 7        44.463               
G11  25804451.125 7 135603281.308 7     -3248.089 7        46.338               
G13  22408061.127 7 117755146.852 7      -313.038 7        45.349               
G15  23375616.668 7 122839692.437 7      1883.248 7        47.897               
G18  26404012.900 6 138753977.491 6      3340.872 6        37.493               
G20  24119654.802 7 126749610.495 7     -1489.438 7        46.282               
G21  24762342.124 7 130126961.674 7     -1871.905 7        45.967               
G24  27545787.091 6 144754144.145 6      3970.174 6        40.961               
G30  25871117.072 7 135953660.572 7     -1325.684 7        42.795               
> 2025 07 30 04 29 32.0000000  0  9                                             
G05  23273502.957 7 122303120.624 7      -307.904 7        44.482               
G11  25805069.643 7 135606533.760 7     -3252.736 7        46.323               
G13  22408117.361 7 117755460.736 7      -313.060 7        44.846               
G15  23375257.358 7 122837808.388 7      1882.091 7        47.527               
G18  26403371.777 6 138750629.989 6      3351.523 6        38.217               
G20  24119937.186 7 126751100.131 7     -1489.565 7        45.916               
G21  24762696.449 7 130128835.181 7     -1875.234 7        46.288               
G24  27545030.945 6 144750170.246 6      3965.755 6        41.605               
G30  25871371.116 7 135954986.481 7     -1323.309 7        42.546               
> 2025 07 30 04 29 33.0000000  0  9                                             
G05  23273554.474 7 122303426.131 7      -305.068 7        43.772               
G11  25805689.269 7 135609786.507 7     -3249.384 7        46.413               
G13  22408177.919 7 117755775.207 7      -315.761 7        44.547               
G15  23374898.620 7 122835924.773 7      1882.642 7        47.467               
G18  26402730.351 6 138747282.688 6      3345.806 6        37.652               
G20  24120218.730 7 126752590.039 7     -1490.140 7        45.918               
G21  24763050.613 7 130130708.859 7     -1873.670 7        46.002               
G24  27544275.264 6 144746196.288 6      3975.809 6        40.871               
G30  25871628.501 7 135956312.933 7     -1325.614 7        42.296               
> 2025 07 30 04 29 34.0000000  0  9                                             
G05  23273617.766 7 122303731.956 7      -306.606 7        43.385               
G11  25806307.448 7 135613039.579 7     -3252.878 7        46.367               
G13  22408238.013 7 117756090.324 7      -311.232 7        44.271               
G15  23374538.595 7 122834041.620 7      1885.296 7        47.080               
G18  26402099.092 6 138743935.599 6      3345.275 6        37.818               
G20  24120501.901 7 126754080.241 7     -1491.061 7        45.768               
G21  24763402.633 7 130132582.749 7     -1874.959 7        46.016               
G24  27543516.063 6 144742222.279 6      3972.325 6        41.264               
G30  25871881.419 7 135957639.940 7     -1326.828 7        43.323               
> 2025 07 30 04 29 35.0000000  0  9                                             
G05  23273678.503 7 122304038.101 7      -306.688 7        43.705               
G11  25806925.484 7 135616292.986 7     -3253.352 7        46.451               
G13  22408300.340 7 117756406.109 7      -317.976 7        44.432               
G15  23374178.409 7 122832158.970 7      1880.702 7        47.188               
G18  26401457.719 6 138740588.733 6      3342.643 6        37.884               
G20  24120782.873 7 126755570.784 7     -1491.475 7        46.261               
G21  24763760.031 7 130134456.871 7     -1874.109 7        45.101               
G24  27542762.509 6 144738248.276 6      3975.767 6        40.641               
G30  25872137.232 7 135958967.565 7     -1324.688 7        43.165               
> 2025 07 30 04 29 36.0000000  0  9                                             
G05  23273738.364 7 122304344.482 7      -302.399 7        43.853               
G11  25807545.396 7 135619546.624 7     -3250.027 7        46.231               
G13  22408359.272 7 117756722.418 7      -311.578 7        44.338               
G15  23373819.813 7 122830276.694 7      1880.377 7        46.909               
G18  26400824.530 6 138737242.020 6      3345.986 6        37.898               
G20  24121066.383 7 126757061.523 7     -1489.747 7        46.086               
G21  24764115.928 7 130136331.123 7     -1872.978 7        45.279               
G24  27542007.006 6 144734274.139 6      3978.720 6        40.604               
G30  25872391.562 7 135960295.684 7     -1327.443 7        43.520               
> 2025 07 30 04 29 37.0000000  0  9                                             
G05  23273799.565 7 122304651.165 7      -308.521 7        43.996               
G11  25808166.988 7 135622800.570 7     -3251.425 7        46.633               
G13  22408414.041 7 117757039.363 7      -315.384 7        43.923               
G15  23373459.163 7 122828394.877 7      1882.561 7        47.374               
G18  26400189.823 6 138733895.492 6      3345.144 6        38.227               
G20  24121348.481 7 126758552.560 7     -1492.626 7        45.157               
G21  24764474.220 7 130138205.574 7     -1874.423 7        45.654               
G24  27541250.718 6 144730299.979 6      3974.125 6        40.422               
G30  25872642.872 7 135961624.366 7     -1329.936 7        43.423               
> 2025 07 30 04 29 38.0000000  0  9                                             
G05  23273859.355 7 122304958.192 7      -307.736 7        44.349               
G11  25808784.559 7 135626054.872 7     -3255.527 7        46.882               
G13  22408473.509 7 117757356.968 7      -316.651 7        44.172               
G15  23373103.480 7 122826513.539 7      1882.224 7        47.200               
G18  26399547.110 6 138730549.220 6      3346.101 6        38.363               
G20  24121630.991 7 126760043.911 7     -1488.480 7        45.633               
G21  24764828.974 7 130140080.264 7     -1874.667 7        45.064               
G24  27540489.819 6 144726325.792 6      3978.665 6        40.416               
G30  25872893.843 7 135962953.642 7     -1329.328 7        43.880               
> 2025 07 30 04 29 39.0000000  0  9                                             
G05  23273924.613 7 122305265.490 7      -309.300 7        44.328               
G11  25809405.043 7 135629309.445 7     -3253.528 7        46.938               
G13  22408534.228 7 117757675.167 7      -318.222 7        43.564               
G15  23372744.473 7 122824632.644 7      1883.329 7        47.228               
G18  26398923.034 6 138727203.082 6      3344.093 6        38.681               
G20  24121917.199 7 126761535.518 7     -1490.268 7        45.480               
G21  24765183.924 7 130141955.104 7     -1875.337 7        45.175               
G24  27539740.088 6 144722351.536 6      3972.148 6        39.925               
G30  25873143.580 7 135964283.443 7     -1326.448 7        43.515               
> 2025 07 30 04 29 40.0000000  0  9                                             
G05  23273985.886 7 122305573.027 7      -308.203 7        43.755               
G11  25810025.152 7 135632564.279 7     -3252.953 7        47.043               
G13  22408594.357 7 117757993.947 7      -322.782 7        43.678               
G15  23372392.328 7 122822752.152 7      1881.740 7        47.159               
G18  26398289.130 6 138723857.121 6      3348.947 6        38.111               
G20  24122204.461 7 126763027.367 7     -1497.032 7        45.983               
G21  24765543.485 7 130143830.110 7     -1871.648 7        45.566               
G24  27538982.674 6 144718377.207 6      3967.496 6        40.160               
G30  25873391.066 7 135965613.757 7     -1329.799 7        43.524               
> 2025 07 30 04 29 41.0000000  0  9                                             
G05  23274040.565 7 122305880.807 7      -305.251 7        44.049               
G11  25810641.883 7 135635819.350 7     -3257.027 7        46.404               
G13  22408659.257 7 117758313.265 7      -322.867 7        43.920               
G15  23372031.285 7 122820872.041 7      1879.628 7        47.793               
G18  26397649.402 6 138720511.295 6      3343.064 6        38.710               
G20  24122489.347 7 126764519.421 7     -1497.273 7        46.391               
G21  24765901.777 7 130145705.237 7     -1877.911 7        45.546               
G24  27538226.618 6 144714402.746 6      3971.264 6        39.933               
G30  25873649.398 7 135966944.566 7     -1326.736 7        43.105               
> 2025 07 30 04 29 42.0000000  0  9                                             
G05  23274100.980 7 122306188.865 7      -313.079 7        44.018               
G11  25811260.848 7 135639074.687 7     -3254.503 7        46.870               
G13  22408720.119 7 117758633.164 7      -317.667 7        44.647               
G15  23371675.584 7 122818992.346 7      1881.889 7        47.207               
G18  26397010.745 6 138717165.589 6      3351.095 6        38.446               
G20  24122772.035 7 126766011.710 7     -1490.923 7        46.339               
G21  24766257.692 7 130147580.511 7     -1874.233 7        45.862               
G24  27537469.204 6 144710428.183 6      3971.195 6        40.569               
G30  25873906.855 7 135968275.886 7     -1331.737 7        43.579               
> 2025 07 30 04 29 43.0000000  0  9                                             
G05  23274161.341 7 122306497.231 7      -312.243 7        44.133               
G11  25811877.812 7 135642330.357 7     -3256.018 7        47.167               
G13  22408781.856 7 117758953.711 7      -321.917 7        44.752               
G15  23371316.828 7 122817113.125 7      1879.845 7        47.123               
G18  26396370.837 6 138713820.140 6      3340.800 6        37.717               
G20  24123056.867 7 126767504.309 7     -1491.829 7        46.627               
G21  24766616.663 7 130149456.009 7     -1878.150 7        45.650               
G24  27536716.453 6 144706453.613 6      3971.418 6        40.058               
G30  25874159.595 7 135969607.800 7     -1333.942 7        43.364               
> 2025 07 30 04 29 44.0000000  0  9                                             
G05  23274220.881 7 122306805.818 7      -309.564 7        44.735               
G11  25812498.421 7 135645586.259 7     -3254.058 7        46.794               
G13  22408839.019 7 117759274.800 7      -322.599 7        44.711               
G15  23370960.215 7 122815234.289 7      1875.659 7        47.563               
G18  26395735.182 6 138710474.823 6      3343.365 6        38.139               
G20  24123339.519 7 126768997.132 7     -1491.576 7        46.291               
G21  24766973.507 7 130151331.633 7     -1873.202 7        46.019               
G24  27535957.592 6 144702478.923 6      3974.980 6        40.207               
G30  25874418.481 7 135970940.179 7     -1332.096 7        43.655               
> 2025 07 30 04 29 45.0000000  0  9                                             
G05  23274281.314 7 122307114.765 7      -307.846 7        44.626               
G11  25813121.389 7 135648842.522 7     -3257.175 7        46.785               
G13  22408902.526 7 117759596.580 7      -323.565 7        44.670               
G15  23370603.317 7 122813355.971 7      1877.718 7        47.396               
G18  26395100.082 6 138707129.760 6      3339.307 6        36.878               
G20  24123624.280 7 126770490.301 7     -1489.854 7        45.541               
G21  24767326.795 7 130153207.516 7     -1879.703 7        46.089               
G24  27535200.767 6 144698504.238 6      3969.350 6        40.592               
G30  25874671.239 7 135972273.213 7     -1334.454 7        43.920               
> 2025 07 30 04 29 46.0000000  0  9                                             
G05  23274332.277 7 122307423.984 7      -307.815 7        44.344               
G11  25813738.460 7 135652099.058 7     -3255.857 7        47.312               
G13  22408963.763 7 117759918.923 7      -321.251 7        44.553               
G15  23370242.077 7 122811478.079 7      1878.583 7        46.852               
G18  26394458.852 6 138703784.807 6      3346.767 6        37.661               
G20  24123908.558 7 126771983.724 7     -1491.742 7        46.107               
G21  24767684.855 7 130155083.551 7     -1876.934 7        45.236               
G24  27534443.782 6 144694529.485 6      3972.255 6        40.082               
G30  25874926.372 7 135973606.750 7     -1331.632 7        43.918               
> 2025 07 30 04 29 47.0000000  0  9                                             
G05  23274382.078 7 122307733.475 7      -307.131 7        43.704               
G11  25814360.766 7 135655355.870 7     -3256.851 7        47.390               
G13  22409024.839 7 117760241.875 7      -324.254 7        44.563               
G15  23369888.646 7 122809600.605 7      1880.088 7        47.156               
G18  26393818.694 6 138700440.100 6      3343.332 6        38.593               
G20  24124192.694 7 126773477.377 7     -1492.596 7        45.827               
G21  24768042.753 7 130156959.757 7     -1876.857 7        45.259               
G24  27533689.727 6 144690554.652 6      3977.513 6        39.931               
G30  25875177.468 7 135974940.825 7     -1334.596 7        43.917               
> 2025 07 30 04 29 48.0000000  0  9                                             
G05  23274443.654 7 122308043.194 7      -309.323 7        43.784               
G11  25814982.734 7 135658612.916 7     -3256.197 7        47.405               
G13  22409088.811 7 117760565.382 7      -323.098 7        44.497               
G15  23369528.210 7 122807723.523 7      1876.555 7        46.856               
G18  26393192.867 6 138697095.480 6      3349.682 6        38.345               
G20  24124477.848 7 126774971.285 7     -1497.020 7        46.591               
G21  24768399.562 7 130158836.106 7     -1875.581 7        45.267               
G24  27532937.405 6 144686579.720 6      3974.441 6        39.744               
G30  25875433.835 7 135976275.407 7     -1333.657 7        43.597               
> 2025 07 30 04 29 49.0000000  0  9                                             
G05  23274498.476 7 122308353.201 7      -308.010 7        44.299               
G11  25815598.947 7 135661870.269 7     -3256.657 7        47.868               
G13  22409152.246 7 117760889.471 7      -326.060 7        44.649               
G15  23369172.170 7 122805846.882 7      1873.556 7        47.240               
G18  26392553.996 6 138693751.074 6      3344.947 6        38.707               
G20  24124761.751 7 126776465.454 7     -1493.087 7        46.609               
G21  24768757.961 7 130160712.608 7     -1875.339 7        45.273               
G24  27532172.128 6 144682604.728 6      3973.392 6        39.893               
G30  25875680.338 7 135977610.521 7     -1335.127 7        43.999               
> 2025 07 30 04 29 50.0000000  0  9                                             
G05  23274554.531 7 122308663.538 7      -301.891 7        43.926               
G11  25816222.862 7 135665127.926 7     -3257.296 7        46.550               
G13  22409215.734 7 117761214.229 7      -323.855 7        44.941               
G15  23368816.737 7 122803970.722 7      1873.945 7        47.166               
G18  26391921.951 6 138690406.872 6      3342.641 6        38.668               
G20  24125047.959 7 126777959.923 7     -1494.737 7        46.320               
G21  24769111.446 7 130162589.347 7     -1876.104 7        45.693               
G24  27531415.465 6 144678629.698 6      3979.831 6        39.349               
G30  25875937.580 7 135978946.207 7     -1333.531 7        44.409               
> 2025 07 30 04 29 51.0000000  0  9                                             
G05  23274611.730 7 122308974.154 7      -308.850 7        43.203               
G11  25816841.094 7 135668385.891 7     -3258.937 7        47.287               
G13  22409272.969 7 117761539.569 7      -325.702 7        44.476               
G15  23368457.516 7 122802095.001 7      1878.625 7        47.042               
G18  26391283.098 6 138687062.845 6      3345.564 6        37.914               
G20  24125332.076 7 126779454.670 7     -1499.818 7        46.073               
G21  24769472.597 7 130164466.271 7     -1876.499 7        45.805               
G24  27530657.568 6 144674654.613 6      3981.685 6        39.027               
G30  25876188.122 7 135980282.454 7     -1335.626 7        43.571               
> 2025 07 30 04 29 52.0000000  0  9                                             
G05  23274677.238 7 122309285.081 7      -312.754 7        43.230               
G11  25817460.774 7 135671644.159 7     -3261.568 7        46.439               
G13  22409338.584 7 117761865.560 7      -324.206 7        44.298               
G15  23368102.851 7 122800219.747 7      1876.318 7        46.755               
G18  26390651.017 6 138683719.061 6      3347.693 6        38.921               
G20  24125614.603 7 126780949.716 7     -1497.707 7        45.929               
G21  24769827.851 7 130166343.389 7     -1875.758 7        45.926               
G24  27529904.156 6 144670679.509 6      3975.965 6        39.116               
G30  25876441.791 7 135981619.259 7     -1336.632 7        43.660               
> 2025 07 30 04 29 53.0000000  0  9                                             
G05  23274739.565 7 122309596.267 7      -312.112 7        43.337               
G11  25818078.059 7 135674902.704 7     -3257.819 7        46.496               
G13  22409401.107 7 117762192.128 7      -326.658 7        44.215               
G15  23367746.132 7 122798344.894 7      1878.771 7        47.156               
G18  26390007.410 6 138680375.406 6      3346.082 6        38.288               
G20  24125900.901 7 126782444.990 7     -1491.464 7        46.513               
G21  24770186.036 7 130168220.664 7     -1873.581 7        45.673               
G24  27529152.085 6 144666704.292 6      3980.160 6        38.919               
G30  25876696.817 7 135982956.590 7     -1335.600 7        43.923               
> 2025 07 30 04 29 54.0000000  0  9                                             
G05  23274797.282 7 122309907.780 7      -311.803 7        44.218               
G11  25818699.258 7 135678161.560 7     -3257.988 7        45.988               
G13  22409460.772 7 117762519.331 7      -325.694 7        44.675               
G15  23367387.412 7 122796470.515 7      1873.860 7        47.438               
G18  26389375.150 6 138677031.965 6      3345.979 6        38.785               
G20  24126186.305 7 126783940.560 7     -1494.713 7        46.116               
G21  24770543.166 7 130170098.154 7     -1876.886 7        45.209               
G24  27528390.811 6 144662729.065 6      3982.007 6        38.856               
G30  25876956.919 7 135984294.464 7     -1334.758 7        43.385               
> 2025 07 30 04 29 55.0000000  0  9                                             
G05  23274860.681 7 122310219.527 7      -315.237 7        44.306               
G11  25819317.651 7 135681420.673 7     -3257.045 7        46.124               
G13  22409519.293 7 117762847.069 7      -324.459 7        44.282               
G15  23367030.549 7 122794596.543 7      1874.368 7        46.815               
G18  26388733.688 6 138673688.701 6      3352.716 6        38.988               
G20  24126471.780 7 126785436.359 7     -1496.685 7        46.518               
G21  24770896.240 7 130171975.786 7     -1876.326 7        44.492               
G24  27527638.382 6 144658753.734 6      3976.332 6        38.953               
G30  25877214.876 7 135985632.894 7     -1338.281 7        43.815               
> 2025 07 30 04 29 56.0000000  0  9                                             
G05  23274922.991 7 122310531.562 7      -313.951 7        44.879               
G11  25819937.939 7 135684680.083 7     -3256.462 7        46.382               
G13  22409582.210 7 117763175.444 7      -329.806 7        44.341               
G15  23366676.528 7 122792723.010 7      1874.910 7        46.929               
G18  26388090.564 6 138670345.590 6      3333.970 6        38.410               
G20  24126754.040 7 126786932.428 7     -1493.310 7        46.859               
G21  24771259.231 7 130173853.599 7     -1879.126 7        44.778               
G24  27526874.267 6 144654778.357 6      3967.830 6        38.830               
G30  25877469.134 7 135986971.864 7     -1341.669 7        43.764               
> 2025 07 30 04 29 57.0000000  0  9                                             
G05  23274984.335 7 122310843.848 7      -313.920 7        44.628               
G11  25820556.278 7 135687939.762 7     -3261.660 7        45.903               
G13  22409644.430 7 117763504.399 7      -327.523 7        44.545               
G15  23366314.448 7 122790849.916 7      1873.081 7        47.326               
G18  26387459.591 6 138667002.672 6      3343.288 6        38.778               
G20  24127040.230 7 126788428.754 7     -1496.675 7        46.522               
G21  24771615.164 7 130175731.572 7     -1875.680 7        45.538               
G24  27526123.071 6 144650802.866 6      3977.021 6        38.868               
G30  25877723.750 7 135988311.351 7     -1336.863 7        44.361               
> 2025 07 30 04 29 58.0000000  0  9                                             
G05  23275044.321 7 122311156.431 7      -307.835 7        44.364               
G11  25821178.371 7 135691199.736 7     -3258.866 7        45.900               
G13  22409710.921 7 117763833.960 7      -327.540 7        44.634               
G15  23365962.714 7 122788977.250 7      1876.650 7        46.878               
G18  26386820.809 6 138663659.946 6      3338.456 6        38.940               
G20  24127323.132 7 126789925.356 7     -1495.386 7        46.505               
G21  24771975.154 7 130177609.741 7     -1875.105 7        45.575               
G24  27525364.942 6 144646827.372 6      3979.211 6        39.014               
G30  25877980.939 7 135989651.399 7     -1339.407 7        44.066               
> 2025 07 30 04 29 59.0000000  0  9                                             
G05  23275102.914 7 122311469.244 7      -314.722 7        44.372               
G11  25821799.909 7 135694459.950 7     -3261.346 7        45.872               
G13  22409774.767 7 117764164.070 7      -334.309 7        43.885               
G15  23365605.977 7 122787104.965 7      1872.089 7        47.004               
G18  26386186.405 6 138660317.323 6      3339.095 6        38.709               
G20  24127610.270 7 126791422.171 7     -1499.912 7        46.566               
G21  24772334.160 7 130179488.021 7     -1878.098 7        45.289               
G24  27524610.315 6 144642851.707 6      3974.042 6        38.675               
G30  25878235.412 7 135990991.925 7     -1340.276 7        44.631               
> 2025 07 30 04 30 00.0000000  0  9                                             
G05  23275162.132 7 122311782.347 7      -309.884 7        44.398               
G11  25822417.373 7 135697720.465 7     -3260.109 7        45.812               
G13  22409835.092 7 117764494.798 7      -330.980 7        44.088               
G15  23365249.151 7 122785233.145 7      1869.927 7        47.049               
G18  26385549.732 6 138656974.921 6      3342.024 6        38.874               
G20  24127891.778 7 126792919.272 7     -1499.067 7        46.779               
G21  24772689.486 7 130181366.516 7     -1879.819 7        45.420               
G24  27523854.188 6 144638876.033 6      3975.014 6        38.238               
G30  25878488.723 7 135992333.002 7     -1340.607 7        43.898               
> 2025 07 30 04 30 01.0000000  0 10                                             
G05  23275218.705 7 122312095.703 7      -313.044 7        44.002               
G07  28281742.654 7 148619470.585 7     -2430.382 7        43.121               
G11  25823043.343 7 135700981.214 7     -3261.671 7        45.831               
G13  22409897.902 7 117764826.071 7      -328.564 7        44.027               
G15  23364891.395 7 122783361.714 7      1867.948 7        47.104               
G18  26384910.236 6 138653632.652 6      3336.919 6        38.431               
G20  24128177.557 7 126794416.594 7     -1497.937 7        46.335               
G21  24773046.259 7 130183245.129 7     -1876.119 7        45.964               
G24  27523096.434 6 144634900.262 6      3975.858 6        38.077               
G30  25878742.731 7 135993674.591 7     -1345.788 7        44.305               
> 2025 07 30 04 30 02.0000000  0 10                                             
G05  23275276.297 7 122312409.297 7      -312.225 7        43.987               
G07  28282199.940 7 148621894.036 7     -2425.544 7        42.747               
G11  25823662.165 7 135704242.216 7     -3263.275 7        45.611               
G13  22409968.056 7 117765157.923 7      -330.060 7        43.727               
G15  23364536.230 7 122781490.675 7      1872.583 7        46.526               
G18  26384283.623 6 138650290.540 6      3338.956 6        38.924               
G20  24128461.800 7 126795914.149 7     -1499.572 7        46.366               
G21  24773402.460 7 130185123.886 7     -1876.670 7        45.427               
G24  27522333.587 6 144630924.378 6      3975.884 6        38.718               
G30  25878993.612 7 135995016.677 7     -1340.230 7        43.265               
> 2025 07 30 04 30 03.0000000  0 10                                             
G05  23275337.945 7 122312723.179 7      -312.599 7        43.594               
G07  28282663.910 7 148624317.814 7     -2424.851 7        42.946               
G11  25824281.237 7 135707503.528 7     -3260.830 7        45.793               
G13  22410026.738 7 117765490.398 7      -331.379 7        45.065               
G15  23364178.403 7 122779620.109 7      1871.830 7        47.444               
G18  26383639.873 6 138646948.612 6      3343.439 6        39.029               
G20  24128749.884 7 126797411.980 7     -1499.277 7        46.395               
G21  24773761.842 7 130187002.852 7     -1880.006 7        45.542               
G24  27521582.659 6 144626948.435 6      3977.528 6        38.461               
G30  25879246.566 7 135996359.325 7     -1343.249 7        43.553               
> 2025 07 30 04 30 04.0000000  0 10                                             
G05  23275391.910 7 122313037.365 7      -312.266 7        42.881               
G07  28283118.944 7 148626741.874 7     -2420.563 7        43.478               
G11  25824903.276 7 135710765.117 7     -3261.502 7        46.518               
G13  22410088.064 7 117765823.459 7      -336.934 7        45.008               
G15  23363823.917 7 122777749.956 7      1870.097 7        46.687               
G18  26383007.882 6 138643606.877 6      3340.263 6        38.899               
G20  24129036.414 7 126798910.072 7     -1500.790 7        46.619               
G21  24774115.702 7 130188881.970 7     -1878.955 7        45.438               
G24  27520832.160 6 144622972.423 6      3972.649 6        38.162               
G30  25879503.523 7 135997702.488 7     -1345.792 7        43.065               
> 2025 07 30 04 30 05.0000000  0 10                                             
G05  23275447.089 7 122313351.789 7      -314.281 7        42.937               
G07  28283586.451 7 148629166.270 7     -2424.910 7        43.135               
G11  25825522.133 7 135714026.972 7     -3264.675 7        46.467               
G13  22410156.485 7 117766157.095 7      -330.139 7        45.271               
G15  23363467.484 7 122775880.227 7      1867.710 7        46.700               
G18  26382370.154 6 138640265.293 6      3343.675 6        38.722               
G20  24129322.729 7 126800408.409 7     -1497.327 7        46.577               
G21  24774474.154 7 130190761.248 7     -1876.059 7        45.329               
G24  27520073.853 6 144618996.345 6      3981.512 6        38.698               
G30  25879762.409 7 135999046.185 7     -1341.583 7        43.122               
> 2025 07 30 04 30 06.0000000  0 10                                             
G05  23275503.841 7 122313666.491 7      -317.241 7        42.660               
G07  28284044.309 7 148631590.961 7     -2424.968 7        42.635               
G11  25826144.672 7 135717289.104 7     -3263.704 7        46.341               
G13  22410217.758 7 117766491.338 7      -334.949 7        45.359               
G15  23363114.642 7 122774010.937 7      1869.210 7        46.828               
G18  26381729.871 6 138636923.903 6      3350.690 6        39.138               
G20  24129607.687 7 126801907.013 7     -1492.733 7        46.518               
G21  24774830.784 7 130192640.711 7     -1881.771 7        45.400               
G24  27519316.081 6 144615020.211 6      3977.550 6        37.974               
G30  25880016.203 7 136000390.439 7     -1343.848 7        42.944               
> 2025 07 30 04 30 07.0000000  0 10                                             
G05  23275568.366 7 122313981.490 7      -315.492 7        43.446               
G07  28284504.866 7 148634015.939 7     -2422.177 7        42.763               
G11  25826765.496 7 135720551.520 7     -3261.486 7        45.885               
G13  22410281.729 7 117766826.158 7      -333.135 7        44.477               
G15  23362760.442 7 122772142.078 7      1869.164 7        46.600               
G18  26381100.149 6 138633582.652 6      3342.370 6        38.952               
G20  24129890.750 7 126803405.892 7     -1496.598 7        46.225               
G21  24775189.755 7 130194520.345 7     -1883.412 7        44.669               
G24  27518560.793 6 144611043.992 6      3981.831 6        37.493               
G30  25880273.570 7 136001735.198 7     -1345.784 7        42.991               
> 2025 07 30 04 30 08.0000000  0 10                                             
G05  23275635.554 7 122314296.811 7      -317.506 7        43.829               
G07  28284971.336 7 148636441.269 7     -2425.185 7        43.140               
G11  25827387.177 7 135723814.249 7     -3262.169 7        46.493               
G13  22410341.840 7 117767161.624 7      -337.015 7        44.533               
G15  23362406.475 7 122770273.662 7      1867.365 7        47.169               
G18  26380463.601 6 138630241.652 6      3334.919 6        39.583               
G20  24130176.744 7 126804905.051 7     -1502.042 7        46.326               
G21  24775545.635 7 130196400.185 7     -1882.138 7        44.511               
G24  27517798.251 6 144607067.728 6      3967.977 6        37.427               
G30  25880535.405 7 136003080.541 7     -1344.039 7        43.644               
> 2025 07 30 04 30 09.0000000  0 10                                             
G05  23275695.719 7 122314612.453 7      -318.563 7        43.901               
G07  28285434.591 7 148638866.930 7     -2425.279 7        43.556               
G11  25828008.411 7 135727077.289 7     -3265.650 7        46.267               
G13  22410402.791 7 117767497.718 7      -339.507 7        45.052               
G15  23362049.488 7 122768405.732 7      1870.507 7        46.925               
G18  26379828.482 6 138626900.856 6      3340.039 6        38.678               
G20  24130461.487 7 126806404.502 7     -1497.486 7        46.152               
G21  24775908.394 7 130198280.223 7     -1876.397 7        45.353               
G24  27517039.246 6 144603091.476 6      3975.186 6        38.456               
G30  25880790.164 7 136004426.458 7     -1340.033 7        43.057               
> 2025 07 30 04 30 10.0000000  0 10                                             
G05  23275758.403 7 122314928.340 7      -318.010 7        43.205               
G07  28285889.894 7 148641292.876 7     -2425.467 7        43.671               
G11  25828627.251 7 135730340.609 7     -3263.279 7        46.392               
G13  22410465.369 7 117767834.388 7      -334.622 7        44.790               
G15  23361692.322 7 122766538.218 7      1867.309 7        47.026               
G18  26379191.344 6 138623560.209 6      3339.630 6        39.145               
G20  24130746.891 7 126807904.223 7     -1501.535 7        45.604               
G21  24776264.613 7 130200160.433 7     -1880.944 7        45.236               
G24  27516288.801 6 144599115.107 6      3985.491 6        37.747               
G30  25881041.027 7 136005772.917 7     -1349.538 7        42.971               
> 2025 07 30 04 30 11.0000000  0 10                                             
G05  23275821.677 7 122315244.506 7      -318.898 7        44.282               
G07  28286351.951 7 148643719.168 7     -2426.170 7        43.622               
G11  25829245.859 7 135733604.208 7     -3262.893 7        46.097               
G13  22410531.698 7 117768171.661 7      -334.805 7        44.633               
G15  23361337.353 7 122764671.145 7      1866.242 7        46.802               
G18  26378552.133 6 138620219.758 6      3344.187 6        38.943               
G20  24131034.778 7 126809404.192 7     -1497.886 7        46.087               
G21  24776624.924 7 130202040.813 7     -1878.459 7        45.483               
G24  27515533.942 6 144595138.701 6      3981.125 6        37.993               
G30  25881298.412 7 136007119.877 7     -1344.615 7        42.117               
> 2025 07 30 04 30 12.0000000  0 10                                             
G05  23275884.702 7 122315560.982 7      -316.755 7        44.245               
G07  28286816.402 7 148646145.784 7     -2428.458 7        43.369               
G11  25829869.399 7 135736868.125 7     -3265.354 7        46.153               
G13  22410596.867 7 117768509.565 7      -333.971 7        44.604               
G15  23360981.617 7 122762804.523 7      1863.231 7        46.760               
G18  26377919.999 6 138616879.524 6      3336.075 6        38.821               
G20  24131316.037 7 126810904.464 7     -1495.923 7        46.101               
G21  24776984.377 7 130203921.402 7     -1883.630 7        45.518               
G24  27514771.685 6 144591162.251 6      3979.116 6        38.271               
G30  25881549.133 7 136008467.432 7     -1347.652 7        43.394               
> 2025 07 30 04 30 13.0000000  0 10                                             
G05  23275947.332 7 122315877.710 7      -318.143 7        44.253               
G07  28287276.691 7 148648572.693 7     -2425.862 7        43.769               
G11  25830490.472 7 135740132.301 7     -3261.135 7        45.996               
G13  22410660.516 7 117768848.030 7      -336.930 7        44.451               
G15  23360627.399 7 122760938.317 7      1863.933 7        47.178               
G18  26377283.147 6 138613539.439 6      3341.366 6        38.869               
G20  24131602.102 7 126812404.965 7     -1496.062 7        46.778               
G21  24777343.973 7 130205802.147 7     -1882.376 7        46.063               
G24  27514019.042 6 144587185.723 6      3978.219 6        37.885               
G30  25881803.641 7 136009815.495 7     -1347.219 7        42.935               
> 2025 07 30 04 30 14.0000000  0 10                                             
G05  23276008.963 7 122316194.720 7      -320.158 7        44.304               
G07  28287737.175 7 148650999.898 7     -2426.399 7        43.726               
G11  25831110.813 7 135743396.750 7     -3265.404 7        45.186               
G13  22410725.202 7 117769187.096 7      -338.386 7        44.171               
G15  23360271.520 7 122759072.534 7      1865.613 7        46.809               
G18  26376645.151 6 138610199.527 6      3344.884 6        39.487               
G20  24131886.077 7 126813905.734 7     -1502.218 7        46.136               
G21  24777700.049 7 130207683.047 7     -1879.161 7        46.229               
G24  27513263.271 6 144583209.093 6      3974.457 6        38.344               
G30  25882055.737 7 136011164.066 7     -1346.345 7        42.206               
> 2025 07 30 04 30 15.0000000  0 10                                             
G05  23276065.339 7 122316511.976 7      -316.113 7        44.225               
G07  28288195.820 7 148653427.413 7     -2425.471 7        43.999               
G11  25831732.655 7 135746661.479 7     -3263.612 7        45.854               
G13  22410792.157 7 117769526.740 7      -341.344 7        44.345               
G15  23359916.605 7 122757207.183 7      1865.252 7        46.319               
G18  26376016.501 6 138606859.786 6      3342.254 6        39.489               
G20  24132171.338 7 126815406.743 7     -1503.098 7        46.773               
G21  24778059.020 7 130209564.116 7     -1885.846 7        46.000               
G24  27512510.825 6 144579232.408 6      3973.005 6        38.248               
G30  25882314.945 7 136012513.202 7     -1350.408 7        42.403               
> 2025 07 30 04 30 16.0000000  0 10                                             
G05  23276123.986 7 122316829.524 7      -314.532 7        44.523               
G07  28288663.488 7 148655855.237 7     -2429.711 7        43.000               
G11  25832354.140 7 135749926.498 7     -3266.152 7        46.111               
G13  22410853.555 7 117769867.009 7      -338.615 7        43.988               
G15  23359559.296 7 122755342.274 7      1865.886 7        46.489               
G18  26375378.220 6 138603520.258 6      3340.885 6        38.784               
G20  24132458.457 7 126816908.031 7     -1502.848 7        46.805               
G21  24778418.777 7 130211445.372 7     -1881.057 7        46.131               
G24  27511743.975 6 144575255.696 6      3968.482 6        38.424               
G30  25882574.779 7 136013862.861 7     -1348.161 7        43.494               
> 2025 07 30 04 30 17.0000000  0 10                                             
G05  23276178.522 7 122317147.310 7      -317.024 7        44.526               
G07  28289125.473 7 148658283.321 7     -2428.712 7        43.637               
G11  25832976.411 7 135753191.752 7     -3265.820 7        46.660               
G13  22410920.368 7 117770207.826 7      -343.458 7        43.890               
G15  23359205.508 7 122753477.746 7      1865.943 7        46.541               
G18  26374739.081 6 138600180.842 6      3336.485 6        38.367               
G20  24132745.862 7 126818409.540 7     -1502.384 7        46.883               
G21  24778770.368 7 130213326.759 7     -1880.253 7        46.220               
G24  27510994.531 6 144571278.824 6      3977.695 6        38.361               
G30  25882833.969 7 136015213.008 7     -1347.524 7        43.754               
> 2025 07 30 04 30 18.0000000  0 10                                             
G05  23276232.433 7 122317465.387 7      -322.563 7        43.991               
G07  28289589.317 7 148660711.715 7     -2430.895 7        43.447               
G11  25833598.610 7 135756457.281 7     -3266.190 7        46.678               
G13  22410987.644 7 117770549.222 7      -343.418 7        43.685               
G15  23358851.844 7 122751613.650 7      1865.164 7        46.928               
G18  26374112.056 6 138596841.608 6      3338.791 6        38.925               
G20  24133028.854 7 126819911.308 7     -1500.883 7        46.293               
G21  24779132.644 7 130215208.322 7     -1880.160 7        45.727               
G24  27510232.721 6 144567301.923 6      3977.677 6        38.616               
G30  25883093.785 7 136016563.709 7     -1351.066 7        43.134               
> 2025 07 30 04 30 21.0000000  0 10                                             
G05  23276407.835 7 122318421.365 7      -321.419 7        42.638               
G07  28290975.650 7 148667998.875 7     -2429.451 7        43.257               
G11  25835464.422 7 135766255.681 7     -3266.644 7        47.535               
G13  22411184.561 7 117771577.139 7      -338.068 7        44.062               
G15  23357793.801 7 122746024.119 7      1861.174 7        46.869               
G18  26372195.711 6 138586825.135 6      3339.035 6        38.947               
G20  24133887.300 7 126824418.310 7     -1504.243 7        46.391               
G21  24780208.127 7 130220854.151 7     -1879.651 7        45.150               
G24  27507975.988 6 144555370.895 6      3978.411 6        39.112               
G30  25883868.192 7 136020619.135 7     -1346.285 7        43.446               
> 2025 07 30 04 30 22.0000000  0 10                                             
G05  23276472.396 7 122318740.622 7      -317.607 7        43.413               
G07  28291435.080 7 148670428.572 7     -2430.017 7        43.483               
G11  25836086.550 7 135769522.403 7     -3266.432 7        46.866               
G13  22411248.800 7 117771920.982 7      -343.312 7        43.913               
G15  23357439.208 7 122744161.823 7      1862.619 7        47.967               
G18  26371556.518 6 138583486.674 6      3337.079 6        39.044               
G20  24134172.114 7 126825921.195 7     -1500.100 7        46.325               
G21  24780564.775 7 130222736.478 7     -1881.990 7        45.118               
G24  27507204.189 6 144551393.807 6      3976.075 6        39.021               
G30  25884129.295 7 136021972.066 7     -1358.595 7        43.462               
> 2025 07 30 04 30 23.0000000  0 10                                             
G05  23276539.798 7 122319060.144 7      -318.169 7        43.496               
G07  28291903.302 7 148672858.563 7     -2429.793 7        43.865               
G11  25836708.535 7 135772789.391 7     -3267.356 7        46.365               
G13  22411313.057 7 117772265.431 7      -344.122 7        44.465               
G15  23357084.365 7 122742299.952 7      1863.314 7        47.627               
G18  26370927.761 6 138580148.398 6      3338.578 6        39.188               
G20  24134463.058 7 126827424.346 7     -1504.578 7        46.221               
G21  24780923.442 7 130224618.962 7     -1881.802 7        45.203               
G24  27506457.353 6 144547416.668 6      3970.581 6        39.383               
G30  25884383.374 7 136023325.501 7     -1355.983 7        43.952               
> 2025 07 30 04 30 24.0000000  0 10                                             
G05  23276605.663 7 122319379.948 7      -321.897 7        44.679               
G07  28292364.144 7 148675288.879 7     -2434.799 7        42.569               
G11  25837325.642 7 135776056.699 7     -3266.984 7        46.745               
G13  22411381.335 7 117772610.493 7      -351.381 7        44.379               
G15  23356728.307 7 122740438.546 7      1860.131 7        47.270               
G18  26370295.805 6 138576810.333 6      3334.514 6        39.098               
G20  24134747.747 7 126828927.762 7     -1503.989 7        46.340               
G21  24781277.249 7 130226501.636 7     -1880.093 7        44.757               
G24  27505699.117 6 144543439.416 6      3971.919 6        38.864               
G30  25884637.615 7 136024679.509 7     -1357.501 7        43.900               
> 2025 07 30 04 30 25.0000000  0 10                                             
G05  23276663.577 7 122319700.014 7      -319.589 7        44.315               
G07  28292824.004 7 148677719.508 7     -2432.792 7        42.669               
G11  25837947.787 7 135779324.281 7     -3266.789 7        46.055               
G13  22411442.625 7 117772956.133 7      -347.263 7        44.510               
G15  23356372.034 7 122738577.566 7      1864.562 7        46.933               
G18  26369656.916 6 138573472.441 6      3336.045 6        38.594               
G20  24135034.598 7 126830431.456 7     -1501.306 7        46.064               
G21  24781632.753 7 130228384.491 7     -1881.280 7        44.855               
G24  27504936.038 6 144539462.139 6      3992.345 6        39.171               
G30  25884890.140 7 136026034.036 7     -1352.611 7        43.192               
> 2025 07 30 04 30 26.0000000  0 10                                             
G05  23276725.260 7 122320020.338 7      -319.206 7        44.526               
G07  28293286.079 7 148680150.419 7     -2429.753 7        43.334               
G11  25838569.969 7 135782592.136 7     -3272.564 7        46.037               
G13  22411510.188 7 117773302.369 7      -345.491 7        44.707               
G15  23356014.100 7 122736717.006 7      1861.646 7        47.057               
G18  26369013.327 6 138570134.717 6      3338.365 6        38.079               
G20  24135318.501 7 126831935.389 7     -1504.500 7        46.059               
G21  24781987.971 7 130230267.525 7     -1885.404 7        43.928               
G24  27504184.449 6 144535484.802 6      3979.079 6        38.953               
G30  25885147.632 7 136027389.110 7     -1355.627 7        43.301               
> 2025 07 30 04 30 27.0000000  0 10                                             
G05  23276784.246 7 122320340.976 7      -318.682 7        44.069               
G07  28293744.419 7 148682581.658 7     -2428.237 7        44.337               
G11  25839193.455 7 135785860.290 7     -3269.957 7        45.962               
G13  22411579.484 7 117773649.220 7      -349.108 7        44.573               
G15  23355660.526 7 122734856.892 7      1859.852 7        46.959               
G18  26368385.321 6 138566797.217 6      3338.667 6        38.669               
G20  24135607.033 7 126833439.619 7     -1503.747 7        46.831               
G21  24782347.228 7 130232150.747 7     -1888.525 7        44.882               
G24  27503419.959 6 144531507.392 6      3981.673 6        39.073               
G30  25885409.574 7 136028744.697 7     -1357.803 7        42.965               
> 2025 07 30 04 30 28.0000000  0 10                                             
G05  23276849.897 7 122320661.942 7      -323.735 7        44.165               
G07  28294210.372 7 148685013.253 7     -2427.295 7        43.830               
G11  25839818.084 7 135789128.764 7     -3270.755 7        46.635               
G13  22411643.741 7 117773996.704 7      -342.187 7        44.654               
G15  23355303.413 7 122732997.250 7      1863.916 7        46.362               
G18  26367747.236 6 138563459.908 6      3335.889 6        39.012               
G20  24135890.828 7 126834944.151 7     -1506.576 7        46.903               
G21  24782702.053 7 130234034.179 7     -1883.107 7        44.969               
G24  27502670.586 6 144527529.987 6      3977.490 6        39.330               
G30  25885667.496 7 136030100.900 7     -1357.583 7        43.408               
> 2025 07 30 04 30 29.0000000  0 10                                             
G05  23276911.706 7 122320983.119 7      -322.501 7        44.115               
G07  28294674.645 7 148687445.107 7     -2428.447 7        43.653               
G11  25840438.122 7 135792397.451 7     -3267.724 7        46.440               
G13  22411711.554 7 117774344.738 7      -349.642 7        44.782               
G15  23354950.339 7 122731137.998 7      1859.935 7        45.851               
G18  26367107.239 6 138560122.747 6      3330.248 6        38.397               
G20  24136180.235 7 126836448.885 7     -1506.906 7        46.243               
G21  24783068.297 7 130235917.726 7     -1882.378 7        44.191               
G24  27501912.814 6 144523552.442 6      3981.124 6        39.727               
G30  25885931.493 7 136031457.563 7     -1355.323 7        43.183               
> 2025 07 30 04 30 30.0000000  0 10                                             
G05  23276973.247 7 122321304.623 7      -320.587 7        44.336               
G07  28295138.382 7 148689877.307 7     -2432.216 7        43.761               
G11  25841061.340 7 135795666.483 7     -3269.918 7        47.256               
G13  22411774.275 7 117774693.434 7      -348.497 7        44.551               
G15  23354597.587 7 122729279.235 7      1860.154 7        46.119               
G18  26366477.213 6 138556785.800 6      3342.286 6        38.986               
G20  24136464.531 7 126837953.947 7     -1503.677 7        46.943               
G21  24783429.555 7 130237801.497 7     -1884.203 7        45.078               
G24  27501155.203 6 144519574.880 6      3980.003 6        39.750               
G30  25886187.109 7 136032814.814 7     -1357.497 7        44.262               
> 2025 07 30 04 30 31.0000000  0 10                                             
G05  23277028.837 7 122321626.361 7      -321.078 7        44.139               
G07  28295602.011 7 148692309.748 7     -2429.921 7        43.459               
G11  25841683.825 7 135798935.732 7     -3271.535 7        46.656               
G13  22411843.088 7 117775042.632 7      -349.996 7        44.599               
G15  23354247.658 7 122727420.838 7      1855.243 7        45.725               
G18  26365844.828 6 138553449.011 6      3344.233 6        39.024               
G20  24136750.471 7 126839459.191 7     -1503.902 7        46.504               
G21  24783788.150 7 130239685.369 7     -1882.416 7        45.535               
G24  27500402.810 6 144515597.210 6      3974.847 6        39.161               
G30  25886447.532 7 136034172.542 7     -1354.896 7        43.824               
> 2025 07 30 04 30 32.0000000  0 10                                             
G05  23277090.021 7 122321948.394 7      -314.792 7        42.961               
G07  28296066.695 7 148694742.582 7     -2433.379 7        42.969               
G11  25842307.686 7 135802205.305 7     -3268.989 7        47.462               
G13  22411911.955 7 117775392.500 7      -353.719 7        44.819               
G15  23353893.833 7 122725562.931 7      1857.374 7        46.243               
G18  26365215.588 6 138550112.426 6      3331.119 6        39.379               
G20  24137037.376 7 126840964.778 7     -1506.247 7        45.787               
G21  24784147.943 7 130241569.488 7     -1881.517 7        46.016               
G24  27499642.412 6 144511619.525 6      3967.916 6        38.960               
G30  25886705.275 7 136035530.878 7     -1363.021 7        43.383               
> 2025 07 30 04 30 33.0000000  0 10                                             
G05  23277145.486 7 122322270.709 7      -324.557 7        42.975               
G07  28296528.895 7 148697175.687 7     -2430.947 7        43.332               
G11  25842929.439 7 135805475.143 7     -3267.966 7        47.870               
G13  22411980.090 7 117775742.938 7      -353.041 7        44.975               
G15  23353540.920 7 122723705.435 7      1857.589 7        46.209               
G18  26364579.969 6 138546775.996 6      3331.786 6        38.971               
G20  24137324.174 7 126842470.598 7     -1505.086 7        46.203               
G21  24784505.109 7 130243453.762 7     -1883.770 7        46.053               
G24  27498882.710 6 144507641.754 6      3975.919 6        39.296               
G30  25886965.966 7 136036889.722 7     -1356.935 7        43.738               
> 2025 07 30 04 30 34.0000000  0 10                                             
G05  23277208.814 7 122322593.328 7      -323.029 7        42.865               
G07  28296993.168 7 148699609.114 7     -2434.177 7        43.174               
G11  25843551.442 7 135808745.290 7     -3273.070 7        47.402               
G13  22412045.223 7 117776094.001 7      -351.688 7        45.487               
G15  23353189.722 7 122721848.409 7      1856.343 7        46.707               
G18  26363942.492 6 138543439.772 6      3335.835 6        39.124               
G20  24137611.865 7 126843976.684 7     -1505.845 7        46.758               
G21  24784862.472 7 130245338.227 7     -1888.437 7        45.585               
G24  27498123.670 6 144503663.933 6      3980.781 6        38.586               
G30  25887222.941 7 136038249.126 7     -1358.018 7        43.627               
> 2025 07 30 04 30 35.0000000  0 10                                             
G05  23277268.514 7 122322916.235 7      -322.292 7        43.259               
G07  28297459.067 7 148702042.884 7     -2432.793 7        44.060               
G11  25844172.551 7 135812015.730 7     -3270.206 7        47.603               
G13  22412110.570 7 117776445.665 7      -353.879 7        44.682               
G15  23352835.451 7 122719991.828 7      1858.861 7        46.344               
G18  26363307.051 6 138540103.775 6      3335.084 6        38.995               
G20  24137898.699 7 126845483.068 7     -1505.734 7        47.077               
G21  24785224.534 7 130247222.887 7     -1885.870 7        45.141               
G24  27497373.421 6 144499686.103 6      3985.995 6        38.710               
G30  25887480.987 7 136039609.090 7     -1363.369 7        43.763               
> 2025 07 30 04 30 36.0000000  0 10                                             
G05  23277328.572 7 122323239.469 7      -321.778 7        43.790               
G07  28297920.964 7 148704476.962 7     -2436.765 7        44.334               
G11  25844794.732 7 135815286.484 7     -3272.121 7        47.570               
G13  22412175.649 7 117776797.957 7      -355.998 7        44.075               
G15  23352479.732 7 122718135.703 7      1854.721 7        46.437               
G18  26362672.183 6 138536767.973 6      3333.381 6        39.384               
G20  24138183.245 7 126846989.743 7     -1505.052 7        46.649               
G21  24785581.307 7 130249107.735 7     -1884.336 7        45.660               
G24  27496610.968 6 144495708.216 6      3980.158 6        39.207               
G30  25887739.409 7 136040969.602 7     -1362.090 7        43.128               
> 2025 07 30 04 30 37.0000000  0 10                                             
G05  23277391.578 7 122323562.982 7      -326.355 7        43.035               
G07  28298382.038 7 148706911.388 7     -2434.462 7        44.008               
G11  25845416.646 7 135818557.532 7     -3269.704 7        47.021               
G13  22412245.463 7 117777150.876 7      -353.059 7        44.401               
G15  23352125.783 7 122716280.035 7      1855.822 7        46.697               
G18  26362041.621 6 138533432.372 6      3335.675 6        39.632               
G20  24138471.526 7 126848496.687 7     -1508.495 7        46.049               
G21  24785940.027 7 130250992.805 7     -1883.759 7        45.234               
G24  27495858.271 6 144491730.286 6      3978.365 6        38.884               
G30  25887999.868 7 136042330.672 7     -1361.563 7        43.087               
> 2025 07 30 04 30 38.0000000  0 10                                             
G05  23277458.444 7 122323886.792 7      -322.312 7        43.632               
G07  28298845.471 7 148709346.097 7     -2430.518 7        43.504               
G11  25846038.738 7 135821828.883 7     -3271.162 7        47.208               
G13  22412310.113 7 117777504.385 7      -351.689 7        44.936               
G15  23351775.157 7 122714424.803 7      1856.846 7        46.151               
G18  26361401.642 6 138530096.968 6      3329.122 6        39.428               
G20  24138757.484 7 126850003.918 7     -1510.369 7        46.966               
G21  24786299.320 7 130252878.028 7     -1889.403 7        44.552               
G24  27495094.531 6 144487752.296 6      3979.248 6        39.044               
G30  25888258.897 7 136043692.285 7     -1365.659 7        42.805               
> 2025 07 30 04 30 39.0000000  0 10                                             
G05  23277522.755 7 122324210.919 7      -327.043 7        43.635               
G07  28299305.045 7 148711781.183 7     -2438.050 7        43.352               
G11  25846662.599 7 135825100.554 7     -3271.238 7        46.564               
G13  22412377.962 7 117777858.529 7      -354.946 7        44.994               
G15  23351422.315 7 122712570.061 7      1854.195 7        46.370               
G18  26360770.812 6 138526761.776 6      3338.897 6        39.789               
G20  24139046.551 7 126851511.451 7     -1508.884 7        46.201               
G21  24786655.843 7 130254763.484 7     -1890.366 7        44.468               
G24  27494338.761 6 144483774.296 6      3975.240 6        38.292               
G30  25888519.231 7 136045054.489 7     -1357.870 7        43.355               
> 2025 07 30 04 30 40.0000000  0 10                                             
G05  23277589.531 7 122324535.321 7      -324.807 7        44.122               
G07  28299769.961 7 148714216.578 7     -2434.614 7        43.768               
G11  25847286.603 7 135828372.500 7     -3276.056 7        46.705               
G13  22412447.347 7 117778213.278 7      -359.131 7        45.007               
G15  23351067.454 7 122710715.744 7      1855.354 7        46.659               
G18  26360139.142 6 138523426.779 6      3338.435 6        39.528               
G20  24139333.957 7 126853019.238 7     -1508.583 7        46.393               
G21  24787017.994 7 130256649.098 7     -1885.680 7        44.363               
G24  27493582.776 6 144479796.240 6      3975.184 6        38.680               
G30  25888775.455 7 136046417.223 7     -1361.396 7        43.344               
> 2025 07 30 04 30 41.0000000  0 10                                             
G05  23277649.947 7 122324859.934 7      -323.957 7        44.206               
G07  28300231.411 7 148716652.208 7     -2433.942 7        44.218               
G11  25847906.462 7 135831644.654 7     -3271.601 7        46.536               
G13  22412513.248 7 117778568.528 7      -356.890 7        45.387               
G15  23350713.719 7 122708861.780 7      1856.009 7        46.281               
G18  26359502.165 6 138520091.894 6      3337.484 6        39.502               
G20  24139617.592 7 126854527.210 7     -1507.982 7        46.639               
G21  24787371.640 7 130258534.836 7     -1890.459 7        44.227               
G24  27492828.310 6 144475818.023 6      3971.877 6        38.894               
G30  25889037.361 7 136047780.433 7     -1368.060 7        42.977               
> 2025 07 30 04 30 42.0000000  0 10                                             
G05  23277716.241 7 122325184.879 7      -325.127 7        44.417               
G07  28300697.292 7 148719088.202 7     -2438.985 7        44.687               
G11  25848531.288 7 135834917.151 7     -3274.570 7        46.201               
G13  22412581.561 7 117778924.448 7      -357.286 7        44.985               
G15  23350364.666 7 122707008.326 7      1853.518 7        46.788               
G18  26358869.619 6 138516757.237 6      3335.796 6        39.439               
G20  24139904.658 7 126856035.532 7     -1509.922 7        46.404               
G21  24787728.270 7 130260420.794 7     -1885.510 7        44.371               
G24  27492068.859 6 144471839.853 6      3982.437 6        39.109               
G30  25889292.209 7 136049144.233 7     -1359.471 7        43.350               
> 2025 07 30 04 30 43.0000000  0 10                                             
G05  23277773.761 7 122325510.109 7      -324.835 7        44.497               
G07  28301158.080 7 148721524.470 7     -2438.326 7        44.129               
G11  25849152.612 7 135838189.906 7     -3273.316 7        45.496               
G13  22412649.392 7 117779280.939 7      -357.132 7        44.941               
G15  23350008.768 7 122705155.276 7      1852.343 7        46.477               
G18  26358235.394 6 138513422.764 6      3329.384 6        39.933               
G20  24140191.241 7 126857544.070 7     -1508.681 7        46.839               
G21  24788085.704 7 130262306.914 7     -1883.186 7        44.332               
G24  27491320.576 6 144467861.564 6      3972.087 6        38.136               
G30  25889553.186 7 136050508.549 7     -1366.180 7        43.406               
> 2025 07 30 04 30 44.0000000  0 10                                             
G05  23277832.121 7 122325835.579 7      -322.495 7        44.552               
G07  28301620.566 7 148723961.036 7     -2436.023 7        43.868               
G11  25849773.239 7 135841462.933 7     -3274.568 7        46.217               
G13  22412718.938 7 117779638.004 7      -355.817 7        45.234               
G15  23349657.910 7 122703302.635 7      1849.291 7        46.190               
G18  26357603.098 6 138510088.426 6      3333.454 6        40.004               
G20  24140480.505 7 126859052.864 7     -1508.810 7        46.761               
G21  24788443.031 7 130264193.189 7     -1880.532 7        44.023               
G24  27490560.588 6 144463883.216 6      3978.533 6        39.180               
G30  25889813.484 7 136051873.369 7     -1364.629 7        43.490               
> 2025 07 30 04 30 45.0000000  0 10                                             
G05  23277892.125 7 122326161.292 7      -325.768 7        44.437               
G07  28302087.788 7 148726397.867 7     -2439.432 7        44.640               
G11  25850398.154 7 135844736.208 7     -3273.951 7        45.979               
G13  22412785.751 7 117779995.650 7      -358.939 7        45.167               
G15  23349305.533 7 122701450.405 7      1854.219 7        46.705               
G18  26356966.836 6 138506754.269 6      3333.345 6        39.778               
G20  24140768.428 7 126860561.902 7     -1512.198 7        46.581               
G21  24788804.521 7 130266079.611 7     -1886.157 7        43.814               
G24  27489798.778 6 144459904.740 6      3979.186 6        39.534               
G30  25890072.996 7 136053238.709 7     -1364.614 7        43.743               
> 2025 07 30 04 30 46.0000000  0 10                                             
G05  23277955.346 7 122326487.261 7      -327.423 7        44.489               
G07  28302556.260 7 148728834.984 7     -2432.528 7        44.342               
G11  25851019.550 7 135848009.742 7     -3275.788 7        47.064               
G13  22412855.922 7 117780353.859 7      -357.106 7        44.665               
G15  23348951.619 7 122699598.599 7      1851.045 7        46.314               
G18  26356331.074 6 138503420.282 6      3327.784 6        39.325               
G20  24141054.154 7 126862071.180 7     -1507.211 7        46.452               
G21  24789165.529 7 130267966.193 7     -1882.256 7        44.357               
G24  27489042.257 6 144455926.212 6      3986.270 6        39.400               
G30  25890335.724 7 136054604.575 7     -1362.217 7        43.961               
> 2025 07 30 04 30 47.0000000  0 10                                             
G05  23278014.725 7 122326813.500 7      -328.653 7        44.924               
G07  28303017.995 7 148731272.396 7     -2439.511 7        44.298               
G11  25851644.894 7 135851283.539 7     -3270.279 7        46.368               
G13  22412923.985 7 117780712.657 7      -358.629 7        45.222               
G15  23348597.366 7 122697747.210 7      1849.674 7        45.570               
G18  26355705.426 6 138500086.440 6      3324.995 6        39.891               
G20  24141341.166 7 126863580.715 7     -1510.313 7        46.224               
G21  24789528.145 7 130269852.935 7     -1886.189 7        44.444               
G24  27488280.554 6 144451947.620 6      3974.322 6        39.236               
G30  25890596.398 7 136055970.956 7     -1368.965 7        43.503               
> 2025 07 30 04 30 48.0000000  0 10                                             
G05  23278072.156 7 122327140.003 7      -330.425 7        43.978               
G07  28303480.392 7 148733710.115 7     -2436.161 7        43.692               
G11  25852268.380 7 135854557.611 7     -3272.572 7        46.855               
G13  22412988.850 7 117781072.039 7      -354.232 7        44.912               
G15  23348247.651 7 122695896.258 7      1848.747 7        45.659               
G18  26355061.695 6 138496752.797 6      3329.159 6        39.831               
G20  24141626.159 7 126865090.501 7     -1509.467 7        46.162               
G21  24789883.792 7 130271739.838 7     -1887.165 7        44.602               
G24  27487524.909 6 144447968.961 6      3972.581 6        38.869               
G30  25890856.035 7 136057337.853 7     -1363.388 7        43.048               
> 2025 07 30 04 30 49.0000000  0 10                                             
G05  23278133.125 7 122327466.725 7      -323.755 7        44.097               
G07  28303948.757 7 148736148.083 7     -2440.873 7        43.854               
G11  25852894.028 7 135857831.891 7     -3275.601 7        46.859               
G13  22413058.003 7 117781431.952 7      -359.566 7        44.302               
G15  23347897.454 7 122694045.675 7      1846.941 7        46.270               
G18  26354432.437 6 138493419.252 6      3339.251 6        39.899               
G20  24141911.956 7 126866600.494 7     -1507.988 7        46.706               
G21  24790241.298 7 130273626.855 7     -1889.640 7        44.828               
G24  27486764.118 6 144443990.146 6      3983.214 6        39.103               
G30  25891112.401 7 136058705.246 7     -1370.344 7        42.918               
> 2025 07 30 04 30 50.0000000  0 10                                             
G05  23278199.562 7 122327793.732 7      -324.632 7        44.204               
G07  28304414.227 7 148738586.327 7     -2439.189 7        43.044               
G11  25853515.816 7 135861106.448 7     -3277.301 7        47.260               
G13  22413125.691 7 117781792.461 7      -364.692 7        44.547               
G15  23347541.467 7 122692195.509 7      1848.262 7        45.963               
G18  26353803.126 6 138490085.879 6      3334.114 6        39.691               
G20  24142200.720 7 126868110.748 7     -1513.528 7        45.726               
G21  24790604.932 7 130275514.028 7     -1888.330 7        44.123               
G24  27486009.688 6 144440011.307 6      3984.142 6        38.619               
G30  25891370.377 7 136060073.143 7     -1365.665 7        43.395               
> 2025 07 30 04 30 51.0000000  0 10                                             
G05  23278263.748 7 122328121.027 7      -334.933 7        43.549               
G07  28304874.944 7 148741024.944 7     -2437.089 7        43.527               
G11  25854139.445 7 135864381.303 7     -3273.300 7        47.588               
G13  22413194.683 7 117782153.595 7      -363.147 7        44.685               
G15  23347194.719 7 122690345.791 7      1853.589 7        46.347               
G18  26353158.429 6 138486752.743 6      3337.457 6        39.861               
G20  24142489.894 7 126869621.279 7     -1510.288 7        46.198               
G21  24790962.152 7 130277401.408 7     -1889.752 7        44.421               
G24  27485250.004 6 144436032.383 6      3979.133 6        38.466               
G30  25891629.853 7 136061441.616 7     -1365.485 7        43.186               
> 2025 07 30 04 30 52.0000000  0 10                                             
G05  23278330.470 7 122328448.603 7      -327.109 7        44.134               
G07  28305338.663 7 148743463.840 7     -2439.439 7        43.717               
G11  25854761.770 7 135867656.448 7     -3277.725 7        47.582               
G13  22413265.016 7 117782515.329 7      -362.523 7        44.422               
G15  23346841.377 7 122688496.546 7      1846.555 7        46.475               
G18  26352524.329 6 138483419.781 6      3324.544 6        39.880               
G20  24142777.818 7 126871132.085 7     -1513.778 7        46.404               
G21  24791320.086 7 130279288.986 7     -1890.933 7        44.535               
G24  27484497.075 6 144432053.428 6      3982.942 6        38.341               
G30  25891891.080 7 136062810.627 7     -1369.445 7        43.092               
> 2025 07 30 04 30 53.0000000  0 10                                             
G05  23278391.136 7 122328776.472 7      -329.809 7        44.095               
G07  28305796.092 7 148745903.058 7     -2433.002 7        43.810               
G11  25855383.969 7 135870931.886 7     -3276.735 7        47.234               
G13  22413335.920 7 117782877.677 7      -363.115 7        44.119               
G15  23346487.391 7 122686647.732 7      1848.942 7        47.073               
G18  26351890.676 6 138480087.021 6      3335.188 6        39.532               
G20  24143066.867 7 126872643.147 7     -1509.605 7        46.735               
G21  24791678.664 7 130281176.716 7     -1887.804 7        44.671               
G24  27483735.318 6 144428074.441 6      3978.764 6        38.248               
G30  25892153.147 7 136064180.176 7     -1363.352 7        42.727               
> 2025 07 30 04 30 54.0000000  0 10                                             
G05  23278454.106 7 122329104.565 7      -320.812 7        45.093               
G07  28306270.122 7 148748342.551 7     -2437.459 7        43.802               
G11  25856007.419 7 135874207.545 7     -3277.651 7        47.708               
G13  22413404.644 7 117783240.552 7      -363.898 7        44.421               
G15  23346133.799 7 122684799.302 7      1842.475 7        46.176               
G18  26351252.555 6 138476754.410 6      3331.100 6        39.461               
G20  24143352.736 7 126874154.433 7     -1510.692 7        46.499               
G21  24792040.476 7 130283064.585 7     -1886.698 7        44.679               
G24  27482985.480 6 144424095.323 6      3977.667 6        38.125               
G30  25892414.213 7 136065550.215 7     -1371.153 7        43.069               
> 2025 07 30 04 30 55.0000000  0 10                                             
G05  23278521.794 7 122329433.011 7      -329.534 7        45.345               
G07  28306728.176 7 148750782.373 7     -2440.811 7        44.264               
G11  25856629.011 7 135877483.547 7     -3274.890 7        46.954               
G13  22413474.601 7 117783604.067 7      -360.293 7        44.571               
G15  23345784.871 7 122682951.355 7      1845.306 7        46.441               
G18  26350625.781 6 138473422.009 6      3336.620 6        39.327               
G20  24143641.463 7 126875666.039 7     -1518.279 7        45.896               
G21  24792398.571 7 130284952.679 7     -1891.543 7        44.509               
G24  27482228.406 6 144420116.185 6      3977.964 6        38.783               
G30  25892677.245 7 136066920.850 7     -1372.242 7        43.043               
> 2025 07 30 04 30 56.0000000  0 10                                             
G05  23278582.674 7 122329761.684 7      -333.131 7        44.058               
G07  28307192.664 7 148753222.469 7     -2440.276 7        43.698               
G11  25857254.355 7 135880759.800 7     -3278.577 7        46.779               
G13  22413542.182 7 117783968.170 7      -364.291 7        44.033               
G15  23345435.924 7 122681103.809 7      1847.507 7        45.935               
G18  26349982.907 6 138470089.766 6      3330.790 6        40.193               
G20  24143929.208 7 126877177.876 7     -1510.737 7        45.916               
G21  24792759.311 7 130286840.914 7     -1892.940 7        43.952               
G24  27481463.451 6 144416136.974 6      3981.068 6        37.757               
G30  25892938.008 7 136068291.983 7     -1369.820 7        43.523               
