     3.02           OBSERVATION DATA    G                   RINEX VERSION / TYPE
G = GPS  R = GLONASS  E = GALILEO  S = GEO  M = MIXED       COMMENT             
GNSS-SDR            suhjw               20250730 060030 UTC PGM / RUN BY / DATE 
GPS OBSERVATION DATA FILE GENERATED BY GNSS-SDR             COMMENT             
GNSS-SDR VERSION 0.0.20                                     COMMENT             
See https://gnss-sdr.org                                    COMMENT             
DEFAULT MARKER NAME                                         MARKER NAME         
suhjw               CTTC                                    OBSERVER / AGENCY   
GNSS-SDR            Software Receiver   0.0.20              REC # / TYPE / VERS 
Antenna number      Antenna type                            ANT # / TYPE        
        0.0000        0.0000        0.0000                  APPROX POSITION XYZ 
        0.0000        0.0000        0.0000                  ANTENNA: DELTA H/E/N
G    4 C1C L1C D1C S1C                                      SYS / # / OBS TYPES 
DBHZ                                                        SIGNAL STRENGTH UNIT
  2025    07    30    06    00   48.1200000     GPS         TIME OF FIRST OBS   
    18    18   137     7                                    LEAP SECONDS        
                                                            END OF HEADER       
> 2025 07 30 06 00 49.0000000  0  7                                             
G05  24586511.421 8 129202986.427 8     -2043.940 8        48.031               
G13  24216087.111 7 127256403.020 7     -2539.953 7        44.150               
G15  22769904.947 7 119656665.984 7      -421.311 7        43.007               
G18  24052973.237 7 126399221.929 7       927.127 7        45.462               
G20  26562904.610 7 139589012.034 7     -2937.651 7        45.401               
G21  27339772.123 7 143671464.095 7     -2832.197 7        43.870               
G24  23870781.912 7 125441795.692 7      2774.614 7        42.468               
> 2025 07 30 06 00 50.0000000  0  7                                             
G05  24586900.822 8 129205028.944 8     -2042.246 8        48.402               
G13  24216570.503 7 127258944.059 7     -2540.797 7        44.515               
G15  22769983.874 7 119657089.461 7      -422.180 7        42.883               
G18  24052798.138 7 126398292.802 7       925.184 7        45.679               
G20  26563462.677 7 139591947.773 7     -2937.223 7        45.386               
G21  27340311.106 7 143674293.136 7     -2829.994 7        43.765               
G24  23870253.954 7 125439023.350 7      2768.323 7        42.344               
> 2025 07 30 06 00 51.0000000  0  7                                             
G05  24587290.599 8 129207071.813 8     -2039.442 8        48.460               
G13  24217059.811 7 127261485.268 7     -2541.517 7        44.662               
G15  22770070.646 7 119657513.301 7      -428.293 7        43.093               
G18  24052620.556 7 126397364.325 7       929.014 7        45.658               
G20  26564022.156 7 139594883.719 7     -2936.837 7        44.920               
G21  27340846.570 7 143677122.344 7     -2830.249 7        44.102               
G24  23869726.889 7 125436251.511 7      2772.102 7        42.446               
> 2025 07 30 06 00 52.0000000  0  7                                             
G05  24587678.929 8 129209115.024 8     -2043.275 8        48.356               
G13  24217539.362 7 127264026.730 7     -2545.480 7        44.500               
G15  22770151.432 7 119657937.514 7      -423.402 7        42.793               
G18  24052447.709 7 126396436.537 7       926.194 7        45.847               
G20  26564581.689 7 139597819.919 7     -2934.782 7        45.284               
G21  27341381.461 7 143679951.724 7     -2825.448 7        44.121               
G24  23869203.309 7 125433480.186 7      2769.652 7        43.013               
> 2025 07 30 06 00 53.0000000  0  7                                             
G05  24588067.151 8 129211158.542 8     -2045.244 8        48.167               
G13  24218029.884 7 127266568.299 7     -2540.965 7        44.730               
G15  22770235.899 7 119658362.054 7      -429.158 7        43.169               
G18  24052268.983 7 126395509.363 7       928.479 7        45.643               
G20  26565141.115 7 139600756.275 7     -2937.571 7        45.422               
G21  27341923.679 7 143682781.209 7     -2830.414 7        44.382               
G24  23868677.298 7 125430709.328 7      2765.555 7        42.055               
> 2025 07 30 06 00 54.0000000  0  7                                             
G05  24588455.177 7 129213202.424 7     -2046.945 7        47.998               
G13  24218509.543 7 127269110.126 7     -2541.300 7        45.091               
G15  22770314.952 7 119658787.013 7      -430.269 7        42.663               
G18  24052091.383 7 126394582.895 7       930.005 7        45.556               
G20  26565697.502 7 139603692.925 7     -2934.534 7        44.802               
G21  27342464.878 7 143685610.893 7     -2830.436 7        44.222               
G24  23868147.642 7 125427939.015 7      2773.152 7        42.737               
> 2025 07 30 06 00 55.0000000  0  7                                             
G05  24588846.134 8 129215246.584 8     -2041.216 8        48.148               
G13  24218995.616 7 127271652.088 7     -2543.745 7        44.822               
G15  22770397.560 7 119659212.268 7      -426.370 7        43.673               
G18  24051913.425 7 126393657.041 7       928.529 7        44.851               
G20  26566256.874 7 139606629.729 7     -2935.710 7        45.230               
G21  27343000.662 7 143688440.682 7     -2828.458 7        43.864               
G24  23867618.844 7 125425169.154 7      2769.373 7        42.628               
> 2025 07 30 06 00 56.0000000  0  7                                             
G05  24589235.160 7 129217291.079 7     -2043.799 7        47.650               
G13  24219481.278 7 127274194.249 7     -2547.308 7        43.957               
G15  22770474.772 7 119659637.883 7      -426.382 7        43.788               
G18  24051736.182 7 126392731.856 7       929.524 7        44.824               
G20  26566816.907 7 139609566.767 7     -2937.065 7        44.388               
G21  27343538.109 7 143691270.627 7     -2835.364 7        43.922               
G24  23867093.781 7 125422399.800 7      2764.014 7        42.360               
> 2025 07 30 06 00 57.0000000  0  7                                             
G05  24589622.096 8 129219335.905 8     -2045.971 8        48.167               
G13  24219963.885 7 127276736.605 7     -2539.729 7        44.531               
G15  22770563.188 7 119660063.880 7      -427.313 7        43.702               
G18  24051561.584 7 126391807.339 7       925.973 7        45.162               
G20  26567375.618 7 139612504.018 7     -2935.119 7        44.801               
G21  27344074.484 7 143694100.742 7     -2828.964 7        44.413               
G24  23866567.199 7 125419630.952 7      2772.816 7        42.939               
> 2025 07 30 06 00 58.0000000  0  7                                             
G05  24590009.103 7 129221381.005 7     -2046.315 7        47.753               
G13  24220447.688 7 127279279.095 7     -2543.300 7        45.230               
G15  22770647.655 7 119660490.156 7      -423.129 7        43.815               
G18  24051384.127 7 126390883.418 7       921.626 7        45.015               
G20  26567937.509 7 139615441.449 7     -2940.264 7        45.605               
G21  27344614.432 7 143696930.929 7     -2829.205 7        44.245               
G24  23866043.243 7 125416862.559 7      2768.577 7        43.025               
> 2025 07 30 06 00 59.0000000  0  7                                             
G05  24590401.150 7 129223426.476 7     -2041.464 7        47.887               
G13  24220929.366 7 127281821.812 7     -2537.713 7        45.257               
G15  22770728.745 7 119660916.853 7      -428.153 7        43.500               
G18  24051210.851 7 126389960.217 7       921.193 7        45.205               
G20  26568493.558 7 139618379.139 7     -2938.477 7        44.718               
G21  27345154.755 7 143699761.326 7     -2827.786 7        43.843               
G24  23865509.156 7 125414094.703 7      2771.975 7        43.295               
> 2025 07 30 06 01 00.0000000  0  7                                             
G05  24590791.016 8 129225472.254 8     -2046.304 8        48.369               
G13  24221414.474 7 127284364.709 7     -2539.471 7        44.712               
G15  22770810.209 7 119661343.865 7      -426.634 7        43.725               
G18  24051033.751 7 126389037.616 7       926.114 7        45.125               
G20  26569052.715 7 139621317.030 7     -2938.373 7        45.405               
G21  27345694.471 7 143702591.858 7     -2833.181 7        43.473               
G24  23864982.788 7 125411327.322 7      2764.844 7        43.004               
> 2025 07 30 06 01 01.0000000  0  7                                             
G05  24591178.041 8 129227518.376 8     -2044.838 8        48.025               
G13  24221900.583 7 127286907.788 7     -2545.716 7        45.296               
G15  22770888.065 7 119661771.260 7      -425.532 7        43.635               
G18  24050859.725 7 126388115.702 7       922.991 7        45.170               
G20  26569613.195 7 139624255.142 7     -2939.172 7        45.158               
G21  27346230.042 7 143705422.530 7     -2828.876 7        43.406               
G24  23864457.707 7 125408560.435 7      2763.754 7        42.874               
> 2025 07 30 06 01 02.0000000  0  7                                             
G05  24591567.782 7 129229564.828 7     -2047.048 7        47.685               
G13  24222381.456 7 127289451.077 7     -2546.899 7        44.591               
G15  22770969.244 7 119662199.015 7      -428.892 7        42.960               
G18  24050681.892 7 126387194.455 7       920.107 7        45.290               
G20  26570170.726 7 139627193.489 7     -2942.072 7        45.696               
G21  27346769.186 7 143708253.375 7     -2830.862 7        43.778               
G24  23863932.197 7 125405794.075 7      2766.365 7        42.781               
> 2025 07 30 06 01 03.0000000  0  7                                             
G05  24591959.829 8 129231611.540 8     -2046.228 8        48.226               
G13  24222863.491 7 127291994.476 7     -2546.803 7        44.538               
G15  22771045.026 7 119662627.061 7      -426.079 7        43.164               
G18  24050506.114 7 126386273.796 7       918.930 7        45.078               
G20  26570732.314 7 139630131.975 7     -2939.304 7        44.938               
G21  27347306.364 7 143711084.312 7     -2831.315 7        43.236               
G24  23863401.344 7 125403028.154 7      2765.539 7        43.159               
> 2025 07 30 06 01 04.0000000  0  7                                             
G05  24592346.014 7 129233658.635 7     -2045.992 7        47.658               
G13  24223349.064 7 127294538.116 7     -2548.014 7        45.103               
G15  22771127.653 7 119663055.530 7      -429.175 7        43.371               
G18  24050330.605 7 126385353.861 7       921.579 7        45.065               
G20  26571292.150 7 139633070.745 7     -2934.968 7        44.985               
G21  27347845.651 7 143713915.454 7     -2832.051 7        43.570               
G24  23862883.035 7 125400262.753 7      2764.953 7        42.927               
> 2025 07 30 06 01 05.0000000  0  7                                             
G05  24592736.023 7 129235706.082 7     -2046.346 7        47.977               
G13  24223831.795 7 127297081.959 7     -2539.440 7        45.001               
G15  22771204.293 7 119663484.353 7      -432.676 7        43.130               
G18  24050158.830 7 126384434.583 7       920.266 7        45.350               
G20  26571848.413 7 139636009.734 7     -2938.529 7        45.218               
G21  27348390.889 7 143716746.741 7     -2830.152 7        43.876               
G24  23862359.526 7 125397497.889 7      2762.347 7        43.060               
> 2025 07 30 06 01 06.0000000  0  7                                             
G05  24593125.103 7 129237753.891 7     -2044.350 7        47.856               
G13  24224313.509 7 127299626.036 7     -2544.972 7        45.113               
G15  22771286.937 7 119663913.586 7      -425.349 7        42.790               
G18  24049986.751 7 126383516.019 7       918.373 7        45.297               
G20  26572410.501 7 139638949.006 7     -2939.277 7        44.787               
G21  27348925.226 7 143719578.227 7     -2829.267 7        44.091               
G24  23861830.192 7 125394733.571 7      2763.380 7        42.655               
> 2025 07 30 06 01 07.0000000  0  7                                             
G05  24593513.773 7 129239802.012 7     -2048.727 7        47.308               
G13  24224798.045 7 127302170.281 7     -2545.968 7        44.968               
G15  22771370.993 7 119664343.151 7      -428.850 7        43.074               
G18  24049810.402 7 126382598.072 7       916.006 7        45.635               
G20  26572967.479 7 139641888.448 7     -2939.177 7        44.644               
G21  27349462.137 7 143722409.847 7     -2831.685 7        43.832               
G24  23861302.449 7 125391969.726 7      2767.054 7        42.373               
> 2025 07 30 06 01 08.0000000  0  7                                             
G05  24593906.337 8 129241850.510 8     -2051.522 8        48.238               
G13  24225283.457 7 127304714.755 7     -2541.845 7        44.862               
G15  22771452.637 7 119664773.120 7      -429.926 7        43.483               
G18  24049634.178 7 126381680.833 7       913.956 7        44.974               
G20  26573530.031 7 139644828.164 7     -2939.366 7        45.515               
G21  27350001.388 7 143725241.671 7     -2831.008 7        43.035               
G24  23860775.616 7 125389206.446 7      2758.984 7        42.654               
> 2025 07 30 06 01 09.0000000  0  7                                             
G05  24594297.687 8 129243899.348 8     -2046.855 8        48.462               
G13  24225771.442 7 127307259.433 7     -2540.684 7        44.587               
G15  22771538.837 7 119665203.467 7      -431.483 7        43.989               
G18  24049461.045 7 126380764.263 7       916.131 7        45.157               
G20  26574090.279 7 139647768.114 7     -2941.394 7        45.162               
G21  27350543.088 7 143728073.643 7     -2832.985 7        42.752               
G24  23860252.894 7 125386443.637 7      2767.875 7        42.764               
> 2025 07 30 06 01 10.0000000  0  7                                             
G05  24594687.875 8 129245948.449 8     -2047.257 8        48.339               
G13  24226255.764 7 127309804.228 7     -2543.904 7        44.793               
G15  22771616.889 7 119665634.113 7      -430.684 7        44.076               
G18  24049283.641 7 126379848.307 7       915.578 7        44.696               
G20  26574648.257 7 139650708.209 7     -2938.973 7        45.214               
G21  27351081.714 7 143730905.717 7     -2831.699 7        42.741               
G24  23859725.650 7 125383681.296 7      2755.930 7        43.766               
> 2025 07 30 06 01 11.0000000  0  7                                             
G05  24595078.295 7 129247997.895 7     -2049.361 7        47.956               
G13  24226738.817 7 127312349.238 7     -2544.506 7        44.862               
G15  22771700.480 7 119666065.117 7      -427.963 7        43.720               
G18  24049108.560 7 126378933.025 7       910.986 7        45.161               
G20  26575205.127 7 139653648.551 7     -2936.807 7        45.587               
G21  27351621.019 7 143733737.955 7     -2836.290 7        42.916               
G24  23859198.836 7 125380919.453 7      2760.327 7        43.257               
> 2025 07 30 06 01 12.0000000  0  8                                             
G05  24595470.091 8 129250047.685 8     -2049.584 8        48.333               
G13  24227224.086 7 127314894.448 7     -2541.819 7        45.088               
G15  22771782.016 7 119666496.509 7      -429.189 7        43.408               
G18  24048933.712 7 126378018.379 7       918.166 7        44.572               
G20  26575769.055 7 139656589.110 7     -2938.575 7        45.952               
G21  27352163.201 7 143736570.346 7     -2832.239 7        43.029               
G23  25193333.899 6 132391862.004 6      2701.862 6        41.427               
G24  23858676.864 7 125378158.110 7      2766.254 7        43.236               
> 2025 07 30 06 01 13.0000000  0  8                                             
G05  24595857.974 7 129252097.760 7     -2050.646 7        47.791               
G13  24227711.107 7 127317439.797 7     -2541.484 7        44.883               
G15  22771860.283 7 119666928.221 7      -434.035 7        42.858               
G18  24048757.148 7 126377104.397 7       914.611 7        44.425               
G20  26576327.319 7 139659529.849 7     -2938.978 7        45.480               
G21  27352699.468 7 143739402.852 7     -2832.341 7        43.316               
G23  25192819.700 6 132389159.361 6      2700.480 6        40.219               
G24  23858148.655 7 125375397.260 7      2756.052 7        43.233               
> 2025 07 30 06 01 14.0000000  0  8                                             
G05  24596249.484 7 129254148.193 7     -2051.191 7        47.586               
G13  24228190.014 7 127319985.337 7     -2546.944 7        44.356               
G15  22771944.589 7 119667360.303 7      -429.002 7        43.767               
G18  24048584.658 7 126376191.080 7       913.653 7        44.315               
G20  26576883.922 7 139662470.833 7     -2941.442 7        45.559               
G21  27353239.881 7 143742235.527 7     -2830.826 7        43.974               
G23  25192310.736 6 132386456.835 6      2704.497 6        41.079               
G24  23857623.628 7 125372636.917 7      2756.606 7        43.700               
> 2025 07 30 06 01 15.0000000  0  8                                             
G05  24596635.723 7 129256198.940 7     -2054.277 7        47.796               
G13  24228676.802 7 127322531.090 7     -2545.972 7        44.552               
G15  22772028.091 7 119667792.756 7      -431.209 7        43.675               
G18  24048409.596 7 126375278.426 7       912.061 7        44.274               
G20  26577445.652 7 139665412.039 7     -2941.570 7        45.300               
G21  27353776.791 7 143745068.361 7     -2832.389 7        44.560               
G23  25191792.016 6 132383754.348 6      2699.503 6        41.539               
G24  23857106.069 7 125369877.093 7      2757.989 7        44.051               
> 2025 07 30 06 01 16.0000000  0  8                                             
G05  24597025.071 7 129258250.049 7     -2055.025 7        47.827               
G13  24229158.158 7 127325077.047 7     -2541.763 7        45.207               
G15  22772113.808 7 119668225.572 7      -433.522 7        43.347               
G18  24048236.713 7 126374366.469 7       906.721 7        44.198               
G20  26578001.236 7 139668353.493 7     -2939.809 7        45.379               
G21  27354318.580 7 143747901.352 7     -2835.490 7        45.143               
G23  25191278.032 6 132381051.993 6      2696.705 6        41.413               
G24  23856580.345 7 125367117.773 7      2760.430 7        43.883               
> 2025 07 30 06 01 17.0000000  0  8                                             
G05  24597413.955 7 129260301.453 7     -2052.208 7        47.599               
G13  24229649.520 7 127327623.165 7     -2547.458 7        45.309               
G15  22772197.936 7 119668658.729 7      -429.157 7        43.309               
G18  24048064.813 7 126373455.111 7       912.138 7        44.632               
G20  26578560.197 7 139671295.123 7     -2938.983 7        45.207               
G21  27354856.170 7 143750734.483 7     -2833.491 7        45.587               
G23  25190761.438 6 132378349.672 6      2703.675 6        41.043               
G24  23856053.977 7 125364358.946 7      2758.937 7        43.398               
> 2025 07 30 06 01 18.0000000  0  8                                             
G05  24597803.964 7 129262353.250 7     -2047.821 7        47.460               
G13  24230125.712 7 127330169.517 7     -2543.977 7        44.798               
G15  22772285.958 7 119669092.277 7      -435.636 7        43.844               
G18  24047896.504 7 126372544.490 7       912.817 7        44.539               
G20  26579120.391 7 139674237.029 7     -2942.931 7        45.082               
G21  27355395.260 7 143753567.808 7     -2834.243 7        45.697               
G23  25190249.759 6 132375647.518 6      2698.577 6        41.284               
G24  23855532.648 7 125361600.671 7      2754.527 7        44.097               
> 2025 07 30 06 01 19.0000000  0  8                                             
G05  24598199.155 7 129264405.373 7     -2050.494 7        47.556               
G13  24230612.446 7 127332716.059 7     -2540.752 7        44.242               
G15  22772368.192 7 119669526.223 7      -429.277 7        43.984               
G18  24047718.565 7 126371634.534 7       905.009 7        43.751               
G20  26579681.478 7 139677179.172 7     -2940.993 7        44.925               
G21  27355932.760 7 143756401.289 7     -2832.165 7        45.368               
G23  25189734.648 6 132372945.427 6      2703.347 6        41.045               
G24  23855003.564 7 125358842.933 7      2756.328 7        43.795               
> 2025 07 30 06 01 20.0000000  0  8                                             
G05  24598590.505 7 129266457.860 7     -2050.623 7        47.946               
G13  24231093.123 7 127335262.851 7     -2549.328 7        43.959               
G15  22772451.122 7 119669960.546 7      -435.079 7        44.100               
G18  24047548.809 7 126370725.252 7       907.767 7        44.004               
G20  26580243.530 7 139680121.564 7     -2943.413 7        44.221               
G21  27356475.764 7 143759234.943 7     -2836.295 7        45.343               
G23  25189220.021 6 132370243.475 6      2701.211 6        41.409               
G24  23854477.000 7 125356085.674 7      2759.233 7        43.750               
> 2025 07 30 06 01 21.0000000  0  8                                             
G05  24598984.392 8 129268510.648 8     -2050.001 8        48.390               
G13  24231578.642 7 127337809.784 7     -2545.445 7        44.125               
G15  22772530.460 7 119670395.199 7      -435.040 7        43.527               
G18  24047373.657 7 126369816.619 7       904.223 7        44.216               
G20  26580802.759 7 139683064.121 7     -2940.554 7        44.427               
G21  27357013.657 7 143762068.734 7     -2837.212 7        45.095               
G23  25188710.057 6 132367541.549 6      2700.820 6        41.096               
G24  23853951.347 7 125353328.914 7      2757.559 7        43.540               
> 2025 07 30 06 01 22.0000000  0  8                                             
G05  24599375.706 7 129270563.775 7     -2058.144 7        47.901               
G13  24232065.234 7 127340356.907 7     -2545.025 7        44.264               
G15  22772615.856 7 119670830.227 7      -431.093 7        44.086               
G18  24047199.291 7 126368908.634 7       906.485 7        44.460               
G20  26581360.773 7 139686006.908 7     -2940.139 7        44.908               
G21  27357553.177 7 143764902.668 7     -2835.610 7        44.497               
G23  25188198.216 6 132364839.710 6      2706.873 6        41.424               
G24  23853428.678 7 125350572.667 7      2754.746 7        42.948               
> 2025 07 30 06 01 23.0000000  0  8                                             
G05  24599764.553 8 129272617.210 8     -2052.363 8        48.169               
G13  24232547.054 7 127342904.222 7     -2547.988 7        44.449               
G15  22772691.478 7 119671265.601 7      -438.419 7        43.464               
G18  24047020.154 7 126368001.326 7       909.850 7        44.277               
G20  26581919.663 7 139688949.903 7     -2944.696 7        44.577               
G21  27358090.248 7 143767736.756 7     -2835.911 7        44.448               
G23  25187679.925 6 132362137.968 6      2701.197 6        41.389               
G24  23852897.378 7 125347816.898 7      2753.699 7        43.129               
> 2025 07 30 06 01 24.0000000  0  8                                             
G05  24600153.812 8 129274670.953 8     -2052.476 8        48.236               
G13  24233033.574 7 127345451.686 7     -2548.281 7        44.437               
G15  22772778.607 7 119671701.301 7      -435.960 7        43.935               
G18  24046850.094 7 126367094.657 7       902.657 7        44.076               
G20  26582480.428 7 139691893.103 7     -2941.963 7        44.206               
G21  27358631.161 7 143770570.953 7     -2835.327 7        43.715               
G23  25187164.886 6 132359436.263 6      2696.451 6        41.182               
G24  23852375.585 7 125345061.613 7      2756.626 7        43.208               
> 2025 07 30 06 01 25.0000000  0  8                                             
G05  24600543.285 7 129276725.026 7     -2055.465 7        47.674               
G13  24233520.594 7 127347999.333 7     -2543.832 7        44.854               
G15  22772860.287 7 119672137.345 7      -435.152 7        44.299               
G18  24046678.570 7 126366188.612 7       904.457 7        44.195               
G20  26583040.497 7 139694836.497 7     -2943.818 7        44.693               
G21  27359170.127 7 143773405.296 7     -2835.796 7        43.823               
G23  25186648.472 6 132356734.637 6      2702.881 6        41.576               
G24  23851850.325 7 125342306.827 7      2754.239 7        43.456               
> 2025 07 30 06 01 26.0000000  0  8                                             
G05  24600932.044 7 129278779.461 7     -2050.850 7        47.626               
G13  24234008.972 7 127350547.191 7     -2548.418 7        44.798               
G15  22772943.807 7 119672573.776 7      -436.987 7        43.983               
G18  24046505.383 7 126365283.259 7       904.667 7        43.740               
G20  26583604.783 7 139697780.153 7     -2940.929 7        44.740               
G21  27359711.380 7 143776239.816 7     -2833.041 7        43.994               
G23  25186132.789 6 132354033.122 6      2707.059 6        40.781               
G24  23851325.262 7 125339552.571 7      2754.355 7        42.634               
> 2025 07 30 06 01 27.0000000  0  8                                             
G05  24601320.784 7 129280834.201 7     -2055.471 7        47.732               
G13  24234491.364 7 127353095.236 7     -2548.303 7        44.768               
G15  22773021.215 7 119673010.569 7      -436.283 7        43.494               
G18  24046335.949 7 126364378.579 7       904.854 7        44.720               
G20  26584161.546 7 139700724.026 7     -2944.479 7        45.216               
G21  27360247.772 7 143779074.476 7     -2835.237 7        43.331               
G23  25185618.751 6 132351331.698 6      2704.545 6        41.199               
G24  23850801.199 7 125336798.804 7      2760.065 7        42.450               
> 2025 07 30 06 01 28.0000000  0  8                                             
G05  24601713.581 7 129282889.319 7     -2056.199 7        47.524               
G13  24234977.027 7 127355643.495 7     -2549.729 7        45.462               
G15  22773109.452 7 119673447.754 7      -442.670 7        43.894               
G18  24046162.083 7 126363474.566 7       903.886 7        44.552               
G20  26584724.849 7 139703668.132 7     -2941.551 7        45.157               
G21  27360786.863 7 143781909.319 7     -2832.566 7        43.235               
G23  25185104.963 6 132348630.355 6      2702.857 6        41.218               
G24  23850274.617 7 125334045.575 7      2748.094 7        42.260               
> 2025 07 30 06 01 29.0000000  0  8                                             
G05  24602105.109 7 129284944.767 7     -2056.209 7        47.532               
G13  24235463.904 7 127358191.949 7     -2549.511 7        45.393               
G15  22773191.257 7 119673885.298 7      -440.138 7        43.530               
G18  24045991.095 7 126362571.234 7       902.557 7        44.530               
G20  26585285.490 7 139706612.472 7     -2946.841 7        44.849               
G21  27361325.917 7 143784744.321 7     -2835.387 7        43.329               
G23  25184590.121 6 132345929.128 6      2705.172 6        40.820               
G24  23849748.338 7 125331292.845 7      2755.464 7        42.211               
> 2025 07 30 06 01 30.0000000  0  8                                             
G05  24602497.888 7 129287000.586 7     -2053.947 7        47.983               
G13  24235946.796 7 127360740.642 7     -2546.066 7        45.385               
G15  22773273.454 7 119674323.242 7      -439.949 7        43.174               
G18  24045821.357 7 126361668.592 7       905.645 7        44.313               
G20  26585845.040 7 139709557.056 7     -2946.903 7        44.226               
G21  27361863.257 7 143787579.503 7     -2835.898 7        43.194               
G23  25184077.298 6 132343228.000 6      2698.002 6        41.403               
G24  23849229.065 7 125328540.678 7      2756.088 7        42.097               
> 2025 07 30 06 01 31.0000000  0  8                                             
G05  24602891.632 8 129289056.732 8     -2058.333 8        48.457               
G13  24236433.799 7 127363289.503 7     -2551.593 7        44.732               
G15  22773358.493 7 119674761.545 7      -436.986 7        42.838               
G18  24045648.260 7 126360766.626 7       899.903 7        44.194               
G20  26586406.110 7 139712501.866 7     -2944.281 7        44.114               
G21  27362403.116 7 143790414.861 7     -2834.065 7        43.039               
G23  25183561.562 6 132340526.963 6      2702.346 6        41.121               
G24  23848706.271 7 125325788.986 7      2746.817 7        42.477               
> 2025 07 30 06 01 32.0000000  0  8                                             
G05  24603285.126 8 129291113.238 8     -2056.488 8        48.920               
G13  24236916.566 7 127365838.580 7     -2549.103 7        44.759               
G15  22773442.460 7 119675200.216 7      -441.239 7        43.510               
G18  24045478.969 7 126359865.331 7       896.062 7        44.327               
G20  26586963.123 7 139715446.911 7     -2944.718 7        44.533               
G21  27362946.495 7 143793250.380 7     -2837.771 7        43.393               
G23  25183048.543 6 132337826.026 6      2704.812 6        40.804               
G24  23848183.780 7 125323037.815 7      2749.289 7        42.741               
> 2025 07 30 06 01 33.0000000  0  8                                             
G05  24603676.797 8 129293169.992 8     -2057.679 8        49.415               
G13  24237405.230 7 127368387.782 7     -2551.269 7        44.578               
G15  22773523.496 7 119675639.197 7      -439.538 7        43.172               
G18  24045308.981 7 126358964.648 7       900.985 7        44.305               
G20  26587523.460 7 139718392.108 7     -2941.341 7        44.321               
G21  27363488.391 7 143796085.992 7     -2831.385 7        43.605               
G23  25182534.236 6 132335125.113 6      2701.694 6        40.414               
G24  23847662.112 7 125320287.107 7      2750.828 7        42.570               
> 2025 07 30 06 01 34.0000000  0  8                                             
G05  24604066.807 8 129295227.127 8     -2056.278 8        48.893               
G13  24237890.124 7 127370937.210 7     -2548.415 7        44.227               
G15  22773607.337 7 119676078.580 7      -442.109 7        43.782               
G18  24045139.296 7 126358064.646 7       895.619 7        44.386               
G20  26588087.299 7 139721337.584 7     -2942.430 7        44.556               
G21  27364026.909 7 143798921.798 7     -2835.791 7        44.270               
G23  25182018.358 6 132332424.326 6      2697.323 6        40.567               
G24  23847144.464 7 125317536.960 7      2749.260 7        42.791               
> 2025 07 30 06 01 35.0000000  0  8                                             
G05  24604457.459 8 129297284.605 8     -2059.034 8        49.082               
G13  24238373.213 7 127373486.828 7     -2548.183 7        44.322               
G15  22773693.823 7 119676518.314 7      -437.999 7        43.091               
G18  24044966.896 7 126357165.308 7       898.344 7        44.609               
G20  26588648.761 7 139724283.260 7     -2943.382 7        44.530               
G21  27364564.946 7 143801757.760 7     -2834.301 7        44.565               
G23  25181500.978 6 132329723.623 6      2700.364 6        40.434               
G24  23846619.240 7 125314787.330 7      2745.358 7        42.923               
> 2025 07 30 06 01 36.0000000  0  8                                             
G05  24604849.952 8 129299342.394 8     -2060.976 8        48.392               
G13  24238861.145 7 127376036.628 7     -2546.341 7        44.368               
G15  22773781.363 7 119676958.400 7      -440.329 7        43.305               
G18  24044801.411 7 126356266.638 7       900.059 7        44.840               
G20  26589209.313 7 139727229.158 7     -2945.251 7        44.138               
G21  27365107.163 7 143804593.852 7     -2832.888 7        44.558               
G23  25180992.247 6 132327022.997 6      2699.204 6        40.794               
G24  23846095.267 7 125312038.154 7      2748.732 7        43.560               
> 2025 07 30 06 01 37.0000000  0  8                                             
G05  24605239.390 8 129301400.521 8     -2060.962 8        48.238               
G13  24239346.146 7 127378586.611 7     -2551.525 7        44.628               
G15  22773868.511 7 119677398.852 7      -441.359 7        43.444               
G18  24044626.759 7 126355368.620 7       897.618 7        44.836               
G20  26589768.845 7 139730175.255 7     -2946.906 7        44.288               
G21  27365644.985 7 143807430.100 7     -2834.302 7        44.391               
G23  25180476.154 6 132324322.429 6      2705.085 6        40.113               
G24  23845567.773 7 125309289.487 7      2755.462 7        42.286               
> 2025 07 30 06 01 38.0000000  0  8                                             
G05  24605629.792 7 129303458.998 7     -2060.744 7        47.836               
G13  24239830.271 7 127381136.797 7     -2552.347 7        44.638               
G15  22773954.121 7 119677839.672 7      -440.929 7        43.601               
G18  24044455.645 7 126354471.286 7       896.832 7        44.351               
G20  26590327.806 7 139733121.591 7     -2946.611 7        44.642               
G21  27366186.524 7 143810266.500 7     -2834.255 7        44.187               
G23  25179961.240 6 132321621.981 6      2704.604 6        40.377               
G24  23845046.998 7 125306541.341 7      2748.987 7        42.901               
> 2025 07 30 06 01 39.0000000  0  8                                             
G05  24606018.443 7 129305517.835 7     -2057.378 7        47.956               
G13  24240315.647 7 127383687.163 7     -2549.442 7        44.526               
G15  22774035.622 7 119678280.848 7      -436.472 7        43.474               
G18  24044283.460 7 126353574.599 7       892.250 7        44.576               
G20  26590886.874 7 139736068.165 7     -2946.365 7        44.775               
G21  27366724.846 7 143813103.080 7     -2836.443 7        44.888               
G23  25179450.704 6 132318921.608 6      2698.076 6        40.044               
G24  23844522.185 7 125303793.711 7      2756.626 7        42.713               
> 2025 07 30 06 01 40.0000000  0  8                                             
G05  24606410.097 7 129307577.011 7     -2059.509 7        47.750               
G13  24240801.864 7 127386237.741 7     -2554.700 7        44.820               
G15  22774119.624 7 119678722.405 7      -439.644 7        43.872               
G18  24044112.149 7 126352678.593 7       899.555 7        44.080               
G20  26591447.944 7 139739014.960 7     -2947.654 7        45.198               
G21  27367268.422 7 143815939.806 7     -2838.246 7        43.847               
G23  25178931.537 6 132316221.368 6      2700.660 6        40.472               
G24  23843996.461 7 125301046.577 7      2751.562 7        42.497               
> 2025 07 30 06 01 41.0000000  0  8                                             
G05  24606804.001 7 129309636.429 7     -2059.288 7        47.598               
G13  24241290.206 7 127388788.418 7     -2554.462 7        44.610               
G15  22774199.552 7 119679164.243 7      -447.928 7        44.092               
G18  24043941.697 7 126351783.177 7       895.067 7        43.963               
G20  26592011.354 7 139741961.891 7     -2947.642 7        45.322               
G21  27367809.353 7 143818776.615 7     -2838.053 7        44.424               
G23  25178416.695 6 132313521.093 6      2703.190 6        40.084               
G24  23843474.953 7 125298299.905 7      2750.119 7        42.457               
> 2025 07 30 06 01 42.0000000  0  8                                             
G05  24607195.422 8 129311696.238 8     -2063.514 8        48.114               
G13  24241775.368 7 127391339.350 7     -2549.728 7        44.559               
G15  22774281.625 7 119679606.493 7      -443.739 7        44.863               
G18  24043774.443 7 126350888.478 7       892.501 7        43.830               
G20  26592570.565 7 139744909.102 7     -2946.925 7        45.305               
G21  27368343.547 7 143821613.628 7     -2838.015 7        44.324               
G23  25177905.516 6 132310820.971 6      2696.914 6        40.036               
G24  23842953.374 7 125295553.775 7      2747.721 7        42.153               
> 2025 07 30 06 01 43.0000000  0  8                                             
G05  24607587.058 7 129313756.394 7     -2060.103 7        47.618               
G13  24242258.493 7 127393890.489 7     -2545.344 7        44.551               
G15  22774363.500 7 119680049.117 7      -441.082 7        43.976               
G18  24043601.828 7 126349994.461 7       891.668 7        44.555               
G20  26593135.262 7 139747856.552 7     -2950.543 7        45.453               
G21  27368887.159 7 143824450.833 7     -2838.301 7        44.155               
G23  25177393.158 6 132308120.956 6      2701.547 6        41.145               
G24  23842430.116 7 125292808.165 7      2745.582 7        42.158               
> 2025 07 30 06 01 44.0000000  0  8                                             
G05  24607984.375 7 129315816.876 7     -2060.616 7        47.910               
G13  24242744.673 7 127396441.792 7     -2545.871 7        44.892               
G15  22774449.629 7 119680492.092 7      -442.171 7        43.695               
G18  24043432.429 7 126349101.088 7       892.201 7        44.217               
G20  26593691.864 7 139750804.208 7     -2947.235 7        45.582               
G21  27369424.159 7 143827288.157 7     -2836.695 7        43.553               
G23  25176882.908 6 132305421.008 6      2703.503 6        41.082               
G24  23841909.788 7 125290063.062 7      2740.274 7        42.375               
> 2025 07 30 06 01 45.0000000  0  8                                             
G05  24608376.315 8 129317877.707 8     -2062.937 8        48.114               
G13  24243226.386 7 127398993.318 7     -2552.591 7        44.703               
G15  22774533.095 7 119680935.444 7      -446.352 7        44.049               
G18  24043266.819 7 126348208.404 7       895.760 7        44.740               
G20  26594256.633 7 139753752.113 7     -2948.994 7        45.472               
G21  27369966.376 7 143830125.654 7     -2840.458 7        44.858               
G23  25176365.671 6 132302721.162 6      2707.046 6        40.503               
G24  23841390.567 7 125287318.501 7      2743.100 7        42.760               
> 2025 07 30 06 01 46.0000000  0  8                                             
G05  24608767.628 7 129319938.900 7     -2060.695 7        47.968               
G13  24243713.996 7 127401545.060 7     -2552.640 7        44.738               
G15  22774618.581 7 119681379.197 7      -444.457 7        43.696               
G18  24043092.382 7 126347316.411 7       894.903 7        44.889               
G20  26594814.593 7 139756700.269 7     -2947.342 7        45.338               
G21  27370506.843 7 143832963.337 7     -2837.113 7        45.493               
G23  25175856.815 6 132300021.463 6      2695.717 6        40.796               
G24  23840866.719 7 125284574.447 7      2748.960 7        42.521               
> 2025 07 30 06 01 47.0000000  0  8                                             
G05  24609161.247 8 129322000.398 8     -2062.282 8        49.091               
G13  24244194.798 7 127404097.005 7     -2546.788 7        44.459               
G15  22774701.833 7 119681823.311 7      -445.315 7        44.230               
G18  24042923.234 7 126346425.111 7       882.109 7        45.068               
G20  26595377.199 7 139759648.644 7     -2952.591 7        45.867               
G21  27371045.361 7 143835801.172 7     -2839.627 7        45.060               
G23  25175340.936 6 132297321.816 6      2709.422 6        40.492               
G24  23840341.191 7 125281830.924 7      2744.879 7        42.597               
> 2025 07 30 06 01 48.0000000  0  8                                             
G05  24609551.310 8 129324062.238 8     -2063.564 8        48.111               
G13  24244681.479 7 127406649.123 7     -2555.448 7        44.101               
G15  22774780.367 7 119682267.764 7      -444.892 7        43.182               
G18  24042754.407 7 126345534.441 7       888.640 7        44.802               
G20  26595934.748 7 139762597.222 7     -2949.185 7        45.650               
G21  27371586.614 7 143838639.145 7     -2838.186 7        45.573               
G23  25174822.466 6 132294622.261 6      2696.335 6        41.361               
G24  23839817.629 7 125279087.887 7      2737.312 7        42.522               
> 2025 07 30 06 01 49.0000000  0  8                                             
G05  24609947.288 8 129326124.391 8     -2063.846 8        48.330               
G13  24245168.570 7 127409201.434 7     -2555.654 7        43.992               
G15  22774863.672 7 119682712.589 7      -446.056 7        44.110               
G18  24042585.152 7 126344644.431 7       888.868 7        45.073               
G20  26596501.339 7 139765546.019 7     -2948.837 7        45.841               
G21  27372122.899 7 143841477.285 7     -2836.884 7        44.978               
G23  25174315.951 6 132291922.778 6      2707.322 6        41.252               
G24  23839301.071 7 125276345.341 7      2743.940 7        42.794               
> 2025 07 30 06 01 50.0000000  0  8                                             
G05  24610337.225 8 129328186.875 8     -2063.652 8        48.481               
G13  24245651.856 7 127411753.899 7     -2553.971 7        44.678               
G15  22774946.245 7 119683157.744 7      -447.601 7        44.235               
G18  24042415.664 7 126343755.083 7       888.386 7        44.547               
G20  26597062.016 7 139768495.020 7     -2952.757 7        45.586               
G21  27372669.155 7 143844315.557 7     -2840.593 7        44.090               
G23  25173802.074 6 132289223.380 6      2694.571 6        41.406               
G24  23838776.276 7 125273603.282 7      2744.096 7        42.293               
> 2025 07 30 06 01 51.0000000  0  8                                             
G05  24610730.326 8 129330249.687 8     -2063.448 8        48.149               
G13  24246130.388 7 127414306.560 7     -2551.758 7        43.825               
G15  22775029.032 7 119683603.267 7      -441.924 7        43.819               
G18  24042245.944 7 126342866.389 7       888.189 7        44.274               
G20  26597624.925 7 139771444.249 7     -2948.671 7        45.111               
G21  27373209.604 7 143847153.980 7     -2839.105 7        44.281               
G23  25173287.481 6 132286524.067 6      2702.168 6        41.191               
G24  23838254.143 6 125270861.776 6      2742.475 6        41.945               
> 2025 07 30 06 01 52.0000000  0  8                                             
G05  24611122.480 8 129332312.878 8     -2064.002 8        48.591               
G13  24246625.503 7 127416859.463 7     -2557.922 7        44.413               
G15  22775116.001 7 119684049.190 7      -445.471 7        43.403               
G18  24042073.490 7 126341978.409 7       886.217 7        44.553               
G20  26598185.084 7 139774393.725 7     -2949.443 7        45.537               
G21  27373748.266 7 143849992.601 7     -2837.780 7        44.361               
G23  25172773.640 6 132283824.870 6      2699.818 6        40.870               
G24  23837734.655 7 125268120.783 7      2738.269 7        42.069               
> 2025 07 30 06 01 53.0000000  0  8                                             
G05  24611512.953 8 129334376.393 8     -2059.105 8        48.030               
G13  24247111.112 7 127419412.538 7     -2552.538 7        44.564               
G15  22775201.844 7 119684495.498 7      -447.709 7        43.829               
G18  24041905.450 7 126341091.063 7       884.166 7        44.073               
G20  26598746.439 7 139777343.422 7     -2950.319 7        45.581               
G21  27374287.731 7 143852831.369 7     -2838.307 7        44.417               
G23  25172257.171 6 132281125.766 6      2698.962 6        40.941               
G24  23837210.342 7 125265380.311 7      2738.428 7        42.771               
> 2025 07 30 06 01 54.0000000  0  8                                             
G05  24611906.840 8 129336440.216 8     -2063.147 8        48.543               
G13  24247597.203 7 127421965.786 7     -2556.222 7        43.861               
G15  22775290.617 7 119684942.105 7      -447.915 7        43.540               
G18  24041737.892 7 126340204.402 7       882.350 7        44.469               
G20  26599307.794 7 139780293.331 7     -2947.950 7        45.090               
G21  27374825.714 7 143855670.281 7     -2835.903 7        44.131               
G23  25171748.494 6 132278426.729 6      2698.755 6        41.148               
G24  23836693.319 7 125262640.326 7      2742.405 7        42.711               
> 2025 07 30 06 01 55.0000000  0  8                                             
G05  24612299.173 8 129338504.401 8     -2062.953 8        48.222               
G13  24248083.151 7 127424519.221 7     -2558.028 7        44.036               
G15  22775377.603 7 119685389.108 7      -447.151 7        44.572               
G18  24041571.764 7 126339318.383 7       886.564 7        44.991               
G20  26599869.596 7 139783243.463 7     -2949.833 7        45.054               
G21  27375362.482 7 143858509.364 7     -2840.796 7        43.723               
G23  25171235.063 6 132275727.794 6      2700.500 6        41.275               
G24  23836166.916 7 125259900.865 7      2744.175 7        42.702               
> 2025 07 30 06 01 56.0000000  0  8                                             
G05  24612693.453 8 129340568.837 8     -2064.484 8        48.561               
G13  24248572.994 7 127427072.798 7     -2554.035 7        44.548               
G15  22775468.324 7 119685836.381 7      -445.512 7        44.397               
G18  24041399.757 7 126338432.982 7       884.442 7        44.873               
G20  26600429.487 7 139786193.749 7     -2948.855 7        44.729               
G21  27375909.703 7 143861348.504 7     -2837.125 7        43.584               
G23  25170725.653 6 132273028.854 6      2696.986 6        41.628               
G24  23835649.340 7 125257161.845 7      2732.405 7        42.312               
> 2025 07 30 06 01 57.0000000  0  8                                             
G05  24613082.944 8 129342633.633 8     -2064.662 8        48.021               
G13  24249061.033 7 127429626.592 7     -2550.940 7        44.724               
G15  22775549.843 7 119686284.085 7      -448.248 7        45.179               
G18  24041235.236 7 126337548.272 7       880.106 7        44.675               
G20  26600989.394 7 139789144.285 7     -2951.247 7        44.667               
G21  27376444.540 7 143864187.866 7     -2840.639 7        43.044               
G23  25170205.325 6 132270330.045 6      2701.584 6        41.413               
G24  23835126.957 6 125254423.356 6      2742.058 6        41.877               
> 2025 07 30 06 01 58.0000000  0  8                                             
G05  24613479.457 8 129344698.735 8     -2065.129 8        48.440               
G13  24249545.016 7 127432180.555 7     -2556.885 7        44.764               
G15  22775636.883 7 119686732.084 7      -446.039 7        44.999               
G18  24041068.465 7 126336664.199 7       885.181 7        44.750               
G20  26601549.910 7 139792095.017 7     -2951.450 7        44.639               
G21  27376985.972 7 143867027.318 7     -2838.064 7        43.283               
G23  25169695.772 6 132267631.310 6      2699.492 6        41.486               
G24  23834605.717 7 125251685.342 7      2738.418 7        42.697               
> 2025 07 30 06 01 59.0000000  0  8                                             
G05  24613872.486 8 129346764.188 8     -2065.110 8        48.119               
G13  24250027.497 7 127434734.714 7     -2555.175 7        44.818               
G15  22775725.942 7 119687180.464 7      -448.118 7        44.860               
G18  24040903.623 7 126335780.791 7       880.809 7        45.102               
G20  26602113.124 7 139795045.979 7     -2950.813 7        44.312               
G21  27377525.330 7 143869866.954 7     -2841.958 7        43.550               
G23  25169181.448 6 132264932.662 6      2694.903 6        41.146               
G24  23834082.923 7 125248947.866 7      2739.761 7        42.638               
> 2025 07 30 06 02 00.0000000  0  8                                             
G05  24614263.997 8 129348829.995 8     -2065.560 8        48.502               
G13  24250514.821 7 127437289.097 7     -2558.099 7        44.921               
G15  22775810.087 7 119687629.263 7      -451.581 7        45.002               
G18  24040732.885 7 126334898.102 7       881.306 7        44.728               
G20  26602671.638 7 139797997.211 7     -2949.493 7        43.527               
G21  27378070.979 7 143872706.777 7     -2842.241 7        43.609               
G23  25168667.463 6 132262234.134 6      2698.874 6        40.961               
G24  23833564.882 7 125246210.921 7      2734.108 7        42.608               
> 2025 07 30 06 02 01.0000000  0  8                                             
G05  24614658.741 8 129350896.115 8     -2068.178 8        48.243               
G13  24251001.252 7 127439843.641 7     -2553.681 7        44.723               
G15  22775896.430 7 119688078.381 7      -453.037 7        44.576               
G18  24040562.736 7 126334016.036 7       884.056 7        44.839               
G20  26603231.206 7 139800948.621 7     -2951.029 7        44.084               
G21  27378608.068 7 143875546.730 7     -2840.756 7        43.580               
G23  25168153.765 6 132259535.658 6      2699.859 6        41.000               
G24  23833043.161 7 125243474.461 7      2739.590 7        42.898               
> 2025 07 30 06 02 02.0000000  0  8                                             
G05  24615052.914 8 129352962.611 8     -2068.026 8        48.843               
G13  24251488.183 7 127442398.410 7     -2553.053 7        44.434               
G15  22775984.775 7 119688527.886 7      -448.280 7        45.018               
G18  24040399.234 7 126333134.704 7       882.871 7        44.844               
G20  26603792.079 7 139803900.293 7     -2949.327 7        44.127               
G21  27379150.875 7 143878386.864 7     -2840.381 7        43.126               
G23  25167636.278 6 132256837.343 6      2700.899 6        41.122               
G24  23832523.083 7 125240738.549 7      2729.075 7        42.572               
> 2025 07 30 06 02 03.0000000  0  8                                             
G05  24615448.338 8 129355029.435 8     -2066.949 8        48.871               
G13  24251977.115 7 127444953.369 7     -2552.065 7        44.304               
G15  22776071.993 7 119688977.759 7      -449.734 7        44.570               
G18  24040230.158 7 126332253.998 7       883.284 7        45.110               
G20  26604358.295 7 139806852.190 7     -2951.463 7        44.173               
G21  27379688.876 7 143881227.182 7     -2842.260 7        43.389               
G23  25167131.621 6 132254139.083 6      2696.431 6        41.620               
G24  23832006.864 7 125238003.149 7      2736.144 7        43.319               
> 2025 07 30 06 02 04.0000000  0  8                                             
G05  24615841.099 8 129357096.583 8     -2065.600 8        49.242               
G13  24252464.028 7 127447508.523 7     -2554.181 7        44.062               
G15  22776160.552 7 119689427.999 7      -450.031 7        45.161               
G18  24040061.009 7 126331373.974 7       878.437 7        45.210               
G20  26604920.186 7 139809804.299 7     -2952.193 7        43.568               
G21  27380227.109 7 143884067.651 7     -2837.966 7        43.198               
G23  25166613.312 6 132251440.907 6      2701.129 6        41.106               
G24  23831484.481 7 125235268.252 7      2728.575 7        43.690               
> 2025 07 30 06 02 05.0000000  0  8                                             
G05  24616234.360 8 129359164.110 8     -2068.207 8        48.575               
G13  24252948.082 7 127450063.896 7     -2553.483 7        44.443               
G15  22776243.071 7 119689878.639 7      -447.139 7        44.985               
G18  24039896.186 7 126330494.663 7       878.827 7        44.922               
G20  26605481.649 7 139812756.682 7     -2953.568 7        44.195               
G21  27380767.647 7 143886908.313 7     -2837.891 7        42.941               
G23  25166102.204 6 132248742.884 6      2695.243 6        41.317               
G24  23830968.120 7 125232533.889 7      2739.983 7        42.818               
> 2025 07 30 06 02 06.0000000  0  8                                             
G05  24616628.372 8 129361231.942 8     -2068.159 8        48.208               
G13  24253435.978 7 127452619.433 7     -2556.315 7        44.453               
G15  22776326.663 7 119690329.615 7      -453.710 7        44.616               
G18  24039726.001 7 126329615.989 7       879.486 7        44.861               
G20  26606044.327 7 139815709.237 7     -2951.386 7        44.279               
G21  27381310.132 7 143889749.060 7     -2843.583 7        42.963               
G23  25165580.197 6 132246044.925 6      2700.879 6        41.289               
G24  23830448.364 7 125229800.064 7      2732.599 7        42.957               
> 2025 07 30 06 02 07.0000000  0  8                                             
G05  24617018.739 8 129363300.138 8     -2067.566 8        48.247               
G13  24253923.248 7 127455175.172 7     -2558.830 7        44.872               
G15  22776412.130 7 119690780.976 7      -454.892 7        44.770               
G18  24039561.177 7 126328738.002 7       877.420 7        44.907               
G20  26606607.201 7 139818662.059 7     -2952.357 7        43.651               
G21  27381852.243 7 143892590.018 7     -2841.030 7        43.515               
G23  25165071.591 6 132243347.063 6      2694.136 6        41.525               
G24  23829921.603 7 125227066.742 7      2733.975 7        43.410               
> 2025 07 30 06 02 08.0000000  0  8                                             
G05  24617413.251 8 129365368.679 8     -2072.017 8        48.175               
G13  24254408.767 7 127457731.119 7     -2558.791 7        44.777               
G15  22776494.989 7 119691232.711 7      -454.402 7        44.828               
G18  24039393.101 7 126327860.691 7       875.384 7        44.975               
G20  26607168.967 7 139821615.114 7     -2950.452 7        44.142               
G21  27382393.871 7 143895431.117 7     -2839.376 7        43.974               
G23  25164565.379 6 132240649.290 6      2700.695 6        41.786               
G24  23829405.260 7 125224333.937 7      2733.482 7        42.477               
> 2025 07 30 06 02 09.0000000  0  8                                             
G05  24617806.370 7 129367437.579 7     -2069.639 7        47.981               
G13  24254898.361 7 127460287.281 7     -2557.626 7        44.705               
G15  22776577.186 7 119691684.843 7      -449.901 7        44.598               
G18  24039223.864 7 126326984.078 7       878.517 7        45.487               
G20  26607730.805 7 139824568.423 7     -2954.332 7        44.426               
G21  27382929.244 7 143898272.424 7     -2838.875 7        43.983               
G23  25164050.287 6 132237951.664 6      2698.263 6        41.798               
G24  23828882.394 7 125221601.681 7      2735.208 7        42.668               
> 2025 07 30 06 02 10.0000000  0  8                                             
G05  24618197.862 7 129369506.822 7     -2067.144 7        47.895               
G13  24255380.771 7 127462843.650 7     -2553.242 7        44.417               
G15  22776660.367 7 119692137.328 7      -452.075 7        45.214               
G18  24039057.699 7 126326108.135 7       875.777 7        45.581               
G20  26608293.715 7 139827521.950 7     -2953.621 7        44.344               
G21  27383468.085 7 143901113.868 7     -2842.318 7        44.097               
G23  25163534.658 6 132235254.113 6      2698.690 6        41.369               
G24  23828362.781 7 125218869.941 7      2729.383 7        43.124               
> 2025 07 30 06 02 11.0000000  0  8                                             
G05  24618593.161 8 129371576.389 8     -2069.628 8        48.536               
G13  24255867.791 7 127465400.202 7     -2558.428 7        44.853               
G15  22776743.940 7 119692590.176 7      -453.954 7        44.815               
G18  24038891.035 7 126325232.859 7       871.280 7        45.080               
G20  26608856.822 7 139830475.693 7     -2951.993 7        44.299               
G21  27384009.195 7 143903955.467 7     -2845.174 7        43.623               
G23  25163017.278 6 132232556.646 6      2696.034 6        41.108               
G24  23827839.379 7 125216138.684 7      2730.881 7        42.474               
> 2025 07 30 06 02 12.0000000  0  8                                             
G05  24618982.294 8 129373646.252 8     -2072.013 8        48.221               
G13  24256354.454 7 127467956.902 7     -2554.359 7        45.016               
G15  22776827.960 7 119693043.378 7      -456.153 7        44.759               
G18  24038725.354 7 126324358.237 7       869.699 7        44.858               
G20  26609416.015 7 139833429.630 7     -2954.028 7        44.127               
G21  27384549.339 7 143906797.200 7     -2840.474 7        42.974               
G23  25162504.777 6 132229859.270 6      2695.420 6        41.775               
G24  23827322.536 7 125213407.938 7      2732.739 7        42.268               
> 2025 07 30 06 02 13.0000000  0  8                                             
G05  24619380.792 8 129375716.466 8     -2068.290 8        48.111               
G13  24256843.707 7 127470513.783 7     -2552.982 7        44.963               
G15  22776916.644 7 119693496.898 7      -451.883 7        44.405               
G18  24038555.205 7 126323484.251 7       873.851 7        45.019               
G20  26609977.549 7 139836383.785 7     -2957.788 7        43.772               
G21  27385093.987 7 143909639.062 7     -2846.040 7        42.315               
G23  25161992.812 6 132227161.936 6      2695.379 6        41.747               
G24  23826800.081 7 125210677.698 7      2726.920 7        42.146               
> 2025 07 30 06 02 14.0000000  0  8                                             
G05  24619773.892 8 129377786.977 8     -2068.091 8        48.110               
G13  24257330.942 7 127473070.842 7     -2558.809 7        45.652               
G15  22777002.880 7 119693950.778 7      -454.637 7        44.778               
G18  24038394.026 7 126322610.911 7       870.818 7        45.289               
G20  26610540.298 7 139839338.135 7     -2956.897 7        43.804               
G21  27385639.546 7 143912481.061 7     -2843.956 7        42.448               
G23  25161478.505 6 132224464.679 6      2697.030 6        41.491               
G24  23826280.682 7 125207947.928 7      2721.329 7        42.867               
> 2025 07 30 06 02 15.0000000  0  8                                             
G05  24620166.332 8 129379857.765 8     -2071.614 8        48.244               
G13  24257814.549 7 127475628.030 7     -2556.470 7        45.150               
G15  22777090.635 7 119694404.960 7      -454.897 7        44.838               
G18  24038230.650 7 126321738.192 7       873.711 7        45.207               
G20  26611100.653 7 139842292.657 7     -2954.921 7        44.164               
G21  27386178.119 7 143915323.157 7     -2845.671 7        43.470               
G23  25160963.145 6 132221767.465 6      2697.135 6        41.750               
G24  23825757.603 7 125205218.607 7      2731.297 7        42.130               
> 2025 07 30 06 02 16.0000000  0  8                                             
G05  24620564.042 8 129381928.948 8     -2070.880 8        48.152               
G13  24258302.034 7 127478185.472 7     -2560.470 7        45.121               
G15  22777176.049 7 119694859.542 7      -456.815 7        45.300               
G18  24038061.591 7 126320866.175 7       872.035 7        45.257               
G20  26611664.402 7 139845247.440 7     -2953.671 7        44.339               
G21  27386718.335 7 143918165.468 7     -2838.742 7        43.372               
G23  25160447.230 6 132219070.378 6      2696.644 6        40.873               
G24  23825240.223 7 125202489.867 7      2730.100 7        42.266               
> 2025 07 30 06 02 17.0000000  0  8                                             
G05  24620958.126 8 129384000.449 8     -2072.776 8        48.213               
G13  24258787.464 7 127480743.081 7     -2558.000 7        45.504               
G15  22777266.091 7 119695314.496 7      -456.812 7        45.358               
G18  24037895.659 7 126319994.829 7       871.838 7        44.967               
G20  26612225.061 7 139848202.429 7     -2956.384 7        44.164               
G21  27387257.997 7 143921007.913 7     -2838.635 7        43.238               
G23  25159935.998 6 132216373.380 6      2698.212 6        41.152               
G24  23824724.451 7 125199761.623 7      2731.003 7        42.053               
> 2025 07 30 06 02 18.0000000  0  8                                             
G05  24621353.228 8 129386072.276 8     -2071.299 8        48.509               
G13  24259273.591 7 127483300.883 7     -2558.287 7        45.262               
G15  22777351.076 7 119695769.792 7      -455.865 7        45.314               
G18  24037730.835 7 126319124.136 7       871.685 7        44.994               
G20  26612789.990 7 139851157.648 7     -2956.035 7        44.607               
G21  27387799.250 7 143923850.520 7     -2841.166 7        43.009               
G23  25159422.924 6 132213676.468 6      2696.393 6        41.782               
G24  23824203.766 7 125197033.900 7      2728.398 7        42.066               
> 2025 07 30 06 02 19.0000000  0  8                                             
G05  24621748.973 7 129388144.394 7     -2072.642 7        47.785               
G13  24259759.199 7 127485858.835 7     -2554.972 7        44.972               
G15  22777435.507 7 119696225.430 7      -451.947 7        45.514               
G18  24037562.116 7 126318254.097 7       868.144 7        45.258               
G20  26613351.024 7 139854113.061 7     -2953.406 7        44.433               
G21  27388343.862 7 143926693.250 7     -2841.265 7        43.673               
G23  25158912.889 6 132210979.589 6      2698.852 6        40.751               
G24  23823685.689 6 125194306.644 6      2729.939 6        41.877               
> 2025 07 30 06 02 20.0000000  0  8                                             
G05  24622139.644 7 129390216.874 7     -2075.966 7        47.372               
G13  24260247.470 7 127488416.975 7     -2557.857 7        45.011               
G15  22777525.424 7 119696681.432 7      -454.473 7        45.059               
G18  24037402.599 7 126317384.716 7       869.576 7        45.326               
G20  26613914.416 7 139857068.703 7     -2954.097 7        44.244               
G21  27388882.577 7 143929536.154 7     -2844.339 7        43.447               
G23  25158398.064 6 132208282.854 6      2698.263 6        41.461               
G24  23823170.365 7 125191579.930 7      2722.898 7        42.467               
> 2025 07 30 06 02 21.0000000  0  8                                             
G05  24622535.174 7 129392289.687 7     -2072.876 7        47.544               
G13  24260731.953 7 127490975.332 7     -2560.707 7        45.653               
G15  22777615.502 7 119697137.803 7      -460.204 7        45.664               
G18  24037231.557 7 126316516.033 7       864.976 7        44.972               
G20  26614476.862 7 139860024.566 7     -2953.771 7        44.149               
G21  27389420.578 7 143932379.198 7     -2840.385 7        43.494               
G23  25157880.881 6 132205586.197 6      2699.199 6        41.023               
G24  23822646.981 7 125188853.739 7      2723.885 7        43.109               
> 2025 07 30 06 02 22.0000000  0  8                                             
G05  24622928.347 7 129394362.845 7     -2074.747 7        47.995               
G13  24261220.403 7 127493533.880 7     -2558.499 7        45.849               
G15  22777705.955 7 119697594.558 7      -457.003 7        45.684               
G18  24037066.447 7 126315648.026 7       867.628 7        45.720               
G20  26615037.681 7 139862980.682 7     -2960.030 7        44.196               
G21  27389960.491 7 143935222.419 7     -2843.290 7        43.946               
G23  25157376.385 6 132202889.642 6      2694.770 6        41.837               
G24  23822129.691 7 125186128.054 7      2730.207 7        42.262               
> 2025 07 30 06 02 23.0000000  0  8                                             
G05  24623323.842 8 129396436.324 8     -2073.566 8        48.159               
G13  24261706.959 7 127496092.605 7     -2560.083 7        46.015               
G15  22777791.387 7 119698051.650 7      -455.224 7        46.129               
G18  24036897.942 7 126314780.656 7       868.055 7        45.255               
G20  26615602.789 7 139865936.982 7     -2955.325 7        44.391               
G21  27390501.958 7 143938065.794 7     -2842.079 7        43.913               
G23  25156862.901 6 132200193.166 6      2699.234 6        41.893               
G24  23821608.219 7 125183402.869 7      2724.137 7        42.036               
> 2025 07 30 06 02 24.0000000  0  8                                             
G05  24623718.926 8 129398510.158 8     -2074.859 8        48.227               
G13  24262196.212 7 127498651.525 7     -2557.383 7        46.348               
G15  22777882.125 7 119698509.125 7      -458.285 7        46.161               
G18  24036737.550 7 126313913.993 7       863.876 7        44.796               
G20  26616164.484 7 139868893.526 7     -2954.536 7        44.515               
G21  27391044.229 7 143940909.311 7     -2842.622 7        44.140               
G23  25156344.699 6 132197496.799 6      2692.503 6        41.675               
G24  23821082.780 6 125180678.211 6      2727.319 6        41.228               
> 2025 07 30 06 02 25.0000000  0  8                                             
G05  24624112.491 8 129400584.329 8     -2076.356 8        48.180               
G13  24262685.377 7 127501210.655 7     -2561.393 7        45.396               
G15  22777967.915 7 119698966.982 7      -456.628 7        46.267               
G18  24036573.316 7 126313048.001 7       865.013 7        44.719               
G20  26616724.284 7 139871850.309 7     -2956.869 7        44.221               
G21  27391589.341 7 143943753.014 7     -2841.159 7        43.919               
G23  25155832.645 7 132194800.541 7      2695.692 7        42.023               
G24  23820566.848 6 125177954.087 6      2729.627 6        41.503               
> 2025 07 30 06 02 26.0000000  0  8                                             
G05  24624506.163 7 129402658.826 7     -2074.627 7        47.897               
G13  24263175.042 7 127503769.952 7     -2558.954 7        45.603               
G15  22778057.421 7 119699425.171 7      -457.503 7        46.412               
G18  24036409.349 7 126312182.652 7       864.137 7        44.485               
G20  26617288.320 7 139874807.308 7     -2959.012 7        44.251               
G21  27392128.164 7 143946596.858 7     -2841.809 7        43.945               
G23  25155319.768 6 132192104.350 6      2699.960 6        41.642               
G24  23820054.954 6 125175230.442 6      2725.811 6        41.335               
> 2025 07 30 06 02 27.0000000  0  8                                             
G05  24624903.017 7 129404733.689 7     -2075.586 7        47.732               
G13  24263655.272 7 127506329.483 7     -2558.001 7        45.417               
G15  22778150.965 7 119699883.765 7      -457.215 7        46.377               
G18  24036246.563 7 126311318.012 7       870.271 7        44.821               
G20  26617852.928 7 139877764.551 7     -2957.423 7        43.985               
G21  27392672.311 7 143949440.889 7     -2842.082 7        44.092               
G23  25154807.034 6 132189408.280 6      2695.508 6        41.614               
G24  23819540.934 6 125172507.358 6      2714.385 6        41.452               
> 2025 07 30 06 02 28.0000000  0  8                                             
G05  24625296.046 7 129406808.899 7     -2075.236 7        47.599               
G13  24264146.027 7 127508889.209 7     -2558.222 7        45.319               
G15  22778234.967 7 119700342.737 7      -460.443 7        46.491               
G18  24036083.919 7 126310454.070 7       862.524 7        45.366               
G20  26618410.602 7 139880722.044 7     -2957.855 7        43.301               
G21  27393210.383 7 143952285.107 7     -2841.644 7        43.463               
G23  25154295.676 6 132186712.320 6      2695.781 6        41.685               
G24  23819021.767 7 125169784.815 7      2722.724 7        42.086               
> 2025 07 30 06 02 29.0000000  0  8                                             
G05  24625693.077 7 129408884.380 7     -2076.005 7        47.467               
G13  24264631.188 7 127511449.062 7     -2562.095 7        44.980               
G15  22778318.773 7 119700802.002 7      -458.313 7        45.885               
G18  24035918.630 7 126309590.700 7       863.785 7        45.519               
G20  26618976.978 7 139883679.677 7     -2957.774 7        43.785               
G21  27393750.475 7 143955129.393 7     -2847.659 7        43.891               
G23  25153783.872 6 132184016.375 6      2698.257 6        40.670               
G24  23818507.068 7 125167062.710 7      2722.237 7        42.841               
> 2025 07 30 06 02 30.0000000  0  8                                             
G05  24626089.055 7 129410960.208 7     -2074.024 7        47.698               
G13  24265120.013 7 127514009.144 7     -2564.632 7        44.234               
G15  22778405.152 7 119701261.664 7      -461.548 7        45.756               
G18  24035755.379 7 126308728.055 7       865.654 7        45.631               
G20  26619538.745 7 139886637.562 7     -2958.509 7        43.691               
G21  27394290.512 7 143957973.878 7     -2843.894 7        43.536               
G23  25153269.655 6 132181320.567 6      2703.872 6        41.178               
G24  23817987.454 7 125164341.172 7      2726.491 7        43.416               
> 2025 07 30 06 02 31.0000000  0  8                                             
G05  24626481.334 7 129413036.354 7     -2074.364 7        47.556               
G13  24265605.265 7 127516569.340 7     -2562.965 7        44.049               
G15  22778490.923 7 119701721.643 7      -458.051 7        45.264               
G18  24035589.912 7 126307866.020 7       859.887 7        46.031               
G20  26620104.692 7 139889595.640 7     -2956.366 7        43.456               
G21  27394833.337 7 143960818.458 7     -2846.895 7        44.414               
G23  25152758.940 6 132178624.799 6      2697.324 6        41.794               
G24  23817472.809 7 125161620.075 7      2716.141 7        42.804               
> 2025 07 30 06 02 32.0000000  0  8                                             
G05  24626878.223 8 129415112.770 8     -2078.350 8        48.110               
G13  24266093.375 7 127519129.707 7     -2561.565 7        44.311               
G15  22778581.519 7 119702181.940 7      -461.215 7        45.898               
G18  24035424.838 7 126307004.625 7       859.993 7        45.655               
G20  26620669.103 7 139892553.894 7     -2959.946 7        43.999               
G21  27395378.450 7 143963663.145 7     -2847.282 7        44.367               
G23  25152243.312 7 132175929.096 7      2696.416 7        42.264               
G24  23816954.196 7 125158899.442 7      2721.756 7        42.637               
> 2025 07 30 06 02 33.0000000  0  8                                             
G05  24627276.327 7 129417189.475 7     -2078.148 7        47.999               
G13  24266579.448 7 127521690.227 7     -2559.622 7        44.674               
G15  22778672.347 7 119702642.562 7      -460.546 7        45.746               
G18  24035260.193 7 126306143.856 7       863.016 7        45.097               
G20  26621225.581 7 139895512.321 7     -2961.070 7        43.389               
G21  27395920.417 7 143966507.971 7     -2843.395 7        44.149               
G23  25151732.865 6 132173233.437 6      2694.145 6        41.595               
G24  23816433.546 7 125156179.317 7      2725.870 7        42.023               
> 2025 07 30 06 02 34.0000000  0  8                                             
G05  24627669.374 7 129419266.567 7     -2077.434 7        47.883               
G13  24267069.220 7 127524250.963 7     -2562.465 7        45.167               
G15  22778755.009 7 119703103.572 7      -462.563 7        45.202               
G18  24035097.888 7 126305283.779 7       859.576 7        44.978               
G20  26621789.652 7 139898471.005 7     -2956.620 7        43.574               
G21  27396458.150 7 143969352.972 7     -2850.616 7        44.141               
G23  25151220.239 7 132170537.881 7      2698.168 7        42.427               
G24  23815913.004 7 125153459.709 7      2720.440 7        42.115               
> 2025 07 30 06 02 35.0000000  0  8                                             
G05  24628062.939 8 129421343.954 8     -2078.649 8        48.272               
G13  24267555.240 7 127526811.853 7     -2560.124 7        44.828               
G15  22778840.423 7 119703564.924 7      -465.116 7        44.872               
G18  24034931.849 7 126304424.337 7       856.360 7        45.429               
G20  26622354.813 7 139901429.871 7     -2956.023 7        43.073               
G21  27396999.956 7 143972198.091 7     -2847.104 7        44.002               
G23  25150708.667 7 132167842.407 7      2695.826 7        42.371               
G24  23815399.627 7 125150740.591 7      2718.041 7        42.118               
> 2025 07 30 06 02 36.0000000  0  8                                             
G05  24628457.683 7 129423421.714 7     -2077.420 7        47.930               
G13  24268043.350 7 127529372.952 7     -2555.727 7        45.030               
G15  22778927.785 7 119704026.644 7      -461.685 7        45.149               
G18  24034769.616 7 126303565.597 7       863.374 7        45.969               
G20  26622916.258 7 139904388.992 7     -2959.100 7        43.534               
G21  27397540.048 7 143975043.399 7     -2846.597 7        43.387               
G23  25150191.680 6 132165147.032 6      2697.215 6        41.696               
G24  23814884.356 7 125148022.012 7      2721.618 7        42.366               
> 2025 07 30 06 02 37.0000000  0  8                                             
G05  24628852.785 7 129425499.759 7     -2077.447 7        47.804               
G13  24268528.244 7 127531934.204 7     -2559.293 7        45.402               
G15  22779014.485 7 119704488.700 7      -464.238 7        45.005               
G18  24034607.705 7 126302707.493 7       853.430 7        45.783               
G20  26623480.794 7 139907348.293 7     -2961.080 7        43.684               
G21  27398083.713 7 143977888.812 7     -2847.917 7        42.813               
G23  25149677.320 6 132162451.728 6      2696.464 6        41.521               
G24  23814366.172 7 125145303.929 7      2722.820 7        42.532               
> 2025 07 30 06 02 38.0000000  0  8                                             
G05  24629246.797 7 129427578.153 7     -2077.389 7        47.896               
G13  24269013.709 7 127534495.653 7     -2558.365 7        44.787               
G15  22779106.368 7 119704951.107 7      -463.552 7        45.127               
G18  24034438.718 7 126301850.060 7       856.036 7        45.179               
G20  26624044.187 7 139910307.807 7     -2961.666 7        44.250               
G21  27398619.229 7 143980734.374 7     -2844.688 7        42.843               
G23  25149167.445 6 132159756.491 6      2697.600 6        41.553               
G24  23813848.756 7 125142586.347 7      2721.071 7        42.265               
> 2025 07 30 06 02 39.0000000  0  8                                             
G05  24629644.472 7 129429656.893 7     -2080.494 7        47.731               
G13  24269503.017 7 127537057.303 7     -2564.654 7        44.296               
G15  22779191.317 7 119705413.914 7      -464.028 7        45.398               
G18  24034276.914 7 126300993.296 7       858.652 7        45.598               
G20  26624607.472 7 139913267.575 7     -2958.567 7        44.311               
G21  27399166.236 7 143983580.125 7     -2843.964 7        43.073               
G23  25148656.427 7 132157061.393 7      2700.702 7        42.014               
G24  23813329.965 7 125139869.297 7      2716.012 7        42.248               
> 2025 07 30 06 02 40.0000000  0  8                                             
G05  24630041.433 7 129431735.982 7     -2078.001 7        47.728               
G13  24269988.196 7 127539619.163 7     -2563.599 7        44.865               
G15  22779281.288 7 119705877.104 7      -463.725 7        45.313               
G18  24034114.913 7 126300137.246 7       853.212 7        45.446               
G20  26625174.063 7 139916227.585 7     -2960.460 7        44.247               
G21  27399703.379 7 143986426.061 7     -2847.288 7        42.304               
G23  25148146.535 7 132154366.395 7      2694.362 7        42.405               
G24  23812813.461 7 125137152.780 7      2715.244 7        42.098               
> 2025 07 30 06 02 41.0000000  0  8                                             
G05  24630436.302 7 129433815.420 7     -2079.409 7        47.517               
G13  24270479.201 7 127542181.235 7     -2560.045 7        44.419               
G15  22779367.023 7 119706340.654 7      -464.318 7        45.679               
G18  24033953.878 7 126299281.864 7       856.311 7        45.390               
G20  26625733.631 7 139919187.838 7     -2965.025 7        43.894               
G21  27400248.509 7 143989272.169 7     -2846.759 7        42.358               
G23  25147628.226 6 132151671.504 6      2693.898 6        41.988               
G24  23812297.082 7 125134436.806 7      2714.618 7        42.308               
> 2025 07 30 06 02 42.0000000  0  8                                             
G05  24630832.673 8 129435895.238 8     -2082.775 8        48.132               
G13  24270969.760 7 127544743.522 7     -2560.448 7        45.217               
G15  22779455.547 7 119706804.599 7      -463.858 7        46.234               
G18  24033792.806 7 126298427.176 7       853.998 7        45.723               
G20  26626297.738 7 139922148.319 7     -2959.419 7        44.766               
G21  27400783.329 7 143992118.437 7     -2846.460 7        42.237               
G23  25147117.654 7 132148976.704 7      2698.978 7        42.064               
G24  23811777.290 6 125131721.359 6      2717.663 6        41.989               
> 2025 07 30 06 02 43.0000000  0  8                                             
G05  24631228.007 7 129437975.398 7     -2081.247 7        47.996               
G13  24271459.871 7 127547305.999 7     -2564.212 7        45.099               
G15  22779542.229 7 119707268.922 7      -462.011 7        45.805               
G18  24033629.072 7 126297573.183 7       852.826 7        45.544               
G20  26626865.098 7 139925109.054 7     -2958.717 7        45.428               
G21  27401329.245 7 143994964.893 7     -2841.742 7        42.781               
G23  25146603.437 7 132146282.056 7      2690.212 7        42.374               
G24  23811263.538 7 125129006.440 7      2719.262 7        42.178               
> 2025 07 30 06 02 44.0000000  0  8                                             
G05  24631624.986 7 129440055.902 7     -2081.454 7        47.836               
G13  24271945.891 7 127549868.667 7     -2559.708 7        45.342               
G15  22779634.147 7 119707733.608 7      -462.846 7        45.714               
G18  24033466.035 7 126296719.854 7       851.528 7        44.506               
G20  26627427.275 7 139928069.995 7     -2963.267 7        44.842               
G21  27401873.036 7 143997811.491 7     -2847.152 7        42.519               
G23  25146091.061 6 132143587.480 6      2692.006 6        41.779               
G24  23810743.871 7 125126292.044 7      2722.526 7        42.498               
> 2025 07 30 06 02 45.0000000  0  8                                             
G05  24632018.908 7 129442136.750 7     -2080.907 7        47.515               
G13  24272431.053 7 127552431.531 7     -2560.172 7        45.125               
G15  22779722.563 7 119708198.672 7      -465.796 7        45.840               
G18  24033304.089 7 126295867.215 7       853.764 7        45.447               
G20  26627991.311 7 139931031.177 7     -2959.838 7        45.088               
G21  27402410.446 7 144000658.267 7     -2843.356 7        42.959               
G23  25145577.952 6 132140893.036 6      2696.489 6        41.712               
G24  23810231.208 7 125123578.211 7      2709.795 7        42.624               
> 2025 07 30 06 02 46.0000000  0  8                                             
G05  24632420.157 7 129444217.866 7     -2080.010 7        47.794               
G13  24272919.824 7 127554994.544 7     -2565.808 7        45.682               
G15  22779811.247 7 119708664.020 7      -468.518 7        45.847               
G18  24033143.357 7 126295015.166 7       854.899 7        45.054               
G20  26628550.397 7 139933992.520 7     -2961.751 7        45.150               
G21  27402958.293 7 144003505.116 7     -2849.193 7        42.613               
G23  25145062.627 6 132138198.572 6      2695.805 6        41.934               
G24  23809710.612 7 125120864.778 7      2714.128 7        42.937               
> 2025 07 30 06 02 47.0000000  0  8                                             
G05  24632812.043 8 129446299.268 8     -2083.253 8        48.683               
G13  24273407.291 7 127557557.686 7     -2563.372 7        45.672               
G15  22779896.858 7 119709129.689 7      -464.855 7        45.676               
G18  24032978.997 7 126294163.749 7       846.783 7        45.262               
G20  26629116.166 7 139936954.028 7     -2959.104 7        45.176               
G21  27403499.671 7 144006352.097 7     -2845.718 7        42.786               
G23  25144549.697 6 132135504.174 6      2695.933 6        41.743               
G24  23809196.038 7 125118151.827 7      2709.777 7        42.978               
> 2025 07 30 06 02 48.0000000  0  9                                             
G05  24633209.164 8 129448381.058 8     -2082.567 8        48.407               
G13  24273891.917 7 127560121.054 7     -2561.351 7        44.714               
G15  22779987.918 7 119709595.756 7      -465.245 7        45.549               
G18  24032811.011 7 126293313.058 7       851.599 7        45.455               
G20  26629680.255 7 139939915.796 7     -2963.267 7        45.468               
G21  27404040.727 7 144009199.260 7     -2846.837 7        42.455               
G22  27702381.559 6 145577005.270 6      1065.082 6        40.709               
G23  25144039.357 7 132132809.919 7      2694.086 7        42.069               
G24  23808682.572 6 125115439.435 6      2714.397 6        41.774               
> 2025 07 30 06 02 49.0000000  0  9                                             
G05  24633605.195 8 129450463.137 8     -2082.521 8        48.394               
G13  24274382.582 7 127562684.551 7     -2566.670 7        44.718               
G15  22780074.708 7 119710062.149 7      -469.496 7        45.785               
G18  24032652.298 7 126292462.978 7       848.178 7        45.199               
G20  26630243.898 7 139942877.743 7     -2959.857 7        45.337               
G21  27404583.963 7 144012046.545 7     -2848.476 7        43.210               
G22  27702180.979 6 145575942.178 6      1064.214 6        41.175               
G23  25143522.514 7 132130115.707 7      2695.004 7        42.558               
G24  23808162.815 7 125112727.529 7      2715.606 7        42.872               
> 2025 07 30 06 02 50.0000000  0  9                                             
G05  24634001.137 8 129452545.557 8     -2081.697 8        48.440               
G13  24274871.318 7 127565248.265 7     -2567.538 7        45.145               
G15  22780164.732 7 119710528.917 7      -468.232 7        45.753               
G18  24032495.551 7 126291613.585 7       849.689 7        44.797               
G20  26630808.291 7 139945839.936 7     -2960.486 7        45.451               
G21  27405126.931 7 144014893.984 7     -2846.795 7        43.035               
G22  27701976.879 6 145574879.477 6      1067.089 6        40.348               
G23  25143013.676 7 132127421.607 7      2690.936 7        42.448               
G24  23807646.490 7 125110016.156 7      2701.534 7        42.874               
> 2025 07 30 06 02 51.0000000  0  9                                             
G05  24634398.955 8 129454628.334 8     -2083.627 8        48.605               
G13  24275355.461 7 127567812.202 7     -2561.500 7        45.194               
G15  22780255.972 7 119710996.067 7      -469.331 7        44.954               
G18  24032332.568 7 126290764.889 7       848.193 7        45.194               
G20  26631370.218 7 139948802.363 7     -2961.221 7        45.307               
G21  27405663.699 7 144017741.607 7     -2847.939 7        43.025               
G22  27701770.367 6 145573817.236 6      1064.979 6        39.116               
G23  25142496.207 6 132124727.612 6      2692.773 6        41.701               
G24  23807127.127 6 125107305.316 6      2715.171 6        41.921               
> 2025 07 30 06 02 52.0000000  0  9                                             
G05  24634794.378 8 129456711.487 8     -2083.528 8        48.628               
G13  24275844.197 7 127570376.355 7     -2564.205 7        45.180               
G15  22780342.976 7 119711463.617 7      -464.575 7        46.239               
G18  24032170.746 7 126289916.888 7       845.527 7        45.152               
G20  26631935.362 7 139951765.061 7     -2961.248 7        45.179               
G21  27406206.881 7 144020589.416 7     -2846.174 7        42.927               
G22  27701571.127 6 145572755.426 6      1058.062 6        38.825               
G23  25141988.369 7 132122033.764 7      2695.136 7        42.420               
G24  23806611.427 7 125104595.021 7      2710.731 7        42.254               
> 2025 07 30 06 02 53.0000000  0  9                                             
G05  24635193.144 8 129458794.949 8     -2084.866 8        48.966               
G13  24276330.878 7 127572940.677 7     -2562.382 7        44.553               
G15  22780431.338 7 119711931.517 7      -467.992 7        46.076               
G18  24032009.907 7 126289069.550 7       844.553 7        44.742               
G20  26632498.146 7 139954727.961 7     -2961.130 7        45.389               
G21  27406750.314 7 144023437.368 7     -2846.818 7        42.875               
G22  27701366.831 6 145571693.986 6      1062.252 6        39.368               
G23  25141472.026 7 132119339.985 7      2688.449 7        42.353               
G24  23806094.548 6 125101885.227 6      2717.508 6        41.869               
> 2025 07 30 06 02 54.0000000  0  9                                             
G05  24635589.675 8 129460878.745 8     -2082.971 8        48.470               
G13  24276817.505 7 127575505.176 7     -2563.005 7        44.541               
G15  22780522.702 7 119712399.768 7      -469.371 7        46.313               
G18  24031848.621 7 126288222.862 7       845.815 7        44.715               
G20  26633062.432 7 139957691.069 7     -2962.740 7        44.814               
G21  27407290.477 7 144026285.458 7     -2845.767 7        42.841               
G22  27701171.040 6 145570632.975 6      1062.368 6        39.131               
G23  25140961.990 7 132116646.275 7      2692.719 7        42.312               
G24  23805580.152 6 125099175.934 6      2710.217 6        41.440               
> 2025 07 30 06 02 55.0000000  0  9                                             
G05  24635987.815 8 129462962.834 8     -2086.357 8        48.174               
G13  24277309.600 7 127578069.824 7     -2564.165 7        44.999               
G15  22780610.975 7 119712868.356 7      -469.817 7        46.163               
G18  24031688.139 7 126287376.818 7       847.069 7        45.691               
G20  26633624.788 7 139960654.357 7     -2961.795 7        44.642               
G21  27407833.141 7 144029133.689 7     -2847.552 7        43.397               
G22  27700968.298 6 145569572.318 6      1058.883 6        39.105               
G23  25140449.918 7 132113952.648 7      2693.647 7        42.705               
G24  23805064.827 6 125096467.146 6      2713.005 6        41.967               
> 2025 07 30 06 02 56.0000000  0  9                                             
G05  24636379.575 8 129465047.290 8     -2082.730 8        48.208               
G13  24277798.335 7 127580634.698 7     -2564.116 7        44.551               
G15  22780699.910 7 119713337.325 7      -467.912 7        45.951               
G18  24031523.047 7 126286531.483 7       843.059 7        45.094               
G20  26634192.773 7 139963617.909 7     -2962.115 7        44.922               
G21  27408376.270 7 144031982.091 7     -2840.036 7        43.587               
G22  27700768.915 6 145568512.112 6      1061.458 6        39.333               
G23  25139932.520 7 132111259.122 7      2695.277 7        42.568               
G24  23804553.112 7 125093758.880 7      2709.635 7        42.311               
> 2025 07 30 06 02 57.0000000  0  9                                             
G05  24636775.052 8 129467132.035 8     -2088.103 8        48.238               
G13  24278281.639 7 127583199.724 7     -2569.997 7        44.904               
G15  22780787.271 7 119713806.624 7      -467.288 7        46.081               
G18  24031366.658 7 126285686.761 7       843.652 7        45.369               
G20  26634755.469 7 139966581.634 7     -2961.922 7        45.154               
G21  27408916.165 7 144034830.625 7     -2852.432 7        43.441               
G22  27700570.230 6 145567452.262 6      1057.027 6        39.283               
G23  25139418.053 7 132108565.665 7      2691.804 7        42.489               
G24  23804041.254 7 125091051.111 7      2706.373 7        42.427               
> 2025 07 30 06 02 58.0000000  0  9                                             
G05  24637174.121 8 129469217.114 8     -2083.899 8        48.398               
G13  24278770.911 7 127585764.932 7     -2561.827 7        44.359               
G15  22780875.491 7 119714276.259 7      -469.174 7        45.487               
G18  24031204.282 7 126284842.728 7       842.775 7        45.735               
G20  26635318.986 7 139969545.595 7     -2965.088 7        45.001               
G21  27409456.863 7 144037679.291 7     -2846.672 7        43.194               
G22  27700366.523 6 145566392.804 6      1050.883 6        39.593               
G23  25138912.109 7 132105872.302 7      2693.093 7        42.328               
G24  23803521.926 7 125088343.861 7      2699.951 7        42.216               
> 2025 07 30 06 02 59.0000000  0  9                                             
G05  24637570.903 8 129471302.507 8     -2085.815 8        48.092               
G13  24279256.769 7 127588330.286 7     -2563.912 7        44.601               
G15  22780963.835 7 119714746.245 7      -470.911 7        45.689               
G18  24031045.533 7 126283999.315 7       841.709 7        45.815               
G20  26635882.700 7 139972509.735 7     -2966.693 7        45.032               
G21  27410003.763 7 144040528.096 7     -2848.036 7        43.500               
G22  27700167.855 6 145565333.722 6      1061.097 6        39.441               
G23  25138397.374 7 132103178.984 7      2693.202 7        42.305               
G24  23803007.370 7 125085637.088 7      2701.417 7        42.342               
> 2025 07 30 06 03 00.0000000  0  9                                             
G05  24637967.417 7 129473388.223 7     -2089.244 7        47.985               
G13  24279743.611 7 127590895.828 7     -2565.222 7        44.860               
G15  22781054.753 7 119715216.562 7      -472.714 7        45.460               
G18  24030884.587 7 126283156.562 7       847.086 7        45.628               
G20  26636448.022 7 139975474.076 7     -2966.037 7        44.980               
G21  27410541.710 7 144043377.035 7     -2845.630 7        43.372               
G22  27699968.580 6 145564275.029 6      1056.264 6        38.795               
G23  25137883.300 7 132100485.747 7      2696.290 7        42.403               
G24  23802490.509 7 125082930.802 7      2703.738 7        42.134               
> 2025 07 30 06 03 01.0000000  0  9                                             
G05  24638363.555 8 129475474.246 8     -2084.925 8        48.400               
G13  24280235.831 7 127593461.516 7     -2565.339 7        45.236               
G15  22781144.402 7 119715687.224 7      -472.543 7        45.797               
G18  24030728.394 7 126282314.467 7       835.371 7        46.100               
G20  26637015.418 7 139978438.621 7     -2965.962 7        44.551               
G21  27411087.358 7 144046226.118 7     -2849.845 7        43.451               
G22  27699772.556 6 145563216.731 6      1054.823 6        38.905               
G23  25137372.854 7 132097792.596 7      2693.935 7        42.359               
G24  23801980.402 6 125080225.026 6      2716.170 6        41.693               
> 2025 07 30 06 03 02.0000000  0  9                                             
G05  24638761.605 7 129477560.668 7     -2087.484 7        47.242               
G13  24280719.742 7 127596027.445 7     -2563.858 7        44.922               
G15  22781230.226 7 119716158.295 7      -470.160 7        45.041               
G18  24030567.716 7 126281473.088 7       839.685 7        45.480               
G20  26637574.700 7 139981403.442 7     -2964.339 7        44.810               
G21  27411631.470 7 144049075.399 7     -2846.544 7        43.394               
G22  27699571.709 6 145562158.873 6      1058.946 6        39.520               
G23  25136861.925 7 132095099.575 7      2695.812 7        42.612               
G24  23801461.896 6 125077519.812 6      2704.786 6        41.743               
> 2025 07 30 06 03 03.0000000  0  9                                             
G05  24639161.139 7 129479647.450 7     -2087.236 7        47.596               
G13  24281213.803 7 127598593.590 7     -2567.949 7        45.172               
G15  22781316.141 7 119716629.754 7      -470.940 7        45.346               
G18  24030403.249 7 126280632.409 7       840.146 7        45.646               
G20  26638144.168 7 139984368.504 7     -2964.986 7        44.428               
G21  27412168.523 7 144051924.856 7     -2845.321 7        42.728               
G22  27699367.662 6 145561101.438 6      1055.094 6        39.685               
G23  25136351.621 7 132092406.689 7      2696.002 7        42.559               
G24  23800946.375 6 125074815.142 6      2703.422 6        41.553               
> 2025 07 30 06 03 04.0000000  0  9                                             
G05  24639556.830 8 129481734.512 8     -2090.621 8        48.003               
G13  24281700.787 7 127601159.867 7     -2563.725 7        45.484               
G15  22781407.344 7 119717101.512 7      -475.410 7        45.579               
G18  24030245.841 7 126279792.342 7       839.379 7        45.707               
G20  26638707.971 7 139987333.727 7     -2965.665 7        44.602               
G21  27412714.887 7 144054774.403 7     -2849.782 7        42.779               
G22  27699171.478 6 145560044.350 6      1060.976 6        39.733               
G23  25135840.424 7 132089713.837 7      2691.510 7        42.787               
G24  23800431.068 6 125072110.915 6      2704.479 6        40.749               
> 2025 07 30 06 03 05.0000000  0  9                                             
G05  24639952.218 8 129483821.947 8     -2088.694 8        48.495               
G13  24282184.859 7 127603726.371 7     -2566.919 7        45.078               
G15  22781497.887 7 119717573.674 7      -476.533 7        45.164               
G18  24030077.890 7 126278952.972 7       837.653 7        45.385               
G20  26639265.967 7 139990299.214 7     -2967.395 7        44.376               
G21  27413256.068 7 144057624.153 7     -2849.089 7        42.678               
G22  27698967.896 6 145558987.704 6      1055.600 6        39.919               
G23  25135325.028 7 132087021.102 7      2693.269 7        43.129               
G24  23799919.138 6 125069407.284 6      2696.672 6        41.752               
> 2025 07 30 06 03 06.0000000  0  9                                             
G05  24640348.053 7 129485909.672 7     -2087.718 7        47.888               
G13  24282679.563 7 127606293.038 7     -2569.766 7        44.994               
G15  22781590.305 7 119718046.172 7      -470.763 7        45.653               
G18  24029921.000 7 126278114.266 7       837.264 7        45.441               
G20  26639832.755 7 139993264.904 7     -2966.432 7        44.716               
G21  27413799.179 7 144060474.021 7     -2854.244 7        42.539               
G22  27698761.009 6 145557931.421 6      1063.805 6        39.568               
G23  25134816.637 7 132084328.442 7      2691.526 7        42.635               
G24  23799406.011 7 125066704.128 7      2706.584 7        42.195               
> 2025 07 30 06 03 07.0000000  0  9                                             
G05  24640747.140 7 129487997.762 7     -2088.266 7        47.589               
G13  24283161.347 7 127608859.895 7     -2567.706 7        44.849               
G15  22781680.847 7 119718519.067 7      -475.014 7        45.665               
G18  24029763.342 7 126277276.239 7       840.340 7        45.088               
G20  26640396.112 7 139996230.803 7     -2968.341 7        45.148               
G21  27414344.416 7 144063324.072 7     -2849.262 7        42.747               
G22  27698557.338 6 145556875.591 6      1052.218 6        39.466               
G23  25134300.668 7 132081635.899 7      2687.515 7        43.531               
G24  23798890.776 6 125064001.521 6      2702.125 6        41.857               
> 2025 07 30 06 03 08.0000000  0  9                                             
G05  24641145.011 7 129490086.217 7     -2085.588 7        47.839               
G13  24283650.101 7 127611426.987 7     -2567.592 7        44.829               
G15  22781775.696 7 119718992.342 7      -475.370 7        45.630               
G18  24029607.077 7 126276438.918 7       837.418 7        45.337               
G20  26640961.720 7 139999196.979 7     -2966.809 7        45.176               
G21  27414882.113 7 144066174.335 7     -2847.508 7        43.044               
G22  27698364.066 6 145555820.182 6      1055.092 6        38.851               
G23  25133789.757 7 132078943.481 7      2695.404 7        43.560               
G24  23798379.525 7 125061299.458 7      2702.959 7        42.058               
> 2025 07 30 06 03 09.0000000  0  9                                             
G05  24641539.970 8 129492175.003 8     -2089.382 8        48.323               
G13  24284140.391 7 127613994.245 7     -2567.049 7        45.064               
G15  22781866.828 7 119719465.975 7      -474.894 7        45.756               
G18  24029448.597 7 126275602.270 7       839.729 7        45.887               
G20  26641525.380 7 140002163.363 7     -2968.162 7        44.803               
G21  27415423.902 7 144069024.733 7     -2854.951 7        43.296               
G22  27698160.753 6 145554765.202 6      1060.447 6        38.658               
G23  25133278.042 7 132076251.134 7      2692.992 7        43.872               
G24  23797857.267 6 125058597.902 6      2701.157 6        41.896               
> 2025 07 30 06 03 10.0000000  0  9                                             
G05  24641939.343 8 129494264.157 8     -2090.453 8        48.496               
G13  24284630.574 7 127616561.752 7     -2571.625 7        45.353               
G15  22781958.532 7 119719940.020 7      -474.558 7        46.338               
G18  24029290.474 7 126274766.324 7       837.785 7        45.673               
G20  26642090.149 7 140005130.020 7     -2966.000 7        44.557               
G21  27415965.172 7 144071875.302 7     -2849.598 7        43.463               
G22  27697962.692 6 145553710.650 6      1052.899 6        39.156               
G23  25132765.058 7 132073558.947 7      2692.766 7        43.247               
G24  23797339.834 6 125055896.902 6      2704.877 6        41.884               
> 2025 07 30 06 03 11.0000000  0  9                                             
G05  24642335.767 7 129496353.583 7     -2090.325 7        47.720               
G13  24285116.630 7 127619129.353 7     -2568.610 7        45.163               
G15  22782048.931 7 119720414.338 7      -475.342 7        46.074               
G18  24029131.582 7 126273930.963 7       832.025 7        45.514               
G20  26642654.059 7 140008096.812 7     -2966.336 7        44.666               
G21  27416508.480 7 144074725.977 7     -2851.155 7        43.180               
G22  27697766.491 6 145552656.407 6      1054.697 6        39.262               
G23  25132249.912 7 132070866.780 7      2689.001 7        43.331               
G24  23796832.372 6 125053196.330 6      2699.925 6        41.135               
> 2025 07 30 06 03 12.0000000  0  9                                             
G05  24642736.534 7 129498443.398 7     -2090.317 7        47.959               
G13  24285610.011 7 127621697.210 7     -2567.320 7        45.350               
G15  22782138.241 7 119720889.082 7      -473.268 7        45.909               
G18  24028971.601 7 126273096.364 7       834.671 7        45.348               
G20  26643220.632 7 140011063.901 7     -2967.836 7        44.899               
G21  27417053.610 7 144077576.873 7     -2851.316 7        42.748               
G22  27697568.127 6 145551602.638 6      1054.400 6        39.446               
G23  25131737.107 7 132068174.755 7      2691.834 7        43.400               
G24  23796312.115 7 125050496.363 7      2696.573 7        42.103               
> 2025 07 30 06 03 13.0000000  0  9                                             
G05  24643133.476 7 129500533.525 7     -2090.622 7        47.632               
G13  24286098.300 7 127624265.218 7     -2568.592 7        45.501               
G15  22782229.248 7 119721364.154 7      -471.988 7        46.085               
G18  24028811.637 7 126272262.389 7       830.823 7        45.703               
G20  26643784.579 7 140014031.155 7     -2968.852 7        45.056               
G21  27417592.111 7 144080427.882 7     -2847.900 7        43.407               
G22  27697367.136 6 145550549.266 6      1052.848 6        39.506               
G23  25131229.662 7 132065482.797 7      2690.341 7        43.377               
G24  23795794.843 6 125047796.878 6      2698.198 6        41.889               
> 2025 07 30 06 03 14.0000000  0  9                                             
G05  24643532.688 7 129502623.940 7     -2085.800 7        47.819               
G13  24286588.555 7 127626833.364 7     -2565.915 7        44.762               
G15  22782318.718 7 119721839.557 7      -475.774 7        45.919               
G18  24028654.140 7 126271429.040 7       827.136 7        46.018               
G20  26644350.491 7 140016998.616 7     -2967.161 7        45.460               
G21  27418132.882 7 144083278.989 7     -2847.876 7        43.072               
G22  27697159.927 6 145549496.244 6      1057.772 6        39.257               
G23  25130713.534 7 132062790.892 7      2689.567 7        43.646               
G24  23795283.789 6 125045097.845 6      2705.135 6        41.615               
> 2025 07 30 06 03 15.0000000  0  9                                             
G05  24643928.022 8 129504714.695 8     -2093.262 8        48.014               
G13  24287079.542 7 127629401.701 7     -2569.784 7        45.820               
G15  22782414.424 7 119722315.300 7      -473.357 7        46.719               
G18  24028491.978 7 126270596.355 7       834.495 7        45.801               
G20  26644914.759 7 140019966.279 7     -2967.423 7        45.695               
G21  27418685.517 7 144086130.266 7     -2847.834 7        43.210               
G22  27696954.236 6 145548443.616 6      1057.362 6        39.318               
G23  25130200.568 7 132060099.066 7      2693.494 7        43.113               
G24  23794772.234 6 125042399.334 6      2695.964 6        41.670               
> 2025 07 30 06 03 16.0000000  0  9                                             
G05  24644327.055 8 129506805.731 8     -2094.144 8        48.253               
G13  24287568.420 7 127631970.195 7     -2568.216 7        45.670               
G15  22782504.860 7 119722791.380 7      -474.877 7        45.499               
G18  24028336.732 7 126269764.313 7       827.816 7        45.409               
G20  26645480.403 7 140022934.119 7     -2964.224 7        45.405               
G21  27419223.910 7 144088981.658 7     -2848.877 7        43.336               
G22  27696757.534 6 145547391.366 6      1045.076 6        39.814               
G23  25129683.795 7 132057407.316 7      2687.627 7        42.900               
G24  23794260.340 6 125039701.334 6      2690.964 6        41.517               
> 2025 07 30 06 03 17.0000000  0  9                                             
G05  24644724.034 8 129508897.163 8     -2089.921 8        48.381               
G13  24288053.940 7 127634538.903 7     -2570.208 7        45.842               
G15  22782596.331 7 119723267.877 7      -477.960 7        46.174               
G18  24028179.682 7 126268932.999 7       831.095 7        45.792               
G20  26646044.546 7 140025902.251 7     -2965.701 7        45.710               
G21  27419767.004 7 144091833.268 7     -2850.315 7        43.389               
G22  27696559.474 6 145546339.578 6      1053.819 6        39.577               
G23  25129175.297 7 132054715.705 7      2693.189 7        42.419               
G24  23793750.108 7 125037003.884 7      2696.195 7        42.161               
> 2025 07 30 06 03 18.0000000  0 10                                             
G05  24645122.602 7 129510988.916 7     -2095.689 7        47.995               
G13  24288541.639 7 127637107.810 7     -2572.284 7        45.613               
G15  22782681.370 7 119723744.722 7      -480.121 7        45.725               
G18  24028020.093 7 126268102.349 7       828.083 7        45.971               
G20  26646609.171 7 140028870.587 7     -2967.544 7        45.188               
G21  27420308.131 7 144094685.005 7     -2847.917 7        43.245               
G22  27696361.574 6 145545288.170 6      1053.068 6        39.485               
G23  25128665.118 7 132052024.180 7      2688.426 7        43.138               
G24  23793239.876 7 125034306.941 7      2698.319 7        42.208               
G29  28084076.630 6 147582830.118 6     -2764.441 6        38.646               
> 2025 07 30 06 03 19.0000000  0 10                                             
G05  24645522.993 7 129513081.046 7     -2089.415 7        47.990               
G13  24289031.750 7 127639676.909 7     -2570.081 7        46.073               
G15  22782773.288 7 119724221.946 7      -477.592 7        45.968               
G18  24027865.062 7 126267272.370 7       830.855 7        46.192               
G20  26647173.653 7 140031839.159 7     -2969.950 7        45.601               
G21  27420850.224 7 144097536.949 7     -2857.397 7        43.050               
G22  27696154.455 6 145544237.212 6      1045.467 6        39.049               
G23  25128150.472 7 132049332.765 7      2690.154 7        43.237               
G24  23792724.426 7 125031610.541 7      2697.415 7        42.179               
G29  28084602.766 6 147585584.726 6     -2755.527 6        38.793               
> 2025 07 30 06 03 20.0000000  0 10                                             
G05  24645921.419 8 129515173.496 8     -2093.447 8        48.799               
G13  24289518.270 7 127642246.187 7     -2568.431 7        45.948               
G15  22782867.511 7 119724699.520 7      -478.770 7        46.219               
G18  24027703.133 7 126266443.071 7       833.105 7        45.276               
G20  26647738.690 7 140034807.937 7     -2971.004 7        44.758               
G21  27421392.334 7 144100388.980 7     -2851.547 7        43.124               
G22  27695954.947 6 145543186.635 6      1050.013 6        39.235               
G23  25127637.310 7 132046641.444 7      2688.601 7        43.250               
G24  23792214.516 6 125028914.656 6      2699.424 6        41.628               
G29  28085121.289 6 147588339.291 6     -2756.170 6        38.444               
> 2025 07 30 06 03 21.0000000  0 10                                             
G05  24646321.238 8 129517266.352 8     -2092.507 8        48.387               
G13  24290004.611 7 127644815.715 7     -2570.854 7        45.236               
G15  22782956.714 7 119725177.520 7      -477.856 7        46.433               
G18  24027545.921 7 126265614.491 7       827.165 7        45.446               
G20  26648304.137 7 140037776.998 7     -2970.118 7        45.067               
G21  27421933.998 7 144103241.267 7     -2851.644 7        42.728               
G22  27695750.829 6 145542136.539 6      1046.580 6        39.121               
G23  25127128.061 7 132043950.265 7      2687.543 7        43.302               
G24  23791706.928 7 125026219.357 7      2690.985 7        42.043               
G29  28085647.549 6 147591093.791 6     -2749.847 6        38.445               
> 2025 07 30 06 03 22.0000000  0 10                                             
G05  24646721.701 8 129519359.553 8     -2095.593 8        48.718               
G13  24290492.418 7 127647385.406 7     -2568.756 7        44.891               
G15  22783046.345 7 119725655.863 7      -475.849 7        46.181               
G18  24027385.707 7 126264786.577 7       826.772 7        46.098               
G20  26648866.493 7 140040746.276 7     -2969.679 7        44.294               
G21  27422475.126 7 144106093.668 7     -2853.222 7        43.326               
G22  27695551.232 6 145541086.810 6      1053.584 6        38.497               
G23  25126617.364 7 132041259.179 7      2691.633 7        43.380               
G24  23791190.156 7 125023524.562 7      2688.430 7        42.594               
G29  28086174.042 6 147593848.179 6     -2752.721 6        38.210               
> 2025 07 30 06 03 23.0000000  0 10                                             
G05  24647116.839 8 129521453.074 8     -2095.187 8        48.546               
G13  24290981.404 7 127649955.299 7     -2572.012 7        44.941               
G15  22783135.493 7 119726134.560 7      -475.384 7        46.656               
G18  24027231.605 7 126263959.341 7       825.986 7        45.865               
G20  26649432.530 7 140043715.767 7     -2967.217 7        44.632               
G21  27423019.720 7 144108946.241 7     -2855.682 7        42.669               
G22  27695344.005 6 145540037.481 6      1054.904 6        38.171               
G23  25126104.541 7 132038568.191 7      2688.225 7        43.311               
G24  23790678.262 7 125020830.270 7      2693.377 7        42.116               
G29  28086697.212 6 147596602.509 6     -2756.378 6        37.754               
> 2025 07 30 06 03 24.0000000  0 10                                             
G05  24647512.119 7 129523546.979 7     -2094.224 7        47.972               
G13  24291465.958 7 127652525.437 7     -2573.485 7        44.959               
G15  22783227.751 7 119726613.683 7      -478.511 7        46.056               
G18  24027073.678 7 126263132.818 7       829.154 7        45.979               
G20  26649998.674 7 140046685.544 7     -2967.328 7        44.319               
G21  27423562.205 7 144111799.021 7     -2851.497 7        42.827               
G22  27695145.677 6 145538988.668 6      1041.454 6        38.102               
G23  25125587.322 7 132035877.340 7      2691.428 7        43.209               
G24  23790160.311 7 125018136.567 7      2697.355 7        42.308               
G29  28087214.573 6 147599356.718 6     -2754.688 6        38.009               
> 2025 07 30 06 03 25.0000000  0 10                                             
G05  24647908.329 7 129525641.162 7     -2094.159 7        47.721               
G13  24291961.895 7 127655095.690 7     -2572.070 7        44.648               
G15  22783320.813 7 119727093.101 7      -480.736 7        45.970               
G18  24026919.755 7 126262306.910 7       823.916 7        46.083               
G20  26650564.443 7 140049655.467 7     -2976.745 7        43.712               
G21  27424098.741 7 144114651.888 7     -2853.887 7        42.263               
G22  27694950.333 6 145537940.136 6      1046.918 6        37.430               
G23  25125076.107 7 132033186.513 7      2689.671 7        43.658               
G24  23789644.557 7 125015443.319 7      2696.241 7        42.193               
G29  28087746.820 6 147602110.828 6     -2753.445 6        37.836               
> 2025 07 30 06 03 26.0000000  0 10                                             
G05  24648304.486 7 129527735.676 7     -2096.923 7        47.842               
G13  24292449.415 7 127657666.133 7     -2574.184 7        44.804               
G15  22783409.908 7 119727572.885 7      -476.846 7        46.051               
G18  24026760.399 7 126261481.685 7       824.349 7        45.442               
G20  26651125.370 7 140052625.630 7     -2971.706 7        43.325               
G21  27424647.999 7 144117504.907 7     -2848.905 7        42.595               
G22  27694749.199 6 145536892.045 6      1050.439 6        37.901               
G23  25124566.465 7 132030495.806 7      2694.945 7        43.345               
G24  23789136.577 6 125012750.565 6      2697.535 6        41.926               
G29  28088264.790 6 147604864.849 6     -2758.569 6        37.905               
> 2025 07 30 06 03 27.0000000  0 10                                             
G05  24648705.788 7 129529830.472 7     -2097.232 7        47.257               
G13  24292944.101 7 127660236.716 7     -2569.991 7        45.434               
G15  22783498.753 7 119728052.984 7      -479.097 7        46.006               
G18  24026606.957 7 126260657.074 7       826.368 7        46.083               
G20  26651692.533 7 140055595.942 7     -2970.774 7        44.115               
G21  27425190.234 7 144120358.043 7     -2856.007 7        42.343               
G22  27694549.370 6 145535844.278 6      1049.575 6        38.158               
G23  25124047.780 7 132027805.138 7      2693.305 7        43.622               
G24  23788622.878 7 125010058.313 7      2692.047 7        42.149               
G29  28088786.672 6 147607618.696 6     -2752.518 6        37.446               
> 2025 07 30 06 03 28.0000000  0 10                                             
G05  24649105.018 7 129531925.562 7     -2093.628 7        47.621               
G13  24293433.552 7 127662807.447 7     -2571.817 7        45.062               
G15  22783590.671 7 119728533.406 7      -481.881 7        45.400               
G18  24026448.620 7 126259833.094 7       823.246 7        45.518               
G20  26652259.910 7 140058566.474 7     -2971.315 7        43.760               
G21  27425728.521 6 144123211.295 6     -2852.700 6        41.985               
G22  27694345.895 6 145534796.926 6      1050.321 6        38.072               
G23  25123545.071 7 132025114.528 7      2693.061 7        44.052               
G24  23788111.431 6 125007366.556 6      2687.473 6        41.667               
G29  28089315.524 6 147610372.444 6     -2738.010 6        38.588               
> 2025 07 30 06 03 29.0000000  0 10                                             
G05  24649505.748 7 129534020.999 7     -2097.157 7        47.673               
G13  24293920.161 7 127665378.404 7     -2571.414 7        45.477               
G15  22783681.731 7 119729014.223 7      -484.508 7        46.045               
G18  24026292.731 7 126259009.833 7       824.799 7        45.120               
G20  26652817.549 7 140061537.245 7     -2970.350 7        43.043               
G21  27426275.402 7 144126064.753 7     -2857.512 7        42.128               
G22  27694152.999 6 145533749.961 6      1040.905 6        39.273               
G23  25123032.945 7 132022424.035 7      2693.770 7        43.971               
G24  23787598.215 6 125004675.324 6      2687.758 6        41.168               
G29  28089840.033 6 147613126.112 6     -2756.361 6        38.411               
> 2025 07 30 06 03 30.0000000  0 10                                             
G05  24649905.425 8 129536116.749 8     -2094.736 8        48.003               
G13  24294409.915 7 127667949.471 7     -2572.330 7        44.957               
G15  22783775.454 7 119729495.336 7      -483.759 7        45.484               
G18  24026131.266 7 126258187.182 7       825.856 7        45.313               
G20  26653383.729 7 140064508.181 7     -2967.490 7        42.985               
G21  27426823.588 7 144128918.288 7     -2854.232 7        42.450               
G22  27693955.904 6 145532703.386 6      1050.430 6        38.606               
G23  25122523.678 7 132019733.612 7      2687.014 7        43.900               
G24  23787086.053 6 125001984.578 6      2685.022 6        41.521               
G29  28090368.224 6 147615879.659 6     -2760.254 6        38.431               
> 2025 07 30 06 03 31.0000000  0 10                                             
G05  24650305.763 7 129538212.822 7     -2095.627 7        47.792               
G13  24294901.170 7 127670520.723 7     -2573.985 7        45.444               
G15  22783862.066 7 119729976.815 7      -480.584 7        45.690               
G18  24025971.052 7 126257365.203 7       824.323 7        45.351               
G20  26653951.338 7 140067479.336 7     -2975.122 7        43.715               
G21  27427366.092 7 144131771.994 7     -2859.735 7        42.157               
G22  27693755.860 6 145531657.210 6      1046.173 6        38.449               
G23  25122010.694 7 132017043.255 7      2694.629 7        44.056               
G24  23786572.676 7 124999294.327 7      2686.640 7        42.406               
G29  28090884.764 6 147618633.086 6     -2757.718 6        38.968               
> 2025 07 30 06 03 32.0000000  0 10                                             
G05  24650702.240 7 129540309.193 7     -2094.273 7        47.762               
G13  24295390.210 7 127673092.125 7     -2569.144 7        44.683               
G15  22783953.555 7 119730458.616 7      -486.270 7        45.991               
G18  24025814.288 7 126256543.866 7       819.227 7        45.227               
G20  26654515.409 7 140070450.675 7     -2970.877 7        43.699               
G21  27427903.753 7 144134625.823 7     -2849.998 7        42.387               
G22  27693555.226 6 145530611.382 6      1049.409 6        38.446               
G23  25121497.299 7 132014352.980 7      2692.687 7        43.906               
G24  23786059.227 7 124996604.572 7      2692.930 7        42.138               
G29  28091416.367 6 147621386.367 6     -2753.174 6        39.161               
> 2025 07 30 06 03 33.0000000  0 10                                             
G05  24651100.880 7 129542405.881 7     -2095.401 7        47.616               
G13  24295879.571 7 127675663.704 7     -2573.256 7        44.717               
G15  22784042.596 7 119730940.766 7      -484.645 7        45.476               
G18  24025660.400 7 126255723.189 7       819.177 7        45.394               
G20  26655079.231 7 140073422.226 7     -2971.010 7        43.877               
G21  27428446.167 6 144137479.777 6     -2855.122 6        41.881               
G22  27693352.252 6 145529565.990 6      1045.978 6        37.681               
G23  25120990.873 7 132011662.778 7      2689.844 7        44.214               
G24  23785550.174 6 124993915.323 6      2683.035 6        41.861               
G29  28091943.074 6 147624139.562 6     -2758.423 6        39.665               
> 2025 07 30 06 03 34.0000000  0 10                                             
G05  24651497.930 7 129544502.965 7     -2095.285 7        47.826               
G13  24296366.180 7 127678235.536 7     -2569.848 7        44.621               
G15  22784136.605 7 119731423.343 7      -479.904 7        45.467               
G18  24025503.635 7 126254903.224 7       816.448 7        45.499               
G20  26655650.200 7 140076394.044 7     -2973.525 7        43.989               
G21  27428986.937 7 144140333.941 7     -2852.406 7        42.153               
G22  27693154.996 6 145528521.033 6      1045.437 6        38.031               
G23  25120472.493 7 132008972.717 7      2688.687 7        44.070               
G24  23785041.086 6 124991226.650 6      2681.308 6        41.871               
G29  28092463.349 6 147626892.685 6     -2746.765 6        39.171               
> 2025 07 30 06 03 35.0000000  0 10                                             
G05  24651900.609 7 129546600.377 7     -2094.759 7        47.526               
G13  24296854.130 7 127680807.527 7     -2572.037 7        44.806               
G15  22784229.810 7 119731906.266 7      -482.794 7        45.299               
G18  24025353.803 7 126254083.921 7       818.492 7        45.321               
G20  26656211.823 7 140079366.068 7     -2972.117 7        44.355               
G21  27429534.426 7 144143188.254 7     -2850.357 7        42.021               
G22  27692951.039 6 145527476.461 6      1044.951 6        37.383               
G23  25119964.530 7 132006282.747 7      2688.448 7        43.775               
G24  23784527.334 6 124988538.508 6      2685.376 6        41.869               
G29  28092994.791 6 147629645.710 6     -2759.039 6        39.031               
> 2025 07 30 06 03 36.0000000  0 10                                             
G05  24652298.748 7 129548698.138 7     -2098.192 7        47.655               
G13  24297339.416 7 127683379.757 7     -2576.408 7        44.081               
G15  22784323.783 7 119732389.585 7      -482.540 7        45.682               
G18  24025195.251 7 126253265.333 7       812.451 7        45.664               
G20  26656782.309 7 140082338.345 7     -2968.489 7        44.166               
G21  27430084.595 6 144146042.778 6     -2855.858 6        41.848               
G22  27692751.942 6 145526432.320 6      1045.865 6        37.495               
G23  25119449.527 7 132003592.923 7      2689.906 7        44.363               
G24  23784018.352 6 124985850.884 6      2684.151 6        41.225               
G29  28093510.742 6 147632398.655 6     -2758.718 6        38.866               
> 2025 07 30 06 03 37.0000000  0 10                                             
G05  24652697.585 7 129550796.255 7     -2097.806 7        47.471               
G13  24297829.671 7 127685952.160 7     -2573.432 7        43.847               
G15  22784412.056 7 119732873.285 7      -482.148 7        45.906               
G18  24025041.506 7 126252447.425 7       815.393 7        45.471               
G20  26657345.952 7 140085310.870 7     -2970.608 7        44.236               
G21  27430620.612 6 144148897.448 6     -2856.674 6        41.696               
G22  27692554.418 6 145525388.641 6      1050.044 6        37.276               
G23  25118937.240 7 132000903.197 7      2693.763 7        43.970               
G24  23783505.619 6 124983163.837 6      2690.298 6        41.324               
G29  28094029.980 6 147635151.511 6     -2758.110 6        37.810               
> 2025 07 30 06 03 38.0000000  0 10                                             
G05  24653099.423 7 129552894.723 7     -2097.775 7        47.521               
G13  24298321.605 7 127688524.784 7     -2574.456 7        44.852               
G15  22784507.387 7 119733357.365 7      -486.088 7        45.703               
G18  24024885.759 7 126251630.212 7       819.464 7        45.651               
G20  26657913.669 7 140088283.624 7     -2974.158 7        44.547               
G21  27431164.152 6 144151752.281 6     -2856.771 6        41.597               
G22  27692353.392 6 145524345.360 6      1042.732 6        36.417               
G23  25118424.220 7 131998213.574 7      2689.485 7        44.388               
G24  23782993.975 6 124980477.286 6      2677.446 6        41.495               
G29  28094554.972 6 147637904.302 6     -2756.233 6        37.504               
> 2025 07 30 06 03 39.0000000  0 10                                             
G05  24653497.009 7 129554993.538 7     -2095.506 7        47.993               
G13  24298810.645 7 127691097.598 7     -2567.180 7        44.653               
G15  22784598.502 7 119733841.811 7      -487.473 7        45.653               
G18  24024729.924 7 126250813.673 7       816.415 7        46.188               
G20  26658480.617 7 140091256.596 7     -2973.337 7        45.224               
G21  27431707.317 7 144154607.300 7     -2856.583 7        42.185               
G22  27692152.687 6 145523302.473 6      1045.690 6        36.664               
G23  25117912.648 7 131995524.054 7      2694.463 7        44.798               
G24  23782482.671 6 124977791.275 6      2683.645 6        41.532               
G29  28095076.586 6 147640656.995 6     -2758.398 6        37.180               
> 2025 07 30 06 03 40.0000000  0 10                                             
G05  24653897.579 7 129557092.655 7     -2094.539 7        47.807               
G13  24299304.026 7 127693670.576 7     -2572.325 7        44.622               
G15  22784694.315 7 119734326.583 7      -487.880 7        45.718               
G18  24024573.123 7 126249997.785 7       816.095 7        45.183               
G20  26659045.600 7 140094229.768 7     -2973.737 7        45.179               
G21  27432250.428 6 144157462.438 6     -2854.666 6        41.746               
G22  27691959.487 6 145522260.006 6      1038.884 6        36.880               
G23  25117401.540 7 131992834.618 7      2689.545 7        44.062               
G24  23781974.869 6 124975105.761 6      2687.379 6        41.642               
G29  28095604.223 6 147643409.516 6     -2745.948 6        37.242               
> 2025 07 30 06 03 41.0000000  0 10                                             
G05  24654294.003 7 129559192.079 7     -2099.851 7        46.943               
G13  24299791.422 7 127696243.698 7     -2576.377 7        44.785               
G15  22784783.374 7 119734811.697 7      -485.393 7        45.741               
G18  24024418.270 7 126249182.538 7       814.086 7        45.269               
G20  26659609.904 7 140097203.116 7     -2972.019 7        45.030               
G21  27432794.057 6 144160317.669 6     -2854.361 6        41.992               
G22  27691758.943 6 145521217.857 6      1040.732 6        37.368               
G23  25116892.184 7 131990145.227 7      2685.454 7        44.016               
G24  23781464.708 6 124972420.743 6      2680.234 6        41.999               
G29  28096130.626 6 147646161.971 6     -2747.381 6        37.656               
> 2025 07 30 06 03 42.0000000  0 10                                             
G05  24654692.786 7 129561291.795 7     -2097.736 7        47.099               
G13  24300283.320 7 127698816.968 7     -2572.642 7        44.496               
G15  22784879.653 7 119735297.135 7      -486.445 7        45.482               
G18  24024261.845 7 126248367.923 7       815.725 7        45.000               
G20  26660176.673 7 140100176.665 7     -2975.031 7        44.905               
G21  27433338.044 6 144163173.042 6     -2857.547 6        41.956               
G22  27691568.191 6 145520176.107 6      1035.788 6        38.581               
G23  25116379.539 7 131987455.922 7      2684.754 7        43.807               
G24  23780956.102 7 124969736.204 7      2675.224 7        42.271               
G29  28096651.544 6 147648914.268 6     -2746.583 6        37.294               
> 2025 07 30 06 03 43.0000000  0 10                                             
G05  24655091.480 7 129563391.888 7     -2103.711 7        47.338               
G13  24300778.274 7 127701390.461 7     -2571.681 7        44.937               
G15  22784974.251 7 119735782.969 7      -485.005 7        46.451               
G18  24024110.280 7 126247554.015 7       816.788 7        45.081               
G20  26660744.176 7 140103150.459 7     -2974.851 7        45.641               
G21  27433880.405 6 144166028.627 6     -2851.520 6        41.827               
G22  27691375.938 6 145519134.807 6      1037.916 6        39.145               
G23  25115866.198 7 131984766.726 7      2688.537 7        43.988               
G24  23780443.833 7 124967052.238 7      2679.095 7        42.434               
G29  28097177.679 6 147651666.521 6     -2754.061 6        37.323               
> 2025 07 30 06 03 44.0000000  0 10                                             
G05  24655492.211 7 129565492.299 7     -2097.309 7        47.084               
G13  24301265.723 7 127703964.139 7     -2572.881 7        44.837               
G15  22785062.882 7 119736269.159 7      -486.433 7        45.608               
G18  24023956.177 7 126246740.772 7       809.227 7        45.579               
G20  26661308.926 7 140106124.467 7     -2974.820 7        45.478               
G21  27434419.513 6 144168884.330 6     -2852.662 6        41.338               
G22  27691180.952 6 145518093.908 6      1037.145 6        39.660               
G23  25115356.931 7 131982077.620 7      2688.334 7        43.837               
G24  23779934.101 7 124964368.769 7      2679.889 7        42.147               
G29  28097700.313 6 147654418.632 6     -2759.916 6        36.390               
> 2025 07 30 06 03 45.0000000  0 10                                             
G05  24655889.975 7 129567593.069 7     -2100.328 7        46.864               
G13  24301757.908 7 127706538.017 7     -2575.189 7        44.610               
G15  22785158.392 7 119736755.722 7      -489.599 7        45.568               
G18  24023800.556 7 126245928.235 7       815.121 7        45.385               
G20  26661872.765 7 140109098.717 7     -2974.831 7        45.647               
G21  27434962.320 6 144171740.234 6     -2855.791 6        41.996               
G22  27690974.850 6 145517053.439 6      1041.512 6        39.866               
G23  25114847.700 7 131979388.636 7      2690.504 7        44.892               
G24  23779423.297 7 124961685.843 7      2684.232 7        42.447               
G29  28098229.039 5 147657170.643 5     -2742.764 5        35.978               
> 2025 07 30 06 03 46.0000000  0 10                                             
G05  24656290.563 7 129569694.119 7     -2103.979 7        46.699               
G13  24302246.393 7 127709112.028 7     -2573.835 7        45.346               
G15  22785249.506 7 119737242.586 7      -480.837 7        45.859               
G18  24023649.295 7 126245116.322 7       810.720 7        45.673               
G20  26662440.303 7 140112073.129 7     -2973.871 7        45.741               
G21  27435503.162 6 144174596.245 6     -2855.101 6        41.952               
G22  27690780.292 6 145516013.344 6      1044.868 6        39.580               
G23  25114335.323 7 131976699.714 7      2686.853 7        44.525               
G24  23778912.511 7 124959003.384 7      2685.272 7        42.254               
G29  28098752.673 6 147659922.544 6     -2751.249 6        36.430               
> 2025 07 30 06 03 47.0000000  0 10                                             
G05  24656690.990 7 129571795.516 7     -2103.331 7        46.994               
G13  24302734.485 7 127711686.204 7     -2572.242 7        45.145               
G15  22785341.746 7 119737729.808 7      -490.790 7        45.049               
G18  24023488.277 7 126244305.056 7       808.964 7        44.944               
G20  26663008.074 7 140115047.750 7     -2974.392 7        45.589               
G21  27436051.223 6 144177452.382 6     -2857.306 6        41.304               
G22  27690587.628 6 145514973.614 6      1038.746 6        38.695               
G23  25113826.396 7 131974010.864 7      2685.991 7        44.373               
G24  23778400.689 7 124956321.457 7      2683.566 7        42.235               
G29  28099263.030 5 147662674.321 5     -2755.044 5        35.172               
> 2025 07 30 06 03 48.0000000  0 10                                             
G05  24657092.918 7 129573897.277 7     -2099.307 7        46.957               
G13  24303226.509 7 127714260.616 7     -2576.011 7        44.976               
G15  22785432.199 7 119738217.419 7      -486.970 7        44.925               
G18  24023336.694 7 126243494.506 7       807.770 7        44.505               
G20  26663572.735 7 140118022.629 7     -2976.437 7        45.288               
G21  27436598.962 6 144180308.710 6     -2855.333 6        41.501               
G22  27690383.779 6 145513934.367 6      1040.750 6        39.325               
G23  25113310.392 7 131971322.146 7      2686.823 7        43.677               
G24  23777890.153 6 124953640.079 6      2680.866 6        41.686               
G29  28099781.589 5 147665426.062 5     -2749.443 5        35.195               
> 2025 07 30 06 03 49.0000000  0 10                                             
G05  24657493.041 7 129575999.324 7     -2102.005 7        47.021               
G13  24303709.312 7 127716835.172 7     -2573.927 7        44.382               
G15  22785523.795 7 119738705.378 7      -486.263 7        44.413               
G18  24023180.036 7 126242684.606 7       811.339 7        44.784               
G20  26664140.130 7 140120997.696 7     -2976.471 7        45.295               
G21  27437136.552 6 144183165.155 6     -2853.253 6        40.649               
G22  27690183.932 6 145512895.489 6      1033.884 6        39.371               
G23  25112796.014 7 131968633.489 7      2687.561 7        43.800               
G24  23777375.936 6 124950959.193 6      2685.502 6        41.878               
G29  28100308.457 5 147668177.657 5     -2746.286 5        34.380               
> 2025 07 30 06 03 50.0000000  0 10                                             
G05  24657893.539 7 129578101.755 7     -2101.266 7        47.133               
G13  24304204.266 7 127719409.947 7     -2574.347 7        44.348               
G15  22785614.373 7 119739193.711 7      -491.186 7        44.403               
G18  24023025.058 7 126241875.394 7       810.349 7        45.404               
G20  26664708.168 7 140123973.007 7     -2972.974 7        45.448               
G21  27437685.542 6 144186021.796 6     -2855.572 6        41.301               
G22  27689986.461 6 145511857.022 6      1040.733 6        38.280               
G23  25112285.174 7 131965944.959 7      2686.903 7        43.955               
G24  23776862.452 6 124948278.843 6      2677.845 6        41.280               
G29  28100835.844 5 147670929.198 5     -2755.737 5        34.776               
> 2025 07 30 06 03 51.0000000  0 10                                             
G05  24658293.502 7 129580204.492 7     -2102.683 7        47.809               
G13  24304696.951 7 127721984.887 7     -2579.425 7        44.454               
G15  22785706.935 7 119739682.381 7      -490.062 7        44.582               
G18  24022870.795 7 126241066.847 7       809.136 7        44.850               
G20  26665274.348 7 140126948.524 7     -2974.793 7        44.722               
G21  27438228.992 6 144188878.551 6     -2856.847 6        41.556               
G22  27689791.510 6 145510818.948 6      1038.458 6        38.553               
G23  25111776.461 7 131963256.512 7      2688.379 7        44.493               
G24  23776349.718 6 124945599.002 6      2678.824 6        41.188               
G29  28101364.409 5 147673680.576 5     -2746.864 5        34.497               
> 2025 07 30 06 03 52.0000000  0 10                                             
G05  24658694.661 7 129582307.541 7     -2104.068 7        47.133               
G13  24305186.526 7 127724559.979 7     -2576.799 7        44.430               
G15  22785799.729 7 119740171.395 7      -490.444 7        45.528               
G18  24022719.408 7 126240258.938 7       809.261 7        45.018               
G20  26665839.831 7 140129924.236 7     -2974.140 7        44.925               
G21  27438769.226 7 144191735.454 7     -2853.086 7        42.134               
G22  27689590.984 6 145509781.260 6      1045.695 6        37.701               
G23  25111262.137 7 131960568.139 7      2685.795 7        44.816               
G24  23775841.899 6 124942919.634 6      2684.153 6        40.094               
G29  28101876.518 5 147676431.864 5     -2761.594 5        34.055               
> 2025 07 30 06 03 53.0000000  0  9                                             
G05  24659095.267 7 129584410.919 7     -2099.907 7        47.604               
G13  24305674.833 7 127727135.270 7     -2577.079 7        44.506               
G15  22785890.825 7 119740660.781 7      -490.115 7        45.126               
G18  24022571.256 7 126239451.713 7       806.916 7        44.885               
G20  26666404.332 7 140132900.168 7     -2975.716 7        44.265               
G21  27439313.142 6 144194592.519 6     -2856.858 6        41.802               
G22  27689386.080 6 145508743.976 6      1039.029 6        37.778               
G23  25110747.634 7 131957879.856 7      2687.158 7        44.433               
G24  23775331.238 6 124940240.832 6      2679.196 6        40.175               
> 2025 07 30 06 03 54.0000000  0  9                                             
G05  24659494.657 7 129586514.672 7     -2104.305 7        47.718               
G13  24306163.694 7 127729710.760 7     -2578.109 7        44.170               
G15  22785983.315 7 119741150.556 7      -491.989 7        45.533               
G18  24022414.259 7 126238645.191 7       803.388 7        45.005               
G20  26666967.563 7 140135876.363 7     -2978.925 7        43.980               
G21  27439860.863 7 144197449.757 7     -2858.250 7        42.146               
G22  27689189.610 6 145507707.169 6      1034.335 6        37.107               
G23  25110241.709 7 131955191.703 7      2689.618 7        44.794               
G24  23774824.383 6 124937562.564 6      2670.605 6        40.672               
> 2025 07 30 06 03 55.0000000  0  9                                             
G05  24659891.707 8 129588618.781 8     -2104.944 8        48.101               
G13  24306652.555 7 127732286.465 7     -2569.110 7        44.635               
G15  22786079.111 7 119741640.712 7      -485.531 7        45.102               
G18  24022261.729 7 126237839.352 7       805.146 7        44.819               
G20  26667536.066 7 140138852.792 7     -2977.891 7        43.919               
G21  27440403.509 7 144200307.180 7     -2859.383 7        42.343               
G22  27688993.855 6 145506670.771 6      1039.982 6        37.468               
G23  25109726.259 7 131952503.681 7      2687.508 7        44.758               
G24  23774309.272 6 124934884.823 6      2679.988 6        41.291               
> 2025 07 30 06 03 56.0000000  0  9                                             
G05  24660292.688 7 129590723.235 7     -2106.663 7        47.531               
G13  24307143.792 7 127734862.380 7     -2578.594 7        44.705               
G15  22786176.122 7 119742131.264 7      -488.636 7        45.264               
G18  24022105.340 7 126237034.229 7       805.266 7        45.754               
G20  26668100.030 7 140141829.468 7     -2974.244 7        44.360               
G21  27440948.300 6 144203164.785 6     -2855.576 6        41.814               
G22  27688800.673 6 145505634.820 6      1037.028 6        37.413               
G23  25109217.724 7 131949815.776 7      2686.826 7        45.408               
G24  23773803.007 6 124932207.699 6      2679.769 6        41.142               
> 2025 07 30 06 03 57.0000000  0  9                                             
G05  24660695.438 7 129592828.043 7     -2106.190 7        47.515               
G13  24307636.209 7 127737438.481 7     -2577.730 7        44.227               
G15  22786267.433 7 119742622.171 7      -491.914 7        44.775               
G18  24021953.739 7 126236229.760 7       803.090 7        45.310               
G20  26668669.409 7 140144806.369 7     -2976.771 7        43.804               
G21  27441491.769 7 144206022.521 7     -2852.033 7        42.260               
G22  27688602.434 6 145504599.252 6      1031.979 6        37.795               
G23  25108706.081 7 131947127.959 7      2688.783 7        45.183               
G24  23773293.204 7 124929531.035 7      2676.887 7        42.029               
> 2025 07 30 06 03 58.0000000  0  9                                             
G05  24661092.166 8 129594933.132 8     -2104.933 8        48.002               
G13  24308127.928 7 127740014.731 7     -2575.595 7        44.815               
G15  22786363.657 7 119743113.393 7      -493.104 7        44.921               
G18  24021796.634 7 126235425.946 7       810.667 7        44.773               
G20  26669229.424 7 140147783.456 7     -2978.740 7        43.824               
G21  27442034.504 7 144208880.408 7     -2858.033 7        42.422               
G22  27688400.442 6 145503564.074 6      1034.784 6        38.409               
G23  25108193.293 7 131944440.214 7      2685.929 7        44.607               
G24  23772786.939 6 124926854.891 6      2678.519 6        41.677               
> 2025 07 30 06 03 59.0000000  0  9                                             
G05  24661492.057 7 129597038.509 7     -2106.065 7        47.530               
G13  24308616.039 7 127742591.114 7     -2579.688 7        45.609               
G15  22786460.150 7 119743604.931 7      -490.564 7        44.834               
G18  24021646.445 7 126234622.748 7       803.077 7        44.845               
G20  26669797.766 7 140150760.699 7     -2974.948 7        43.302               
G21  27442586.282 7 144211738.389 7     -2859.279 7        42.762               
G22  27688202.686 6 145502529.221 6      1041.311 6        38.847               
G23  25107683.472 7 131941752.510 7      2685.130 7        44.136               
G24  23772275.295 6 124924179.190 6      2680.802 6        41.478               
> 2025 07 30 06 04 00.0000000  0  9                                             
G05  24661894.789 7 129599144.248 7     -2106.557 7        47.273               
G13  24309104.220 7 127745167.702 7     -2580.063 7        44.977               
G15  22786551.568 7 119744096.841 7      -493.670 7        44.883               
G18  24021490.288 7 126233820.247 7       802.121 7        44.208               
G20  26670366.466 7 140153738.205 7     -2981.902 7        43.639               
G21  27443123.818 7 144214596.546 7     -2859.823 7        42.560               
G22  27688010.469 6 145501494.846 6      1029.710 6        38.072               
G23  25107168.076 7 131939064.931 7      2687.883 7        44.612               
G24  23771764.152 6 124921504.062 6      2674.313 6        41.349               
> 2025 07 30 06 04 01.0000000  0  9                                             
G05  24662296.913 7 129601250.387 7     -2106.172 7        47.468               
G13  24309594.153 7 127747744.519 7     -2577.671 7        45.278               
G15  22786646.738 7 119744589.174 7      -495.151 7        45.340               
G18  24021341.635 7 126233018.475 7       803.057 7        44.183               
G20  26670935.862 7 140156715.978 7     -2980.888 7        43.690               
G21  27443669.288 7 144217454.901 7     -2855.427 7        43.373               
G22  27687826.025 6 145500460.905 6      1037.831 6        39.364               
G23  25106658.469 7 131936377.494 7      2686.273 7        44.631               
G24  23771255.367 6 124918829.476 6      2667.204 6        41.444               
> 2025 07 30 06 04 02.0000000  0  9                                             
G05  24662699.627 7 129603356.827 7     -2104.348 7        47.234               
G13  24310080.530 7 127750321.508 7     -2580.907 7        44.382               
G15  22786742.248 7 119745081.845 7      -494.554 7        45.027               
G18  24021191.321 7 126232217.371 7       799.282 7        44.288               
G20  26671506.027 7 140159693.946 7     -2980.401 7        43.821               
G21  27444210.058 7 144220313.397 7     -2857.011 7        42.730               
G22  27687620.924 6 145499427.381 6      1041.218 6        39.332               
G23  25106145.325 7 131933690.157 7      2685.591 7        44.681               
G24  23770747.369 6 124916155.422 6      2674.956 6        40.853               
> 2025 07 30 06 04 03.0000000  0  9                                             
G05  24663101.037 7 129605463.563 7     -2108.245 7        47.918               
G13  24310571.214 7 127752898.639 7     -2580.283 7        44.479               
G15  22786839.366 7 119745574.834 7      -491.174 7        45.737               
G18  24021038.184 7 126231416.862 7       800.593 7        44.313               
G20  26672071.206 7 140162672.082 7     -2981.600 7        43.927               
G21  27444756.939 7 144223172.000 7     -2858.604 7        43.213               
G22  27687424.347 6 145498394.185 6      1035.651 6        39.251               
G23  25105633.073 7 131931002.847 7      2688.042 7        44.474               
G24  23770239.656 6 124913481.838 6      2671.874 6        41.687               
> 2025 07 30 06 04 04.0000000  0  9                                             
G05  24663501.196 7 129607570.663 7     -2107.387 7        47.726               
G13  24311061.611 7 127755475.984 7     -2577.301 7        44.492               
G15  22786932.196 7 119746068.207 7      -492.427 7        45.919               
G18  24020884.188 7 126230617.083 7       799.639 7        45.221               
G20  26672638.155 7 140165650.467 7     -2978.389 7        44.343               
G21  27445301.462 7 144226030.808 7     -2862.107 7        43.229               
G22  27687225.143 6 145497361.436 6      1037.170 6        38.765               
G23  25105125.307 7 131928315.688 7      2687.555 7        44.723               
G24  23769738.984 6 124910808.818 6      2663.854 6        41.226               
> 2025 07 30 06 04 05.0000000  0  9                                             
G05  24663904.125 8 129609678.087 8     -2109.376 8        48.166               
G13  24311551.133 7 127758053.505 7     -2579.443 7        44.782               
G15  22787024.525 7 119746561.927 7      -495.426 7        45.829               
G18  24020733.142 7 126229817.955 7       800.963 7        44.944               
G20  26673200.761 7 140168629.056 7     -2978.640 7        44.400               
G21  27445846.664 7 144228889.732 7     -2859.084 7        43.260               
G22  27687034.320 6 145496329.105 6      1031.706 6        39.193               
G23  25104610.697 7 131925628.580 7      2686.822 7        44.134               
G24  23769233.576 6 124908136.283 6      2676.583 6        41.844               
> 2025 07 30 06 04 06.0000000  0  9                                             
G05  24664305.213 7 129611785.822 7     -2106.381 7        47.916               
G13  24312046.176 7 127760631.180 7     -2579.494 7        44.712               
G15  22787118.641 7 119747055.987 7      -490.717 7        45.542               
G18  24020582.130 7 126229019.478 7       798.903 7        44.883               
G20  26673767.691 7 140171607.849 7     -2977.921 7        44.394               
G21  27446387.095 7 144231748.791 7     -2858.795 7        42.923               
G22  27686841.316 6 145495297.137 6      1027.544 6        39.700               
G23  25104100.930 7 131922941.573 7      2688.310 7        43.935               
G24  23768727.240 6 124905464.275 6      2669.680 6        41.690               
> 2025 07 30 06 04 07.0000000  0  9                                             
G05  24664706.801 8 129613893.952 8     -2107.784 8        48.114               
G13  24312534.465 7 127763209.069 7     -2579.521 7        43.702               
G15  22787208.773 7 119747550.450 7      -489.814 7        44.764               
G18  24020430.011 7 126228221.731 7       794.412 7        45.072               
G20  26674337.963 7 140174586.919 7     -2977.383 7        44.843               
G21  27446931.224 7 144234608.044 7     -2859.295 7        42.639               
G22  27686641.005 6 145494265.643 6      1035.725 6        38.812               
G23  25103589.804 7 131920254.704 7      2685.241 7        44.260               
G24  23768213.899 7 124902792.830 7      2675.577 7        42.285               
> 2025 07 30 06 04 08.0000000  0  9                                             
G05  24665109.033 7 129616002.399 7     -2110.630 7        47.840               
G13  24313024.505 7 127765787.149 7     -2574.544 7        43.402               
G15  22787306.123 7 119748045.261 7      -493.928 7        44.647               
G18  24020277.553 7 126227424.642 7       795.072 7        44.997               
G20  26674903.625 7 140177566.180 7     -2977.517 7        44.507               
G21  27447474.318 7 144237467.472 7     -2860.199 7        42.552               
G22  27686445.482 6 145493234.543 6      1032.514 6        39.280               
G23  25103073.640 7 131917567.931 7      2690.099 7        44.521               
G24  23767705.721 7 124900121.910 7      2671.006 7        42.622               
> 2025 07 30 06 04 09.0000000  0  9                                             
G05  24665509.156 8 129618111.169 8     -2110.547 8        48.227               
G13  24313521.496 7 127768365.400 7     -2576.780 7        43.833               
G15  22787397.059 7 119748540.424 7      -496.316 7        44.959               
G18  24020128.061 7 126226628.217 7       794.337 7        44.965               
G20  26675470.788 7 140180545.663 7     -2978.866 7        44.442               
G21  27448017.625 7 144240327.024 7     -2861.588 7        43.015               
G22  27686248.565 6 145492203.858 6      1039.983 6        39.711               
G23  25102565.820 7 131914881.237 7      2686.632 7        44.088               
G24  23767200.707 7 124897451.495 7      2668.781 7        42.716               
> 2025 07 30 06 04 10.0000000  0  9                                             
G05  24665909.797 7 129620220.304 7     -2110.339 7        47.683               
G13  24314008.356 7 127770943.853 7     -2575.912 7        43.701               
G15  22787490.567 7 119749035.985 7      -498.635 7        45.438               
G18  24019978.962 7 126225832.493 7       792.413 7        44.486               
G20  26676038.344 7 140183525.386 7     -2978.125 7        44.148               
G21  27448564.650 7 144243186.770 7     -2858.705 7        43.172               
G22  27686049.897 6 145491173.596 6      1035.010 6        39.490               
G23  25102055.284 7 131912194.675 7      2687.426 7        44.686               
G24  23766692.887 7 124894781.612 7      2671.254 7        43.097               
> 2025 07 30 06 04 11.0000000  0  9                                             
G05  24666313.155 8 129622329.767 8     -2112.301 8        48.067               
G13  24314496.091 7 127773522.510 7     -2575.792 7        44.158               
G15  22787583.861 7 119749531.910 7      -501.178 7        45.220               
G18  24019823.841 7 126225037.451 7       790.515 7        45.217               
G20  26676602.308 7 140186505.347 7     -2982.478 7        44.611               
G21  27449108.100 7 144246046.666 7     -2855.854 7        43.623               
G22  27685860.325 6 145490143.720 6      1034.604 6        39.328               
G23  25101543.747 7 131909508.214 7      2683.009 7        44.844               
G24  23766192.984 7 124892112.275 7      2673.220 7        43.412               
> 2025 07 30 06 04 12.0000000  0  9                                             
G05  24666713.814 8 129624439.623 8     -2111.140 8        48.226               
G13  24314986.899 7 127776101.403 7     -2578.738 7        44.084               
G15  22787678.996 7 119750028.239 7      -496.315 7        44.708               
G18  24019674.688 7 126224243.116 7       799.135 7        44.867               
G20  26677172.544 7 140189485.555 7     -2981.516 7        45.302               
G21  27449654.499 7 144248906.774 7     -2862.446 7        43.156               
G22  27685661.764 6 145489114.336 6      1030.750 6        39.185               
G23  25101036.893 7 131906821.883 7      2690.426 7        44.034               
G24  23765677.998 7 124889443.515 7      2667.780 7        42.886               
> 2025 07 30 06 04 13.0000000  0  9                                             
G05  24667113.294 7 129626549.817 7     -2108.566 7        47.865               
G13  24315479.781 7 127778680.470 7     -2580.302 7        44.043               
G15  22787773.970 7 119750524.945 7      -496.948 7        44.224               
G18  24019523.641 7 126223449.496 7       793.011 7        44.731               
G20  26677740.529 7 140192466.005 7     -2980.065 7        45.232               
G21  27450199.361 7 144251767.052 7     -2862.223 7        43.933               
G22  27685471.459 6 145488085.399 6      1034.105 6        38.772               
G23  25100520.799 7 131904135.687 7      2687.034 7        44.298               
G24  23765175.057 7 124886775.293 7      2667.631 7        42.145               
> 2025 07 30 06 04 14.0000000  0  9                                             
G05  24667516.294 8 129628660.331 8     -2109.369 8        48.593               
G13  24315973.359 7 127781259.713 7     -2579.365 7        43.973               
G15  22787865.191 7 119751021.990 7      -492.196 7        44.175               
G18  24019367.716 7 126222656.504 7       793.696 7        44.346               
G20  26678308.496 7 140195446.655 7     -2984.792 7        45.388               
G21  27450742.901 7 144254627.442 7     -2862.789 7        43.774               
G22  27685275.096 6 145487056.825 6      1022.059 6        39.156               
G23  25100007.869 7 131901449.554 7      2685.718 7        44.885               
G24  23764664.342 7 124884107.574 7      2666.849 7        42.148               
> 2025 07 30 06 04 15.0000000  0  9                                             
G05  24667919.580 8 129630771.148 8     -2112.110 8        48.065               
G13  24316461.129 7 127783839.124 7     -2577.644 7        44.018               
G15  22787962.292 7 119751519.378 7      -494.814 7        44.896               
G18  24019214.757 7 126221864.184 7       792.409 7        44.285               
G20  26678876.302 7 140198427.503 7     -2980.640 7        45.922               
G21  27451284.762 7 144257487.990 7     -2857.846 7        43.042               
G22  27685079.752 6 145486028.639 6      1026.378 6        38.732               
G23  25099500.568 7 131898763.519 7      2687.519 7        44.421               
G24  23764155.718 7 124881440.361 7      2667.756 7        42.476               
> 2025 07 30 06 04 16.0000000  0  9                                             
G05  24668321.562 8 129632882.307 8     -2110.368 8        48.654               
G13  24316951.938 7 127786418.725 7     -2575.989 7        44.261               
G15  22788054.228 7 119752017.141 7      -500.928 7        44.917               
G18  24019067.534 7 126221072.548 7       791.304 7        44.123               
G20  26679442.839 7 140201408.580 7     -2980.133 7        45.649               
G21  27451832.036 7 144260348.689 7     -2858.989 7        43.493               
G22  27684882.854 6 145485000.875 6      1029.834 6        39.406               
G23  25098991.426 7 131896077.571 7      2680.724 7        44.439               
G24  23763645.040 7 124878773.683 7      2663.240 7        42.557               
> 2025 07 30 06 04 17.0000000  0  9                                             
G05  24668724.937 8 129634993.817 8     -2110.144 8        48.465               
G13  24317441.960 7 127788998.506 7     -2581.744 7        44.115               
G15  22788150.863 7 119752515.259 7      -498.997 7        44.627               
G18  24018912.610 7 126220281.585 7       789.906 7        43.814               
G20  26680007.715 7 140204389.889 7     -2983.695 7        45.317               
G21  27452377.488 7 144263209.555 7     -2859.946 7        43.652               
G22  27684681.273 6 145483973.540 6      1030.014 6        39.147               
G23  25098477.745 7 131893391.738 7      2685.025 7        44.769               
G24  23763136.612 7 124876107.540 7      2665.052 7        42.104               
> 2025 07 30 06 04 18.0000000  0  9                                             
G05  24669123.863 8 129637105.636 8     -2109.832 8        48.709               
G13  24317933.662 7 127791578.444 7     -2576.639 7        43.862               
G15  22788248.696 7 119753013.717 7      -495.326 7        44.889               
G18  24018764.797 7 126219491.270 7       796.705 7        44.829               
G20  26680575.700 7 140207371.377 7     -2980.110 7        45.467               
G21  27452920.599 7 144266070.555 7     -2862.308 7        43.914               
G22  27684490.914 6 145482946.578 6      1023.712 6        39.781               
G23  25097968.031 7 131890705.990 7      2681.044 7        44.579               
G24  23762627.202 6 124873441.866 6      2669.539 6        41.487               
> 2025 07 30 06 04 19.0000000  0  9                                             
G05  24669528.203 8 129639217.791 8     -2110.309 8        48.588               
G13  24318423.398 7 127794158.548 7     -2575.480 7        44.786               
G15  22788344.063 7 119753512.528 7      -503.621 7        44.778               
G18  24018614.322 7 126218701.629 7       791.102 7        44.345               
G20  26681143.881 7 140210353.085 7     -2982.528 7        45.058               
G21  27453464.121 7 144268931.696 7     -2860.617 7        43.581               
G22  27684297.018 6 145481920.023 6      1023.181 6        39.034               
G23  25097454.922 7 131888020.320 7      2689.528 7        45.467               
G24  23762122.795 6 124870776.757 6      2671.037 6        41.078               
> 2025 07 30 06 04 20.0000000  0  9                                             
G05  24669928.505 8 129641330.266 8     -2113.668 8        48.376               
G13  24318919.585 7 127796738.821 7     -2580.974 7        44.849               
G15  22788432.568 7 119754011.686 7      -498.016 7        44.615               
G18  24018469.297 7 126217912.649 7       783.220 7        44.670               
G20  26681711.580 7 140213335.006 7     -2980.638 7        45.556               
G21  27454008.787 7 144271792.968 7     -2860.623 7        42.518               
G22  27684098.957 6 145480893.876 6      1024.092 6        39.198               
G23  25096941.598 7 131885334.735 7      2685.915 7        44.638               
G24  23761610.490 6 124868112.122 6      2663.931 6        40.751               
> 2025 07 30 06 04 21.0000000  0  9                                             
G05  24670328.557 8 129643443.062 8     -2109.631 8        48.369               
G13  24319407.356 7 127799319.279 7     -2582.178 7        44.637               
G15  22788533.243 7 119754511.184 7      -498.892 7        44.327               
G18  24018321.324 7 126217124.316 7       791.629 7        44.021               
G20  26682280.172 7 140216317.128 7     -2983.382 7        45.464               
G21  27454550.844 7 144274654.395 7     -2860.550 7        43.483               
G22  27683900.290 6 145479868.076 6      1024.099 6        39.311               
G23  25096430.812 7 131882649.228 7      2687.820 7        44.405               
G24  23761103.922 6 124865447.972 6      2665.571 6        40.953               
> 2025 07 30 06 04 22.0000000  0  9                                             
G05  24670732.057 8 129645556.225 8     -2113.196 8        48.575               
G13  24319897.986 7 127801899.928 7     -2578.265 7        44.015               
G15  22788630.039 7 119755011.065 7      -501.769 7        44.807               
G18  24018170.045 7 126216336.693 7       788.908 7        44.310               
G20  26682846.066 7 140219299.482 7     -2981.050 7        45.536               
G21  27455099.137 7 144277515.963 7     -2860.942 7        43.946               
G22  27683713.094 6 145478842.760 6      1029.523 6        39.466               
G23  25095919.472 7 131879963.849 7      2685.298 7        44.982               
G24  23760599.515 6 124862784.400 6      2656.193 6        41.335               
> 2025 07 30 06 04 23.0000000  0  9                                             
G05  24671135.504 8 129647669.721 8     -2111.929 8        48.488               
G13  24320390.063 7 127804480.782 7     -2580.350 7        44.641               
G15  22788725.352 7 119755511.326 7      -501.251 7        44.327               
G18  24018019.623 7 126215549.745 7       787.101 7        44.822               
G20  26683416.785 7 140222282.092 7     -2985.862 7        44.893               
G21  27455641.569 7 144280377.741 7     -2864.552 7        42.742               
G22  27683512.389 6 145477817.860 6      1018.773 6        38.281               
G23  25095407.489 7 131877278.583 7      2681.483 7        44.339               
G24  23760090.962 6 124860121.372 6      2653.570 6        41.018               
> 2025 07 30 06 04 24.0000000  0  9                                             
G05  24671536.342 8 129649783.497 8     -2113.328 8        48.103               
G13  24320883.284 7 127807061.764 7     -2580.778 7        44.432               
G15  22788820.326 7 119756011.890 7      -499.125 7        43.750               
G18  24017869.202 7 126214763.432 7       785.566 7        44.288               
G20  26683981.160 7 140225264.857 7     -2983.249 7        44.896               
G21  27456184.751 7 144283239.596 7     -2864.675 7        42.211               
G22  27683318.814 6 145476793.302 6      1026.859 6        38.154               
G23  25094899.669 7 131874593.360 7      2683.473 7        44.741               
G24  23759580.659 6 124857458.805 6      2660.831 6        40.536               
> 2025 07 30 06 04 25.0000000  0  9                                             
G05  24671939.342 8 129651897.592 8     -2112.413 8        48.413               
G13  24321373.628 7 127809642.916 7     -2580.958 7        44.297               
G15  22788917.194 7 119756512.808 7      -499.133 7        44.456               
G18  24017718.155 7 126213977.794 7       785.464 7        43.946               
G20  26684550.503 7 140228247.838 7     -2984.769 7        45.261               
G21  27456727.595 6 144286101.623 6     -2861.874 6        41.713               
G22  27683120.235 6 145475769.141 6      1027.057 6        37.665               
G23  25094386.936 7 131871908.226 7      2685.403 7        44.943               
G24  23759074.912 6 124854796.771 6      2657.273 6        40.584               
> 2025 07 30 06 04 26.0000000  0  9                                             
G05  24672337.893 8 129654012.050 8     -2114.435 8        48.270               
G13  24321866.634 7 127812224.268 7     -2581.465 7        44.483               
G15  22789014.205 7 119757014.094 7      -503.437 7        44.326               
G18  24017565.446 7 126213192.844 7       783.000 7        44.306               
G20  26685116.772 7 140231231.053 7     -2982.701 7        44.957               
G21  27457274.101 6 144288963.809 6     -2865.468 6        41.734               
G22  27682921.246 6 145474745.397 6      1024.047 6        37.916               
G23  25093877.776 7 131869223.225 7      2688.480 7        45.242               
G24  23758569.933 6 124852135.257 6      2655.500 6        40.329               
> 2025 07 30 06 04 27.0000000  0  9                                             
G05  24672740.982 8 129656126.863 8     -2112.344 8        48.268               
G13  24322358.014 7 127814805.831 7     -2583.168 7        44.895               
G15  22789108.321 7 119757515.785 7      -501.272 7        44.398               
G18  24017415.329 7 126212408.573 7       786.743 7        43.673               
G20  26685689.886 7 140234214.503 7     -2982.492 7        43.881               
G21  27457822.948 6 144291826.178 6     -2869.154 6        41.926               
G22  27682721.970 6 145473722.129 6      1020.756 6        38.047               
G23  25093364.452 7 131866538.332 7      2686.391 7        44.502               
G24  23758067.421 6 124849474.322 6      2662.244 6        41.053               
> 2025 07 30 06 04 28.0000000  0  9                                             
G05  24673142.392 8 129658242.047 8     -2116.512 8        48.381               
G13  24322850.109 7 127817387.604 7     -2584.411 7        45.337               
G15  22789202.831 7 119758017.841 7      -507.788 7        45.245               
G18  24017266.891 7 126211625.021 7       782.064 7        44.185               
G20  26686250.580 7 140237198.201 7     -2984.441 7        44.779               
G21  27458362.449 6 144294688.724 6     -2863.980 6        41.860               
G22  27682530.057 6 145472699.243 6      1023.650 6        38.385               
G23  25092857.401 7 131863853.584 7      2685.036 7        45.209               
G24  23757563.550 6 124846813.922 6      2662.250 6        41.672               
> 2025 07 30 06 04 29.0000000  0  9                                             
G05  24673543.998 8 129660357.565 8     -2115.465 8        48.137               
G13  24323343.205 7 127819969.573 7     -2578.218 7        45.268               
G15  22789299.448 7 119758520.284 7      -504.927 7        44.792               
G18  24017116.755 7 126210842.154 7       779.993 7        44.020               
G20  26686819.958 7 140240182.119 7     -2986.534 7        44.386               
G21  27458905.024 7 144297551.440 7     -2861.284 7        42.303               
G22  27682337.501 6 145471676.846 6      1018.445 6        38.391               
G23  25092346.794 7 131861168.932 7      2682.279 7        45.267               
G24  23757057.249 6 124844154.067 6      2665.451 6        41.628               
> 2025 07 30 06 04 30.0000000  0  9                                             
G05  24673946.998 8 129662473.451 8     -2116.505 8        48.027               
G13  24323832.334 7 127822551.745 7     -2584.172 7        45.176               
G15  22789396.048 7 119759023.102 7      -500.091 7        45.061               
G18  24016968.389 7 126210059.991 7       778.311 7        43.924               
G20  26687387.854 7 140243166.304 7     -2985.169 7        44.139               
G21  27459450.530 6 144300414.334 6     -2858.743 6        41.886               
G22  27682152.074 6 145470654.865 6      1021.433 6        39.211               
G23  25091836.901 7 131858484.407 7      2681.970 7        44.926               
G24  23756555.451 7 124841494.787 7      2653.881 7        42.376               
> 2025 07 30 06 04 31.0000000  0  9                                             
G05  24674350.677 7 129664589.655 7     -2116.071 7        47.452               
G13  24324323.071 7 127825134.090 7     -2585.946 7        45.188               
G15  22789491.469 7 119759526.259 7      -500.866 7        45.288               
G18  24016819.986 7 126209278.489 7       780.527 7        44.111               
G20  26687958.447 7 140246150.687 7     -2985.810 7        44.224               
G21  27459997.340 7 144303277.366 7     -2859.738 7        42.019               
G22  27681955.282 6 145469633.275 6      1019.662 6        40.346               
G23  25091324.346 7 131855799.979 7      2682.076 7        44.904               
G24  23756054.547 7 124838835.995 7      2652.153 7        42.706               
> 2025 07 30 06 04 32.0000000  0  9                                             
G05  24674755.000 8 129666706.204 8     -2117.519 8        48.059               
G13  24324815.201 7 127827716.621 7     -2579.752 7        44.519               
G15  22789586.836 7 119760029.801 7      -503.407 7        45.325               
G18  24016670.601 7 126208497.677 7       791.643 7        43.919               
G20  26688524.342 7 140249135.304 7     -2983.988 7        44.556               
G21  27460544.114 7 144306140.569 7     -2866.924 7        42.394               
G22  27681766.299 6 145468612.102 6      1019.476 6        39.916               
G23  25090816.169 7 131853115.649 7      2687.006 7        45.372               
G24  23755544.654 7 124836177.750 7      2662.425 7        42.619               
> 2025 07 30 06 04 33.0000000  0  9                                             
G05  24675159.108 8 129668823.107 8     -2116.265 8        48.350               
G13  24325300.828 7 127830299.370 7     -2586.464 7        44.832               
G15  22789682.507 7 119760533.728 7      -501.721 7        45.132               
G18  24016523.110 7 126207717.556 7       780.937 7        43.716               
G20  26689095.614 7 140252120.137 7     -2984.958 7        44.432               
G21  27461096.338 7 144309003.937 7     -2863.349 7        42.253               
G22  27681572.581 6 145467591.390 6      1018.456 6        40.023               
G23  25090307.706 7 131850431.439 7      2685.898 7        45.736               
G24  23755032.260 6 124833520.063 6      2658.051 6        41.639               
> 2025 07 30 06 04 34.0000000  0  9                                             
G05  24675563.376 8 129670940.376 8     -2122.320 8        48.772               
G13  24325794.495 7 127832882.300 7     -2581.548 7        44.845               
G15  22789779.428 7 119761038.009 7      -502.437 7        45.142               
G18  24016373.654 7 126206938.123 7       775.621 7        43.883               
G20  26689660.579 7 140255105.221 7     -2984.801 7        44.632               
G21  27461638.592 7 144311867.490 7     -2862.621 7        42.060               
G22  27681376.755 6 145466571.082 6      1021.830 6        40.201               
G23  25089794.436 7 131847747.348 7      2684.567 7        45.288               
G24  23754526.370 6 124830862.895 6      2653.195 6        41.790               
> 2025 07 30 06 04 35.0000000  0  9                                             
G05  24675969.057 8 129673057.933 8     -2119.468 8        48.825               
G13  24326286.233 7 127835465.377 7     -2585.272 7        44.418               
G15  22789873.205 7 119761542.614 7      -508.572 7        44.963               
G18  24016228.861 7 126206159.315 7       778.454 7        44.244               
G20  26690225.365 7 140258090.497 7     -2981.357 7        44.562               
G21  27462178.326 7 144314731.117 7     -2861.550 7        42.009               
G22  27681182.465 6 145465551.130 6      1021.508 6        39.958               
G23  25089279.987 7 131845063.296 7      2685.891 7        44.905               
G24  23754019.336 6 124828206.200 6      2653.233 6        41.337               
> 2025 07 30 06 04 36.0000000  0 10                                             
G05  24676371.092 8 129675175.822 8     -2120.299 8        49.160               
G13  24326772.860 7 127838048.619 7     -2583.113 7        44.695               
G14  27662503.278 6 145367395.118 6       487.302 6        38.173               
G15  22789970.609 7 119762047.567 7      -501.171 7        44.801               
G18  24016080.709 7 126205381.174 7       776.393 7        44.596               
G20  26690795.995 7 140261075.982 7     -2986.572 7        44.519               
G21  27462717.166 6 144317594.928 6     -2867.653 6        41.343               
G22  27680987.871 6 145464531.591 6      1019.547 6        39.536               
G23  25088769.201 7 131842379.357 7      2683.192 7        45.459               
G24  23753514.054 6 124825550.043 6      2653.951 6        41.462               
> 2025 07 30 06 04 37.0000000  0 10                                             
G05  24676774.789 8 129677293.982 8     -2119.885 8        49.065               
G13  24327264.902 7 127840631.985 7     -2589.702 7        44.070               
G14  27662421.438 6 145366905.497 6       494.266 6        38.655               
G15  22790068.478 7 119762552.828 7      -505.759 7        44.556               
G18  24015932.378 7 126204603.645 7       776.613 7        44.033               
G20  26691361.138 7 140264061.597 7     -2984.457 7        44.653               
G21  27463268.550 6 144320458.810 6     -2863.290 6        41.839               
G22  27680786.559 6 145463512.416 6      1021.131 6        39.832               
G23  25088263.901 7 131839695.445 7      2683.783 7        45.996               
G24  23753003.929 6 124822894.328 6      2660.753 6        40.933               
> 2025 07 30 06 04 38.0000000  0 10                                             
G05  24677175.555 8 129679412.494 8     -2119.792 8        48.626               
G13  24327755.781 7 127843215.549 7     -2585.607 7        44.206               
G14  27662327.108 6 145366416.378 6       494.735 6        38.681               
G15  22790163.809 7 119763058.470 7      -505.668 7        45.269               
G18  24015788.068 7 126203826.838 7       776.825 7        43.978               
G20  26691928.891 7 140267047.488 7     -2986.273 7        44.714               
G21  27463815.235 7 144323322.884 7     -2867.595 7        42.308               
G22  27680590.268 6 145462493.684 6      1020.235 6        38.515               
G23  25087751.899 7 131837011.666 7      2683.715 7        45.803               
G24  23752502.864 6 124820239.178 6      2661.780 6        41.048               
> 2025 07 30 06 04 39.0000000  0 10                                             
G05  24677576.804 8 129681531.344 8     -2118.475 8        48.735               
G13  24328246.876 7 127845799.297 7     -2580.825 7        43.954               
G14  27662227.952 6 145365927.768 6       496.824 6        37.972               
G15  22790258.622 7 119763564.475 7      -504.971 7        45.225               
G18  24015636.664 7 126203050.700 7       777.716 7        44.357               
G20  26692500.414 7 140270033.587 7     -2987.407 7        44.943               
G21  27464361.313 6 144326187.098 6     -2860.111 6        41.906               
G22  27680394.941 6 145461475.348 6      1013.953 6        38.871               
G23  25087240.774 7 131834327.993 7      2677.633 7        45.645               
G24  23751992.846 6 124817584.555 6      2661.779 6        41.347               
> 2025 07 30 06 04 40.0000000  0 10                                             
G05  24677977.338 8 129683650.536 8     -2119.142 8        48.581               
G13  24328739.900 7 127848383.236 7     -2585.513 7        43.951               
G14  27662135.016 6 145365439.637 6       493.595 6        38.324               
G15  22790352.345 7 119764070.827 7      -502.386 7        44.673               
G18  24015491.532 7 126202275.232 7       773.811 7        44.631               
G20  26693071.919 7 140273019.892 7     -2987.217 7        44.406               
G21  27464906.818 7 144329051.492 7     -2868.843 7        42.179               
G22  27680211.337 6 145460457.426 6      1012.134 6        38.908               
G23  25086729.613 7 131831644.385 7      2683.857 7        45.310               
G24  23751494.336 6 124814930.465 6      2646.316 6        41.671               
> 2025 07 30 06 04 41.0000000  0 10                                             
G05  24678383.698 8 129685770.039 8     -2118.039 8        48.254               
G13  24329230.941 7 127850967.340 7     -2586.485 7        43.685               
G14  27662044.366 6 145364951.959 6       483.786 6        38.085               
G15  22790450.714 7 119764577.537 7      -509.345 7        44.885               
G18  24015346.310 7 126201500.401 7       770.952 7        44.011               
G20  26693638.813 7 140276006.397 7     -2987.699 7        44.807               
G21  27465452.163 7 144331915.992 7     -2865.267 7        42.313               
G22  27680009.185 6 145459439.866 6      1021.333 6        39.155               
G23  25086220.310 7 131828960.891 7      2680.667 7        45.457               
G24  23750984.515 6 124812276.880 6      2652.725 6        41.063               
> 2025 07 30 06 04 42.0000000  0 10                                             
G05  24678785.268 7 129687889.924 7     -2120.290 7        47.910               
G13  24329725.252 7 127853551.649 7     -2582.982 7        43.917               
G14  27661943.049 6 145364464.792 6       487.249 6        37.589               
G15  22790548.064 7 119765084.642 7      -512.127 7        45.104               
G18  24015197.247 7 126200726.301 7       772.300 7        43.989               
G20  26694205.619 7 140278993.156 7     -2987.836 7        44.780               
G21  27465997.865 6 144334780.703 6     -2863.873 6        41.527               
G22  27679826.760 6 145458422.795 6      1017.405 6        39.141               
G23  25085709.488 7 131826277.520 7      2682.490 7        45.547               
G24  23750480.769 6 124809623.861 6      2656.310 6        41.795               
> 2025 07 30 06 04 43.0000000  0 10                                             
G05  24679186.535 7 129690010.098 7     -2118.968 7        47.691               
G13  24330214.899 7 127856136.093 7     -2580.273 7        43.998               
G14  27661858.421 6 145363978.101 6       483.128 6        37.175               
G15  22790641.841 7 119765592.061 7      -505.442 7        44.389               
G18  24015051.543 7 126199952.838 7       772.064 7        44.304               
G20  26694773.103 7 140281980.125 7     -2983.934 7        44.865               
G21  27466541.655 6 144337645.523 6     -2863.587 6        41.490               
G22  27679621.481 6 145457406.113 6      1011.775 6        39.052               
G23  25085198.273 7 131823594.220 7      2682.518 7        45.650               
G24  23749974.540 6 124806971.323 6      2649.828 6        41.589               
> 2025 07 30 06 04 44.0000000  0 10                                             
G05  24679592.001 8 129692130.595 8     -2120.485 8        48.182               
G13  24330706.243 7 127858720.739 7     -2585.860 7        43.691               
G14  27661766.985 6 145363491.843 6       482.071 6        37.510               
G15  22790741.318 7 119766099.820 7      -510.475 7        44.437               
G18  24014904.695 7 126199180.034 7       773.441 7        44.133               
G20  26695342.410 7 140284967.274 7     -2989.694 7        44.362               
G21  27467085.785 6 144340510.491 6     -2863.152 6        41.362               
G22  27679437.644 6 145456389.781 6      1019.517 6        39.542               
G23  25084684.985 7 131820910.999 7      2682.180 7        45.522               
G24  23749468.132 6 124804319.305 6      2655.011 6        41.150               
> 2025 07 30 06 04 45.0000000  0 10                                             
G05  24679997.771 7 129694251.443 7     -2118.738 7        47.920               
G13  24331199.875 7 127861305.554 7     -2592.476 7        44.021               
G14  27661668.241 6 145363006.138 6       487.088 6        37.027               
G15  22790834.219 7 119766607.961 7      -506.343 7        44.035               
G18  24014757.687 7 126198407.917 7       770.877 7        43.949               
G20  26695910.198 7 140287954.652 7     -2987.208 7        44.750               
G21  27467633.166 7 144343375.610 7     -2863.848 7        42.427               
G22  27679244.819 6 145455373.900 6      1014.174 6        40.304               
G23  25084176.111 7 131818227.900 7      2683.614 7        45.580               
G24  23748966.066 6 124801667.824 6      2650.712 6        41.159               
> 2025 07 30 06 04 46.0000000  0 10                                             
G05  24680403.076 8 129696372.657 8     -2121.411 8        48.278               
G13  24331691.148 7 127863890.597 7     -2583.204 7        44.455               
G14  27661585.007 6 145362520.891 6       487.891 6        37.988               
G15  22790933.678 7 119767116.502 7      -509.684 7        44.431               
G18  24014611.161 7 126197636.525 7       762.981 7        44.204               
G20  26696478.004 7 140290942.295 7     -2988.768 7        44.318               
G21  27468179.190 7 144346240.941 7     -2862.130 7        42.182               
G22  27679054.318 6 145454358.457 6      1014.775 6        40.253               
G23  25083662.341 7 131815544.925 7      2684.020 7        45.323               
G24  23748460.659 6 124799016.899 6      2660.987 6        41.326               
> 2025 07 30 06 04 47.0000000  0 10                                             
G05  24680804.986 8 129698494.237 8     -2120.351 8        48.413               
G13  24332182.796 7 127866475.858 7     -2587.946 7        44.505               
G14  27661488.246 6 145362036.182 6       488.774 6        38.242               
G15  22791030.867 7 119767625.434 7      -510.368 7        44.511               
G18  24014465.546 7 126196865.832 7       769.274 7        44.179               
G20  26697050.867 7 140293930.188 7     -2987.146 7        45.034               
G21  27468722.802 6 144349106.455 6     -2867.255 6        41.710               
G22  27678861.868 6 145453343.496 6      1014.971 6        40.009               
G23  25083156.719 7 131812862.102 7      2682.146 7        45.641               
G24  23747956.323 6 124796366.548 6      2653.346 6        40.717               
> 2025 07 30 06 04 48.0000000  0 10                                             
G05  24681209.541 8 129700616.082 8     -2122.050 8        48.586               
G13  24332672.532 7 127869061.223 7     -2584.373 7        43.594               
G14  27661396.310 6 145361551.918 6       484.424 6        37.960               
G15  22791127.003 7 119768134.647 7      -512.866 7        44.320               
G18  24014317.733 7 126196095.746 7       771.049 7        44.224               
G20  26697618.316 7 140296918.221 7     -2987.524 7        44.630               
G21  27469260.909 7 144351972.035 7     -2863.267 7        42.411               
G22  27678675.244 6 145452328.854 6      1013.127 6        41.000               
G23  25082646.737 7 131810179.301 7      2681.731 7        45.551               
G24  23747454.382 6 124793716.661 6      2653.181 6        40.979               
> 2025 07 30 06 04 49.0000000  0 10                                             
G05  24681612.058 7 129702738.305 7     -2122.518 7        47.896               
G13  24333166.021 7 127871646.811 7     -2583.031 7        42.930               
G14  27661297.834 6 145361068.146 6       472.996 6        37.917               
G15  22791227.766 7 119768644.247 7      -510.303 7        45.081               
G18  24014168.599 7 126195326.367 7       765.956 7        43.586               
G20  26698182.012 7 140299906.502 7     -2991.973 7        44.800               
G21  27469807.755 7 144354837.813 7     -2864.788 7        42.562               
G22  27678472.753 6 145451314.676 6      1010.544 6        40.711               
G23  25082133.343 7 131807496.620 7      2682.059 7        45.598               
G24  23746951.226 6 124791067.304 6      2645.601 6        41.439               
> 2025 07 30 06 04 50.0000000  0 10                                             
G05  24682015.791 7 129704860.834 7     -2124.684 7        47.641               
G13  24333654.900 7 127874232.543 7     -2588.679 7        42.749               
G14  27661214.779 6 145360584.809 6       481.766 6        37.790               
G15  22791325.260 7 119769154.189 7      -514.501 7        45.426               
G18  24014024.110 7 126194557.637 7       777.805 7        43.913               
G20  26698755.340 7 140302894.998 7     -2991.872 7        44.862               
G21  27470355.923 7 144357703.727 7     -2865.990 7        42.335               
G22  27678283.502 6 145450300.864 6      1009.987 6        40.653               
G23  25081624.075 7 131804814.026 7      2682.346 7        45.477               
G24  23746441.888 6 124788418.472 6      2650.175 6        41.291               
> 2025 07 30 06 04 51.0000000  0 10                                             
G05  24682418.595 8 129706983.713 8     -2122.343 8        48.504               
G13  24334148.978 7 127876818.461 7     -2583.618 7        43.080               
G14  27661122.164 6 145360102.001 6       488.854 6        37.967               
G15  22791423.200 7 119769664.487 7      -509.437 7        45.163               
G18  24013879.603 7 126193789.598 7       763.538 7        44.834               
G20  26699323.629 7 140305883.692 7     -2987.276 7        44.471               
G21  27470904.895 7 144360569.788 7     -2867.241 7        42.977               
G22  27678091.856 6 145449287.460 6      1012.626 6        40.843               
G23  25081111.610 7 131802131.538 7      2681.418 7        46.084               
G24  23745943.396 6 124785770.169 6      2648.451 6        40.924               
> 2025 07 30 06 04 52.0000000  0 10                                             
G05  24682824.507 7 129709106.882 7     -2123.100 7        47.897               
G13  24334642.646 7 127879404.534 7     -2588.690 7        43.646               
G14  27661033.855 6 145359619.631 6       480.610 6        37.269               
G15  22791515.475 7 119770175.128 7      -507.337 7        44.709               
G18  24013727.430 7 126193022.189 7       767.718 7        44.420               
G20  26699895.098 7 140308872.599 7     -2986.029 7        44.422               
G21  27471452.134 7 144363435.973 7     -2865.734 7        43.727               
G22  27677897.799 6 145448274.446 6      1015.680 6        40.684               
G23  25080600.359 7 131799449.112 7      2685.395 7        45.386               
G24  23745440.508 6 124783122.355 6      2650.517 6        41.152               
> 2025 07 30 06 04 53.0000000  0 10                                             
G05  24683227.633 7 129711230.427 7     -2126.146 7        47.787               
G13  24335136.099 7 127881990.815 7     -2587.007 7        43.811               
G14  27660935.021 6 145359137.762 6       470.716 6        37.084               
G15  22791615.863 7 119770686.152 7      -509.979 7        44.748               
G18  24013586.176 7 126192255.495 7       763.380 7        44.659               
G20  26700466.781 7 140311861.741 7     -2989.318 7        44.946               
G21  27471996.246 7 144366302.347 7     -2868.704 7        43.377               
G22  27677697.594 6 145447261.889 6      1014.976 6        40.474               
G23  25080092.039 7 131796766.826 7      2680.813 7        44.995               
G24  23744929.561 6 124780475.112 6      2653.119 6        41.285               
> 2025 07 30 06 04 54.0000000  0 10                                             
G05  24683630.561 8 129713354.275 8     -2125.273 8        48.152               
G13  24335631.803 7 127884577.273 7     -2589.601 7        44.103               
G14  27660845.748 6 145358656.378 6       483.367 6        36.595               
G15  22791715.340 7 119771197.527 7      -505.719 7        45.372               
G18  24013441.151 7 126191489.454 7       769.188 7        44.331               
G20  26701029.298 7 140314851.092 7     -2987.419 7        44.805               
G21  27472539.125 7 144369168.850 7     -2864.064 7        43.720               
G22  27677515.098 6 145446249.736 6      1011.326 6        40.579               
G23  25079578.912 7 131794084.621 7      2682.084 7        44.735               
G24  23744438.788 6 124777828.370 6      2644.492 6        41.648               
> 2025 07 30 06 04 55.0000000  0 10                                             
G05  24684032.364 7 129715478.471 7     -2123.286 7        47.611               
G13  24336124.452 7 127887163.867 7     -2584.166 7        43.880               
G14  27660752.382 6 145358175.466 6       475.565 6        36.626               
G15  22791807.884 7 119771709.258 7      -513.188 7        44.921               
G18  24013291.712 7 126190724.091 7       764.379 7        43.637               
G20  26701593.941 7 140317840.666 7     -2989.753 7        44.538               
G21  27473089.115 7 144372035.502 7     -2871.219 7        44.120               
G22  27677320.326 6 145445237.980 6      1010.756 6        40.940               
G23  25079067.519 7 131791402.511 7      2682.453 7        45.429               
G24  23743930.897 6 124775182.151 6      2638.050 6        41.900               
> 2025 07 30 06 04 56.0000000  0 10                                             
G05  24684441.297 7 129717603.037 7     -2122.242 7        47.659               
G13  24336618.370 7 127889750.721 7     -2587.137 7        43.517               
G14  27660655.925 6 145357695.065 6       481.499 6        36.301               
G15  22791906.396 7 119772221.374 7      -511.524 7        44.367               
G18  24013149.814 7 126189959.443 7       762.216 7        44.096               
G20  26702164.535 7 140320830.493 7     -2990.904 7        44.314               
G21  27473634.853 7 144374902.355 7     -2864.573 7        43.778               
G22  27677123.355 6 145444226.662 6      1010.623 6        40.525               
G23  25078559.020 7 131788720.542 7      2683.941 7        44.918               
G24  23743428.295 7 124772536.517 7      2637.497 7        42.242               
> 2025 07 30 06 04 57.0000000  0 10                                             
G05  24684843.636 8 129719727.948 8     -2125.923 8        48.130               
G13  24337109.036 7 127892337.734 7     -2581.644 7        44.004               
G14  27660574.764 5 145357215.189 5       474.047 5        35.908               
G15  22792002.120 7 119772733.873 7      -512.221 7        44.491               
G18  24013006.040 7 126189195.491 7       762.222 7        44.053               
G20  26702731.984 7 140323820.553 7     -2989.578 7        43.581               
G21  27474180.126 7 144377769.370 7     -2867.081 7        43.849               
G22  27676932.747 6 145443215.780 6      1012.477 6        41.018               
G23  25078047.072 7 131786038.690 7      2683.454 7        45.440               
G24  23742928.784 7 124769891.418 7      2648.604 7        43.123               
> 2025 07 30 06 04 58.0000000  0 10                                             
G05  24685246.868 7 129721853.128 7     -2124.555 7        47.600               
G13  24337598.611 7 127894924.886 7     -2592.624 7        43.780               
G14  27660487.009 6 145356735.758 6       476.531 6        36.408               
G15  22792097.362 7 119773246.673 7      -515.547 7        44.163               
G18  24012857.191 7 126188432.136 7       760.385 7        44.432               
G20  26703302.577 7 140326810.758 7     -2987.500 7        43.328               
G21  27474726.597 7 144380636.469 7     -2868.748 7        43.993               
G22  27676738.260 6 145442205.250 6      1009.213 6        40.197               
G23  25077535.911 7 131783356.875 7      2681.697 7        45.372               
G24  23742422.501 7 124767246.796 7      2647.397 7        42.906               
> 2025 07 30 06 04 59.0000000  0 10                                             
G05  24685651.297 7 129723978.721 7     -2124.226 7        47.771               
G13  24338094.780 7 127897512.264 7     -2584.852 7        43.704               
G14  27660398.879 6 145356256.819 6       482.809 6        36.834               
G15  22792194.337 7 119773759.867 7      -509.147 7        44.096               
G18  24012711.934 7 126187669.520 7       761.279 7        43.800               
G20  26703871.134 7 140329801.249 7     -2991.387 7        44.000               
G21  27475268.939 7 144383503.765 7     -2867.487 7        43.386               
G22  27676550.457 6 145441195.175 6      1009.471 6        40.469               
G23  25077023.731 7 131780675.210 7      2680.956 7        45.346               
G24  23741915.754 6 124764602.736 6      2646.457 6        41.879               
> 2025 07 30 06 05 00.0000000  0 10                                             
G05  24686055.709 7 129726104.618 7     -2128.525 7        47.573               
G13  24338588.037 7 127900099.808 7     -2582.845 7        43.859               
G14  27660302.351 6 145355778.379 6       477.863 6        36.953               
G15  22792294.332 7 119774273.422 7      -516.156 7        44.670               
G18  24012563.246 7 126186907.575 7       758.768 7        44.341               
G20  26704446.231 7 140332791.939 7     -2989.587 7        43.620               
G21  27475819.091 7 144386371.219 7     -2865.485 7        42.801               
G22  27676357.096 6 145440185.521 6      1013.442 6        40.290               
G23  25076510.908 7 131777993.635 7      2681.854 7        45.073               
G24  23741410.900 7 124761959.180 7      2646.497 7        42.092               
> 2025 07 30 06 05 01.0000000  0 10                                             
G05  24686461.586 7 129728230.838 7     -2127.148 7        47.462               
G13  24339074.164 7 127902687.536 7     -2594.688 7        43.686               
G14  27660211.290 6 145355300.401 6       472.772 6        36.268               
G15  22792391.111 7 119774787.322 7      -513.813 7        44.719               
G18  24012420.865 7 126186146.293 7       762.376 7        43.968               
G20  26705006.478 7 140335782.852 7     -2991.623 7        43.701               
G21  27476360.719 7 144389238.819 7     -2866.012 7        42.327               
G22  27676171.455 6 145439176.256 6      1004.368 6        40.478               
G23  25076007.341 7 131775312.151 7      2686.861 7        45.086               
G24  23740906.404 6 124759316.150 6      2646.178 6        41.710               
> 2025 07 30 06 05 02.0000000  0 10                                             
G05  24686869.107 7 129730357.395 7     -2127.902 7        47.027               
G13  24339565.472 7 127905275.434 7     -2588.080 7        43.202               
G14  27660123.196 5 145354822.894 5       482.911 5        35.914               
G15  22792486.925 7 119775301.556 7      -518.831 7        44.441               
G18  24012277.824 7 126185385.675 7       764.435 7        44.262               
G20  26705581.396 7 140338773.952 7     -2990.698 7        43.615               
G21  27476908.744 7 144392106.569 7     -2867.644 7        43.448               
G22  27675973.716 6 145438167.409 6      1007.449 6        40.774               
G23  25075493.214 7 131772630.767 7      2683.812 7        45.785               
G24  23740402.301 6 124756673.656 6      2641.923 6        40.884               
> 2025 07 30 06 05 03.0000000  0 10                                             
G05  24687270.088 7 129732484.278 7     -2127.447 7        47.489               
G13  24340056.602 7 127907863.509 7     -2592.737 7        43.270               
G14  27660032.564 6 145354345.882 6       470.265 6        36.135               
G15  22792585.544 7 119775816.169 7      -515.464 7        44.134               
G18  24012135.318 7 126184625.722 7       755.864 7        44.473               
G20  26706151.936 7 140341765.282 7     -2990.804 7        44.100               
G21  27477458.431 7 144394974.460 7     -2868.965 7        43.415               
G22  27675774.351 6 145437158.965 6      1007.165 6        41.127               
G23  25074982.249 7 131769949.477 7      2680.932 7        45.473               
G24  23739901.307 6 124754031.676 6      2646.066 6        41.629               
> 2025 07 30 06 05 04.0000000  0 10                                             
G05  24687677.341 7 129734611.421 7     -2128.957 7        46.662               
G13  24340547.804 7 127910451.681 7     -2587.031 7        43.464               
G14  27659954.780 5 145353869.277 5       480.598 5        35.988               
G15  22792684.449 7 119776331.049 7      -515.700 7        44.634               
G18  24011990.490 7 126183866.376 7       760.647 7        44.769               
G20  26706719.206 7 140344756.739 7     -2993.783 7        43.864               
G21  27477997.557 7 144397842.439 7     -2866.198 7        43.701               
G22  27675593.499 6 145436150.891 6      1009.228 6        41.173               
G23  25074476.198 7 131767268.228 7      2681.926 7        44.890               
G24  23739402.208 6 124751390.144 6      2645.020 6        41.930               
> 2025 07 30 06 05 05.0000000  0 10                                             
G05  24688083.843 7 129736738.892 7     -2128.533 7        47.605               
G13  24341043.794 7 127913040.051 7     -2588.546 7        43.445               
G14  27659842.277 5 145353393.146 5       472.628 5        35.304               
G15  22792780.638 7 119776846.300 7      -518.026 7        44.078               
G18  24011847.734 7 126183107.709 7       757.630 7        45.019               
G20  26707288.549 7 140347748.426 7     -2994.183 7        44.506               
G21  27478543.259 7 144400710.570 7     -2868.035 7        43.747               
G22  27675402.140 6 145435143.181 6      1005.922 6        41.846               
G23  25073965.877 7 131764587.051 7      2682.417 7        45.170               
G24  23738899.248 6 124748749.162 6      2645.657 6        41.177               
> 2025 07 30 06 05 06.0000000  0 10                                             
G05  24688488.809 7 129738866.701 7     -2126.262 7        47.841               
G13  24341539.535 7 127915628.596 7     -2587.156 7        43.150               
G14  27659744.569 5 145352917.505 5       478.403 5        33.992               
G15  22792880.115 7 119777361.904 7      -518.128 7        44.306               
G18  24011700.511 7 126182349.743 7       756.031 7        44.650               
G20  26707856.337 7 140350740.336 7     -2993.520 7        44.613               
G21  27479085.673 7 144403578.870 7     -2870.939 7        43.561               
G22  27675209.315 6 145434135.926 6      1003.359 6        41.898               
G23  25073457.449 7 131761906.012 7      2680.619 7        45.260               
G24  23738399.630 7 124746108.712 7      2638.230 7        42.317               
> 2025 07 30 06 05 07.0000000  0 10                                             
G05  24688892.274 8 129740994.910 8     -2127.829 8        48.035               
G13  24342036.848 7 127918217.361 7     -2590.316 7        43.456               
G14  27659652.133 5 145352442.408 5       477.062 5        34.695               
G15  22792980.396 7 119777877.930 7      -516.627 7        44.358               
G18  24011560.418 7 126181592.458 7       751.492 7        44.134               
G20  26708428.753 7 140353732.507 7     -2992.312 7        44.521               
G21  27479635.200 7 144406447.345 7     -2866.233 7        43.873               
G22  27675020.154 6 145433129.105 6      1004.618 6        41.746               
G23  25072945.770 7 131759225.101 7      2681.969 7        45.230               
G24  23737897.100 7 124743468.830 7      2639.743 7        42.195               
> 2025 07 30 06 05 08.0000000  0 10                                             
G05  24689297.900 7 129743123.367 7     -2126.905 7        47.874               
G13  24342534.000 7 127920806.201 7     -2583.594 7        43.603               
G14  27659567.719 5 145351967.717 5       476.799 5        35.008               
G15  22793076.674 7 119778394.197 7      -512.856 7        44.000               
G18  24011414.535 7 126180835.793 7       753.133 7        44.493               
G20  26708998.704 7 140356724.793 7     -2993.170 7        45.190               
G21  27480180.080 7 144409315.893 7     -2867.750 7        43.971               
G22  27674829.259 6 145432122.605 6      1007.624 6        41.465               
G23  25072437.754 7 131756544.202 7      2687.509 7        45.003               
G24  23737394.623 7 124740829.391 7      2635.326 7        42.424               
> 2025 07 30 06 05 09.0000000  0 10                                             
G05  24689702.062 7 129745252.147 7     -2127.039 7        47.887               
G13  24343024.665 7 127923395.213 7     -2594.798 7        44.388               
G14  27659486.594 5 145351493.442 5       474.173 5        34.650               
G15  22793174.471 7 119778910.826 7      -518.527 7        44.228               
G18  24011268.170 7 126180079.773 7       757.917 7        44.633               
G20  26709568.243 7 140359717.279 7     -2991.103 7        44.919               
G21  27480725.764 7 144412184.580 7     -2864.759 7        43.299               
G22  27674629.715 6 145431116.538 6      1005.448 6        41.424               
G23  25071927.504 7 131753863.397 7      2680.229 7        45.053               
G24  23736892.396 7 124738190.463 7      2643.385 7        42.194               
> 2025 07 30 06 05 10.0000000  0 10                                             
G05  24690107.314 7 129747381.289 7     -2127.088 7        47.774               
G13  24343515.849 7 127925984.452 7     -2586.880 7        44.377               
G14  27659380.899 5 145351019.727 5       481.343 5        34.965               
G15  22793275.342 7 119779427.844 7      -516.943 7        45.055               
G18  24011126.094 7 126179324.469 7       753.464 7        44.277               
G20  26710135.370 7 140362710.033 7     -2988.644 7        44.758               
G21  27481275.361 7 144415053.455 7     -2870.406 7        43.940               
G22  27674437.391 7 145430110.913 7      1000.654 7        42.230               
G23  25071420.381 7 131751182.709 7      2681.010 7        45.062               
G24  23736390.402 6 124735552.093 6      2639.298 6        41.757               
> 2025 07 30 06 05 11.0000000  0 10                                             
G05  24690512.512 7 129749510.686 7     -2127.963 7        47.487               
G13  24344007.765 7 127928573.777 7     -2592.280 7        44.159               
G14  27659295.574 5 145350546.404 5       482.022 5        35.113               
G15  22793372.656 7 119779945.127 7      -512.450 7        44.626               
G18  24010983.284 7 126178569.759 7       756.648 7        43.999               
G20  26710709.806 7 140365702.909 7     -2993.708 7        45.168               
G21  27481817.097 7 144417922.399 7     -2868.202 7        44.044               
G22  27674251.053 6 145429105.592 6      1006.975 6        41.411               
G23  25070908.809 7 131748502.064 7      2680.142 7        45.468               
G24  23735882.832 6 124732914.174 6      2634.963 6        41.220               
> 2025 07 30 06 05 12.0000000  0  9                                             
G05  24690916.405 7 129751640.436 7     -2129.283 7        47.524               
G13  24344500.146 7 127931163.300 7     -2582.732 7        44.212               
G15  22793474.546 7 119780462.803 7      -515.343 7        44.621               
G18  24010838.063 7 126177815.731 7       752.026 7        44.301               
G20  26711275.843 7 140368696.041 7     -2994.193 7        44.745               
G21  27482366.676 7 144420791.526 7     -2869.986 7        44.469               
G22  27674061.659 6 145428100.723 6      1005.319 6        40.753               
G23  25070398.005 7 131745821.528 7      2680.882 7        45.453               
G24  23735381.266 6 124730276.791 6      2635.469 6        41.380               
> 2025 07 30 06 05 13.0000000  0  9                                             
G05  24691321.156 7 129753770.555 7     -2131.933 7        46.904               
G13  24344994.367 7 127933753.027 7     -2587.117 7        44.120               
G15  22793574.362 7 119780980.862 7      -514.784 7        44.695               
G18  24010694.825 7 126177062.421 7       753.469 7        44.925               
G20  26711847.151 7 140371689.404 7     -2994.251 7        45.591               
G21  27482914.683 7 144423660.828 7     -2869.161 7        44.662               
G22  27673864.528 6 145427096.290 6      1002.429 6        40.506               
G23  25069888.344 7 131743141.125 7      2679.279 7        45.316               
G24  23734879.486 6 124727639.967 6      2636.696 6        41.087               
> 2025 07 30 06 05 14.0000000  0  9                                             
G05  24691726.104 7 129755900.971 7     -2128.191 7        46.774               
G13  24345484.622 7 127936342.915 7     -2591.674 7        44.087               
G15  22793673.624 7 119781499.250 7      -521.195 7        44.693               
G18  24010554.910 7 126176309.759 7       753.373 7        44.454               
G20  26712418.352 7 140374682.962 7     -2993.619 7        45.415               
G21  27483456.526 7 144426530.248 7     -2869.339 7        44.565               
G22  27673671.793 6 145426092.225 6      1003.425 6        41.156               
G23  25069376.504 7 131740460.792 7      2680.883 7        45.599               
G24  23734383.121 7 124725003.669 7      2642.007 7        42.304               
> 2025 07 30 06 05 15.0000000  0  9                                             
G05  24692130.695 7 129758031.747 7     -2132.256 7        46.756               
G13  24345975.144 7 127938933.010 7     -2586.020 7        43.909               
G15  22793770.653 7 119782018.043 7      -519.747 7        45.124               
G18  24010412.995 7 126175557.814 7       750.467 7        44.495               
G20  26712990.358 7 140377676.766 7     -2992.503 7        45.545               
G21  27484004.587 7 144429399.865 7     -2869.916 7        44.358               
G22  27673483.239 6 145425088.655 6      1004.889 6        41.408               
G23  25068869.220 7 131737780.600 7      2681.167 7        44.705               
G24  23733878.285 6 124722367.911 6      2634.989 6        41.794               
> 2025 07 30 06 05 16.0000000  0  9                                             
G05  24692539.305 7 129760162.899 7     -2133.779 7        47.504               
G13  24346467.633 7 127941523.324 7     -2591.457 7        44.161               
G15  22793869.612 7 119782537.214 7      -517.942 7        44.696               
G18  24010266.361 7 126174806.571 7       751.380 7        44.265               
G20  26713559.075 7 140380670.826 7     -2995.745 7        46.167               
G21  27484548.216 7 144432269.662 7     -2870.840 7        44.831               
G22  27673287.930 6 145424085.517 6      1000.201 6        40.819               
G23  25068359.078 7 131735100.538 7      2682.933 7        44.891               
G24  23733377.434 7 124719732.750 7      2632.130 7        42.089               
> 2025 07 30 06 05 17.0000000  0  9                                             
G05  24692943.664 8 129762294.379 8     -2133.294 8        48.030               
G13  24346956.958 7 127944113.807 7     -2588.178 7        43.742               
G15  22793968.499 7 119783056.753 7      -522.989 7        45.184               
G18  24010121.801 7 126174056.002 7       746.645 7        44.683               
G20  26714130.955 7 140383665.096 7     -2992.633 7        46.197               
G21  27485096.884 7 144435139.616 7     -2869.431 7        45.044               
G22  27673101.717 6 145423082.792 6       998.828 6        41.085               
G23  25067848.649 7 131732420.584 7      2681.750 7        45.376               
G24  23732882.569 7 124717098.092 7      2636.350 7        42.741               
> 2025 07 30 06 05 18.0000000  0  9                                             
G05  24693348.415 8 129764426.182 8     -2131.197 8        48.164               
G13  24347449.142 7 127946704.471 7     -2586.672 7        43.619               
G15  22794066.046 7 119783576.632 7      -525.109 7        44.770               
G18  24009981.422 7 126173306.108 7       750.216 7        44.908               
G20  26714699.315 7 140386659.559 7     -2995.135 7        46.101               
G21  27485643.462 7 144438009.718 7     -2868.258 7        44.615               
G22  27672911.323 6 145422080.466 6      1000.633 6        41.696               
G23  25067336.022 7 131729740.719 7      2683.146 7        45.378               
G24  23732379.396 7 124714463.963 7      2625.323 7        42.202               
> 2025 07 30 06 05 19.0000000  0  9                                             
G05  24693757.615 7 129766558.289 7     -2132.930 7        47.547               
G13  24347941.702 7 127949295.257 7     -2590.706 7        43.826               
G15  22794165.344 7 119784096.814 7      -519.861 7        44.699               
G18  24009836.111 7 126172556.856 7       754.427 7        44.633               
G20  26715268.247 7 140389654.211 7     -2993.257 7        46.763               
G21  27486194.239 7 144440879.914 7     -2864.734 7        44.620               
G22  27672718.641 6 145421078.514 6      1003.095 6        41.413               
G23  25066828.203 7 131727060.911 7      2683.751 7        45.023               
G24  23731874.971 7 124711830.305 7      2637.098 7        42.041               
> 2025 07 30 06 05 20.0000000  0  9                                             
G05  24694163.314 7 129768690.723 7     -2130.410 7        47.397               
G13  24348437.156 7 127951886.248 7     -2593.122 7        43.715               
G15  22794265.446 7 119784617.386 7      -520.961 7        45.359               
G18  24009691.122 7 126171808.292 7       752.335 7        44.536               
G20  26715839.234 7 140392649.112 7     -2992.600 7        46.024               
G21  27486737.886 7 144443750.299 7     -2866.767 7        44.452               
G22  27672526.442 6 145420076.997 6      1004.002 6        40.957               
G23  25066319.454 7 131724381.229 7      2678.443 7        45.148               
G24  23731371.654 7 124709197.217 7      2635.763 7        42.265               
> 2025 07 30 06 05 21.0000000  0  9                                             
G05  24694567.922 7 129770823.563 7     -2135.478 7        47.840               
G13  24348935.005 7 127954477.471 7     -2592.751 7        43.469               
G15  22794362.976 7 119785138.359 7      -517.862 7        45.732               
G18  24009546.954 7 126171060.450 7       748.872 7        44.578               
G20  26716409.970 7 140395644.263 7     -2996.978 7        46.567               
G21  27487280.926 7 144446620.883 7     -2866.973 7        44.694               
G22  27672330.883 6 145419075.953 6      1004.926 6        41.244               
G23  25065804.719 7 131721701.710 7      2680.364 7        45.229               
G24  23730867.658 6 124706564.688 6      2631.516 6        41.964               
> 2025 07 30 06 05 22.0000000  0  9                                             
G05  24694973.227 8 129772956.698 8     -2134.227 8        48.016               
G13  24349426.225 7 127957068.847 7     -2590.898 7        43.572               
G15  22794461.863 7 119785659.681 7      -521.368 7        45.321               
G18  24009403.573 7 126170313.287 7       743.160 7        44.383               
G20  26716980.010 7 140398639.627 7     -2992.962 7        46.256               
G21  27487827.235 7 144449491.617 7     -2867.829 7        44.466               
G22  27672143.705 6 145418075.306 6       997.971 6        41.358               
G23  25065298.596 7 131719022.273 7      2678.858 7        45.319               
G24  23730365.539 6 124703932.678 6      2630.585 6        41.526               
> 2025 07 30 06 05 23.0000000  0  9                                             
G05  24695378.515 7 129775090.182 7     -2136.255 7        47.640               
G13  24349918.498 7 127959660.399 7     -2591.090 7        43.862               
G15  22794564.288 7 119786181.356 7      -524.360 7        45.308               
G18  24009267.715 7 126169566.783 7       751.447 7        44.796               
G20  26717548.370 7 140401635.215 7     -2996.569 7        45.839               
G21  27488371.043 7 144452362.480 7     -2872.753 7        43.760               
G22  27671965.533 6 145417075.058 6       999.809 6        41.364               
G23  25064787.060 7 131716342.929 7      2678.968 7        44.986               
G24  23729866.368 6 124701301.207 6      2630.272 6        40.870               
> 2025 07 30 06 05 24.0000000  0  9                                             
G05  24695784.820 8 129777223.922 8     -2136.316 8        48.039               
G13  24350413.488 7 127962252.074 7     -2588.342 7        43.729               
G15  22794664.337 7 119786703.330 7      -521.984 7        45.400               
G18  24009125.942 7 126168820.899 7       743.290 7        45.118               
G20  26718117.820 7 140404630.946 7     -2995.129 7        45.703               
G21  27488921.874 7 144455233.436 7     -2869.461 7        43.887               
G22  27671763.453 6 145416075.183 6       999.844 6        41.522               
G23  25064276.292 7 131713663.619 7      2677.944 7        44.497               
G24  23729363.498 6 124698670.207 6      2629.859 6        40.957               
> 2025 07 30 06 05 25.0000000  0  9                                             
G05  24696192.734 8 129779358.002 8     -2133.773 8        48.088               
G13  24350906.780 7 127964843.940 7     -2592.128 7        43.485               
G15  22794766.422 7 119787225.672 7      -520.307 7        45.587               
G18  24008984.545 7 126168075.709 7       743.728 7        44.904               
G20  26718686.502 7 140407626.899 7     -2997.284 7        45.705               
G21  27489467.969 7 144458104.571 7     -2865.014 7        43.897               
G22  27671571.789 6 145415075.723 6       996.628 6        41.736               
G23  25063767.507 7 131710984.427 7      2680.307 7        44.673               
G24  23728863.076 6 124696039.725 6      2630.126 6        40.839               
> 2025 07 30 06 05 26.0000000  0  9                                             
G05  24696599.308 7 129781492.435 7     -2134.313 7        47.639               
G13  24351396.427 7 127967435.988 7     -2593.484 7        43.500               
G15  22794864.756 7 119787748.377 7      -523.584 7        44.461               
G18  24008841.110 7 126167331.177 7       740.847 7        44.373               
G20  26719258.203 7 140410623.078 7     -2996.736 7        45.459               
G21  27490014.743 7 144460975.856 7     -2871.069 7        43.106               
G22  27671394.565 6 145414076.680 6       997.268 6        41.190               
G23  25063256.560 7 131708305.349 7      2680.018 7        45.044               
G24  23728368.104 6 124693409.796 6      2629.061 6        41.361               
> 2025 07 30 06 05 27.0000000  0  9                                             
G05  24697002.880 7 129783627.150 7     -2133.541 7        47.930               
G13  24351893.704 7 127970028.152 7     -2598.240 7        43.811               
G15  22794961.195 7 119788271.391 7      -521.081 7        45.232               
G18  24008705.985 7 126166587.297 7       748.366 7        44.771               
G20  26719827.743 7 140413619.425 7     -2993.761 7        44.833               
G21  27490564.376 7 144463847.239 7     -2870.828 7        43.975               
G22  27671195.790 6 145413078.004 6       997.875 6        41.359               
G23  25062744.273 7 131705626.313 7      2679.125 7        45.165               
G24  23727861.982 6 124690780.334 6      2631.968 6        41.614               
> 2025 07 30 06 05 28.0000000  0  9                                             
G05  24697409.115 7 129785762.240 7     -2139.777 7        47.304               
G13  24352383.977 7 127972620.544 7     -2590.141 7        43.398               
G15  22795060.100 7 119788794.802 7      -519.633 7        44.807               
G18  24008561.746 7 126165844.124 7       746.962 7        44.483               
G20  26720395.870 7 140416616.033 7     -2996.590 7        44.021               
G21  27491105.004 7 144466718.824 7     -2865.833 7        43.752               
G22  27671000.642 6 145412079.803 6       998.793 6        41.634               
G23  25062236.489 7 131702947.442 7      2676.682 7        44.991               
G24  23727362.828 6 124688151.469 6      2629.590 6        41.664               
> 2025 07 30 06 05 29.0000000  0  9                                             
G05  24697812.937 7 129787897.650 7     -2135.322 7        47.505               
G13  24352879.413 7 127975213.098 7     -2593.518 7        43.557               
G15  22795162.346 7 119789318.558 7      -522.106 7        45.000               
G18  24008420.491 7 126165101.618 7       742.899 7        44.675               
G20  26720970.467 7 140419612.843 7     -2995.159 7        43.993               
G21  27491652.636 7 144469590.544 7     -2871.391 7        43.905               
G22  27670815.144 6 145411082.003 6       998.624 6        40.990               
G23  25061726.650 7 131700268.646 7      2676.388 7        45.158               
G24  23726860.476 6 124685523.116 6      2629.192 6        41.350               
> 2025 07 30 06 05 30.0000000  0  9                                             
G05  24698218.456 7 129790033.410 7     -2136.612 7        47.415               
G13  24353366.898 7 127977805.846 7     -2589.342 7        43.269               
G15  22795256.891 7 119789842.683 7      -524.664 7        45.051               
G18  24008282.292 7 126164359.817 7       740.120 7        44.985               
G20  26721536.254 7 140422609.896 7     -2999.297 7        43.942               
G21  27492200.017 7 144472462.435 7     -2871.307 7        44.257               
G22  27670624.499 6 145410084.627 6       995.904 6        40.925               
G23  25061217.526 7 131697589.956 7      2682.185 7        44.674               
G24  23726361.895 6 124682895.312 6      2628.203 6        41.311               
> 2025 07 30 06 05 31.0000000  0  9                                             
G05  24698625.977 7 129792169.478 7     -2133.532 7        47.539               
G13  24353856.760 7 127980398.762 7     -2592.346 7        43.138               
G15  22795356.726 7 119790367.135 7      -526.196 7        44.762               
G18  24008137.607 7 126163618.650 7       739.756 7        45.153               
G20  26722107.151 7 140425607.131 7     -2998.466 7        43.911               
G21  27492752.045 7 144475334.453 7     -2869.844 7        43.894               
G22  27670442.360 6 145409087.642 6       996.734 6        41.466               
G23  25060708.402 7 131694911.368 7      2675.972 7        44.167               
G24  23725864.046 7 124680267.993 7      2628.619 7        42.220               
> 2025 07 30 06 05 32.0000000  0  9                                             
G05  24699032.051 7 129794305.866 7     -2135.192 7        47.475               
G13  24354349.694 7 127982991.812 7     -2593.626 7        43.338               
G15  22795460.312 7 119790891.931 7      -523.647 7        44.966               
G18  24007999.104 7 126162878.153 7       738.641 7        45.127               
G20  26722674.743 7 140428604.574 7     -2998.658 7        43.415               
G21  27493295.585 7 144478206.618 7     -2875.386 7        44.332               
G22  27670252.788 6 145408091.041 6       995.396 6        41.569               
G23  25060199.528 7 131692232.847 7      2679.263 7        44.993               
G24  23725369.271 7 124677641.214 7      2621.833 7        42.326               
> 2025 07 30 06 05 33.0000000  0  9                                             
G05  24699439.679 7 129796442.603 7     -2140.051 7        47.508               
G13  24354844.452 7 127985585.083 7     -2597.723 7        43.117               
G15  22795555.429 7 119791417.098 7      -522.029 7        44.937               
G18  24007856.134 7 126162138.340 7       737.581 7        45.558               
G20  26723245.372 7 140431602.243 7     -2996.423 7        43.772               
G21  27493842.985 7 144481078.938 7     -2873.192 7        44.382               
G22  27670062.679 6 145407094.879 6       993.853 6        41.748               
G23  25059690.225 7 131689554.447 7      2681.408 7        44.866               
G24  23724862.362 6 124675014.977 6      2625.285 6        41.885               
> 2025 07 30 06 05 34.0000000  0  9                                             
G05  24699845.091 7 129798579.680 7     -2138.366 7        47.138               
G13  24355338.691 7 127988178.517 7     -2591.603 7        42.773               
G15  22795657.265 7 119791942.633 7      -526.829 7        45.444               
G18  24007719.543 7 126161399.216 7       734.754 7        45.881               
G20  26723817.324 7 140434600.131 7     -2995.388 7        43.778               
G21  27494386.596 7 144483951.425 7     -2873.522 7        43.927               
G22  27669880.272 6 145406099.120 6       994.783 6        41.532               
G23  25059181.798 7 131686876.153 7      2675.912 7        45.380               
G24  23724366.282 7 124672389.266 7      2622.324 7        42.505               
> 2025 07 30 06 05 35.0000000  0  9                                             
G05  24700256.115 7 129800717.087 7     -2140.755 7        47.622               
G13  24355836.504 7 127990772.118 7     -2592.319 7        43.113               
G15  22795758.421 7 119792468.502 7      -522.796 7        45.248               
G18  24007573.643 7 126160660.743 7       738.724 7        45.880               
G20  26724387.078 7 140437598.222 7     -2999.958 7        43.012               
G21  27494934.014 7 144486824.039 7     -2870.049 7        43.641               
G22  27669681.658 6 145405103.813 6       998.815 6        41.571               
G23  25058674.210 7 131684197.948 7      2678.052 7        45.269               
G24  23723862.912 7 124669764.075 7      2617.682 7        42.486               
> 2025 07 30 06 05 36.0000000  0  9                                             
G05  24700661.366 8 129802854.837 8     -2135.829 8        48.373               
G13  24356334.425 7 127993365.889 7     -2589.480 7        43.697               
G15  22795853.324 7 119792994.727 7      -527.153 7        45.165               
G18  24007437.856 7 126159922.936 7       736.764 7        45.869               
G20  26724958.422 7 140440596.524 7     -2998.565 7        43.566               
G21  27495481.110 7 144489696.804 7     -2873.440 7        43.047               
G22  27669495.409 6 145404108.867 6       998.084 6        41.562               
G23  25058161.995 7 131681519.850 7      2675.496 7        45.133               
G24  23723364.188 6 124667139.374 6      2632.931 6        41.918               
> 2025 07 30 06 05 37.0000000  0  9                                             
G05  24701067.922 7 129804992.899 7     -2138.133 7        47.606               
G13  24356829.522 7 127995959.816 7     -2597.398 7        43.681               
G15  22795951.424 7 119793521.279 7      -527.010 7        45.121               
G18  24007294.314 7 126159185.789 7       739.555 7        45.463               
G20  26725530.856 7 140443595.009 7     -3001.249 7        43.843               
G21  27496030.761 7 144492569.691 7     -2867.600 7        43.230               
G22  27669304.193 6 145403114.314 6       997.706 6        41.627               
G23  25057652.227 7 131678841.813 7      2679.700 7        44.957               
G24  23722863.998 7 124664515.207 7      2629.199 7        42.421               
> 2025 07 30 06 05 38.0000000  0  9                                             
G05  24701476.462 8 129807131.308 8     -2136.706 8        48.133               
G13  24357325.012 7 127998553.955 7     -2590.893 7        43.952               
G15  22796055.512 7 119794048.235 7      -527.865 7        44.746               
G18  24007155.489 7 126158449.359 7       740.586 7        45.394               
G20  26726100.216 7 140446593.759 7     -2998.872 7        44.600               
G21  27496576.856 7 144495442.783 7     -2874.491 7        43.561               
G22  27669116.246 6 145402120.235 6       995.287 6        41.977               
G23  25057146.409 7 131676163.924 7      2676.868 7        45.368               
G24  23722366.471 7 124661891.620 7      2630.309 7        42.530               
> 2025 07 30 06 05 39.0000000  0  9                                             
G05  24701883.250 8 129809270.089 8     -2141.152 8        48.220               
G13  24357818.804 7 128001148.290 7     -2592.574 7        44.099               
G15  22796157.204 7 119794575.546 7      -523.299 7        44.575               
G18  24007012.287 7 126157713.608 7       736.780 7        45.821               
G20  26726671.489 7 140449592.739 7     -2999.899 7        44.168               
G21  27497121.039 7 144498316.039 7     -2877.743 7        43.051               
G22  27668924.172 6 145401126.600 6       990.052 6        41.245               
G23  25056634.747 7 131673486.148 7      2679.920 7        45.298               
G24  23721869.998 7 124659268.571 7      2618.534 7        42.157               
> 2025 07 30 06 05 40.0000000  0  9                                             
G05  24702291.164 7 129811409.157 7     -2140.839 7        47.642               
G13  24358311.882 7 128003742.782 7     -2596.809 7        44.083               
G15  22796254.412 7 119795103.231 7      -528.964 7        45.121               
G18  24006873.230 7 126156978.527 7       736.456 7        45.679               
G20  26727244.620 7 140452591.905 7     -3001.291 7        44.639               
G21  27497663.132 7 144501189.430 7     -2876.276 7        42.804               
G22  27668741.354 6 145400133.331 6       990.983 6        40.920               
G23  25056127.446 7 131670808.467 7      2675.557 7        44.676               
G24  23721371.130 7 124656646.030 7      2623.303 7        42.475               
> 2025 07 30 06 05 41.0000000  0  9                                             
G05  24702700.079 7 129813548.571 7     -2138.994 7        47.827               
G13  24358805.746 7 128006337.451 7     -2595.809 7        44.245               
G15  22796361.804 7 119795631.232 7      -530.364 7        45.321               
G18  24006733.137 7 126156244.135 7       729.594 7        45.713               
G20  26727814.463 7 140455591.306 7     -3001.450 7        45.021               
G21  27498211.371 7 144504062.972 7     -2879.366 7        42.747               
G22  27668544.616 6 145399140.461 6       995.909 6        40.616               
G23  25055618.035 7 131668130.864 7      2676.412 7        45.625               
G24  23720872.871 7 124654024.019 7      2632.692 7        42.735               
> 2025 07 30 06 05 42.0000000  0  9                                             
G05  24703103.418 8 129815688.264 8     -2139.305 8        48.020               
G13  24359301.451 7 128008932.252 7     -2596.095 7        44.746               
G15  22796462.336 7 119796159.572 7      -526.135 7        46.070               
G18  24006593.384 7 126155510.360 7       736.345 7        45.787               
G20  26728385.057 7 140458590.862 7     -3000.478 7        44.726               
G21  27498759.664 7 144506936.596 7     -2870.018 7        42.730               
G22  27668363.817 6 145398148.033 6       990.809 6        40.587               
G23  25055110.627 7 131665453.346 7      2679.304 7        45.476               
G24  23720376.237 7 124651402.490 7      2622.860 7        42.877               
> 2025 07 30 06 05 43.0000000  0  9                                             
G05  24703512.798 8 129817828.274 8     -2137.973 8        48.032               
G13  24359793.671 7 128011527.217 7     -2591.281 7        44.671               
G15  22796560.687 7 119796688.250 7      -530.133 7        45.356               
G18  24006453.809 7 126154777.266 7       735.943 7        45.296               
G20  26728954.739 7 140461590.628 7     -3003.333 7        45.105               
G21  27499309.494 7 144509810.404 7     -2873.078 7        42.265               
G22  27668171.279 6 145397155.952 6       996.520 6        40.303               
G23  25054600.806 7 131662775.918 7      2679.814 7        44.521               
G24  23719878.174 7 124648781.505 7      2615.320 7        42.721               
> 2025 07 30 06 05 44.0000000  0  9                                             
G05  24703919.765 7 129819968.664 7     -2140.394 7        47.762               
G13  24360281.138 7 128014122.415 7     -2595.226 7        44.098               
G15  22796663.076 7 119797217.312 7      -527.526 7        45.398               
G18  24006315.449 7 126154044.868 7       733.689 7        45.312               
G20  26729523.671 7 140464590.634 7     -3000.397 7        44.619               
G21  27499857.055 7 144512684.380 7     -2869.509 7        42.910               
G22  27667981.724 6 145396164.336 6       988.590 6        40.543               
G23  25054091.163 7 131660098.620 7      2678.038 7        44.734               
G24  23719382.844 7 124646161.066 7      2627.215 7        42.633               
> 2025 07 30 06 05 45.0000000  0  9                                             
G05  24704329.144 8 129822109.342 8     -2141.177 8        48.436               
G13  24360774.841 7 128016717.729 7     -2592.639 7        44.307               
G15  22796763.375 7 119797746.698 7      -527.677 7        45.591               
G18  24006178.661 7 126153313.107 7       731.893 7        45.813               
G20  26730100.519 7 140467590.805 7     -3000.137 7        44.660               
G21  27500400.648 7 144515558.467 7     -2872.382 7        42.806               
G22  27667790.865 6 145395173.111 6       986.767 6        41.119               
G23  25053579.198 7 131657421.376 7      2678.981 7        45.104               
G24  23718883.173 7 124643541.136 7      2614.969 7        42.519               
> 2025 07 30 06 05 46.0000000  0  9                                             
G05  24704735.110 8 129824250.318 8     -2140.147 8        48.349               
G13  24361266.061 7 128019313.173 7     -2595.118 7        44.302               
G15  22796863.584 7 119798276.407 7      -531.014 7        45.520               
G18  24006037.729 7 126152581.996 7       730.071 7        46.180               
G20  26730670.612 7 140470591.173 7     -3004.172 7        44.750               
G21  27500943.563 7 144518432.658 7     -2876.481 7        42.959               
G22  27667593.823 6 145394182.271 6       994.932 6        41.351               
G23  25053067.232 7 131654744.224 7      2675.695 7        44.813               
G24  23718380.070 7 124640921.659 7      2618.197 7        42.586               
> 2025 07 30 06 05 47.0000000  0  9                                             
G05  24705143.596 7 129826391.629 7     -2141.522 7        47.895               
G13  24361759.156 7 128021908.830 7     -2592.768 7        44.258               
G15  22796964.509 7 119798806.477 7      -530.787 7        45.598               
G18  24005900.745 7 126151851.572 7       730.684 7        46.533               
G20  26731239.187 7 140473591.763 7     -3001.364 7        44.792               
G21  27501494.858 7 144521307.025 7     -2873.314 7        42.884               
G22  27667411.845 6 145393191.835 6       998.176 6        41.066               
G23  25052558.269 7 131652067.162 7      2676.776 7        44.855               
G24  23717888.208 7 124638302.758 7      2624.677 7        42.268               
> 2025 07 30 06 05 48.0000000  0  9                                             
G05  24705549.294 7 129828533.283 7     -2140.643 7        47.974               
G13  24362254.593 7 128024504.644 7     -2589.932 7        44.491               
G15  22797064.665 7 119799336.913 7      -530.483 7        45.466               
G18  24005759.972 7 126151121.827 7       734.563 7        45.778               
G20  26731810.692 7 140476592.563 7     -3003.349 7        45.137               
G21  27502041.900 7 144524181.541 7     -2877.830 7        43.444               
G22  27667213.892 6 145392201.845 6       986.202 6        40.536               
G23  25052049.502 7 131649390.222 7      2678.993 7        43.929               
G24  23717386.553 7 124635684.394 7      2613.643 7        42.163               
> 2025 07 30 06 05 49.0000000  0  9                                             
G05  24705955.993 7 129830675.213 7     -2141.823 7        47.864               
G13  24362750.047 7 128027100.576 7     -2597.065 7        44.038               
G15  22797166.554 7 119799867.638 7      -528.550 7        44.886               
G18  24005623.167 7 126150392.694 7       730.447 7        45.860               
G20  26732380.660 7 140479593.509 7     -2997.836 7        44.552               
G21  27502592.409 7 144527056.160 7     -2876.696 7        42.946               
G22  27667034.559 6 145391212.152 6       989.751 6        40.105               
G23  25051540.146 7 131646713.299 7      2678.065 7        44.076               
G24  23716890.044 7 124633066.487 7      2615.466 7        42.795               
> 2025 07 30 06 05 50.0000000  0  9                                             
G05  24706361.602 7 129832817.572 7     -2142.548 7        47.104               
G13  24363245.716 7 128029696.772 7     -2600.517 7        43.968               
G15  22797269.247 7 119800398.814 7      -534.793 7        45.396               
G18  24005483.414 7 126149664.319 7       729.317 7        45.790               
G20  26732946.768 7 140482594.773 7     -2999.273 7        44.277               
G21  27503137.700 7 144529930.984 7     -2870.619 7        42.894               
G22  27666840.662 6 145390223.001 6       992.733 6        39.964               
G23  25051028.145 7 131644036.592 7      2674.757 7        44.188               
G24  23716391.838 7 124630449.195 7      2622.040 7        43.372               
> 2025 07 30 06 05 51.0000000  0  9                                             
G05  24706769.391 7 129834960.206 7     -2141.364 7        47.104               
G13  24363741.081 7 128032293.087 7     -2593.233 7        44.296               
G15  22797367.098 7 119800930.290 7      -531.835 7        45.410               
G18  24005346.948 7 126148936.585 7       727.118 7        45.483               
G20  26733523.044 7 140485596.195 7     -3001.703 7        43.097               
G21  27503682.669 7 144532805.941 7     -2877.677 7        42.596               
G22  27666655.324 6 145389234.231 6       991.747 6        40.110               
G23  25050515.679 7 131641359.920 7      2676.697 7        44.513               
G24  23715896.794 7 124627832.402 7      2616.823 7        43.405               
> 2025 07 30 06 05 52.0000000  0  9                                             
G05  24707179.003 7 129837103.165 7     -2145.831 7        47.040               
G13  24364236.339 7 128034889.591 7     -2598.447 7        44.279               
G15  22797468.379 7 119801462.103 7      -531.794 7        46.022               
G18  24005205.443 7 126148209.504 7       725.189 7        46.034               
G20  26734093.674 7 140488597.838 7     -3007.057 7        44.227               
G21  27504224.351 7 144535681.027 7     -2881.399 7        43.238               
G22  27666462.285 6 145388245.863 6       984.427 6        40.509               
G23  25050008.216 7 131638683.344 7      2679.796 7        44.421               
G24  23715395.676 7 124625216.124 7      2608.391 7        44.142               
> 2025 07 30 06 05 53.0000000  0  9                                             
G05  24707588.168 7 129839246.453 7     -2138.868 7        47.670               
G13  24364731.936 7 128037486.259 7     -2597.421 7        44.475               
G15  22797570.626 7 119801994.299 7      -531.289 7        45.334               
G18  24005071.908 7 126147483.107 7       723.520 7        45.784               
G20  26734666.019 7 140491599.694 7     -3005.182 7        43.783               
G21  27504776.647 7 144538556.286 7     -2874.313 7        43.257               
G22  27666275.018 6 145387257.901 6       990.239 6        41.152               
G23  25049501.683 7 131636006.890 7      2673.337 7        44.901               
G24  23714895.611 7 124622600.371 7      2617.928 7        43.453               
> 2025 07 30 06 05 54.0000000  0  9                                             
G05  24708000.638 7 129841390.003 7     -2141.256 7        47.713               
G13  24365227.015 7 128040083.039 7     -2598.133 7        43.638               
G15  22797668.209 7 119802526.777 7      -532.585 7        44.992               
G18  24004929.724 7 126146757.332 7       725.224 7        45.698               
G20  26735239.686 7 140494601.686 7     -2997.028 7        44.034               
G21  27505324.958 7 144541431.611 7     -2872.940 7        43.402               
G22  27666083.962 6 145386270.289 6       988.469 6        39.738               
G23  25048989.914 7 131633330.465 7      2672.293 7        44.331               
G24  23714399.442 7 124619985.110 7      2619.233 7        42.787               
> 2025 07 30 06 05 55.0000000  0  9                                             
G05  24708409.946 8 129843533.896 8     -2145.542 8        48.128               
G13  24365721.969 7 128042679.999 7     -2595.939 7        43.900               
G15  22797769.365 7 119803059.627 7      -531.503 7        45.642               
G18  24004791.043 7 126146032.235 7       724.591 7        46.197               
G20  26735806.902 7 140497603.910 7     -3002.745 7        44.759               
G21  27505875.484 7 144544307.108 7     -2878.144 7        43.657               
G22  27665894.408 6 145385283.089 6       985.278 6        39.474               
G23  25048481.987 7 131630654.142 7      2677.344 7        44.156               
G24  23713897.001 7 124617370.371 7      2616.871 7        42.564               
> 2025 07 30 06 05 56.0000000  0  9                                             
G05  24708816.002 8 129845678.177 8     -2143.420 8        48.499               
G13  24366210.491 7 128045277.197 7     -2596.007 7        43.875               
G15  22797870.575 7 119803592.860 7      -533.943 7        45.210               
G18  24004651.628 7 126145307.863 7       726.567 7        45.629               
G20  26736379.801 7 140500606.418 7     -3003.866 7        44.251               
G21  27506422.616 7 144547182.801 7     -2874.401 7        43.143               
G22  27665703.316 6 145384296.375 6       992.934 6        39.993               
G23  25047970.022 7 131627977.989 7      2673.288 7        43.734               
G24  23713394.041 6 124614756.198 6      2615.012 6        41.868               
> 2025 07 30 06 05 57.0000000  0  9                                             
G05  24709224.720 8 129847822.714 8     -2147.374 8        49.039               
G13  24366702.550 7 128047874.493 7     -2602.014 7        43.665               
G15  22797970.785 7 119804126.398 7      -532.535 7        45.093               
G18  24004515.395 7 126144584.103 7       723.544 7        45.844               
G20  26736956.291 7 140503609.052 7     -3005.498 7        44.385               
G21  27506967.943 7 144550058.586 7     -2874.577 7        43.081               
G22  27665524.823 6 145383310.040 6       990.991 6        39.792               
G23  25047459.987 7 131625301.865 7      2675.316 7        43.854               
G24  23712896.282 7 124612142.520 7      2612.063 7        42.334               
> 2025 07 30 06 05 58.0000000  0  9                                             
G05  24709633.814 8 129849967.672 8     -2145.261 8        48.889               
G13  24367201.114 7 128050472.043 7     -2601.723 7        43.682               
G15  22798075.229 7 119804660.371 7      -532.081 7        45.268               
G18  24004377.678 7 126143861.100 7       721.580 7        46.038               
G20  26737521.864 7 140506611.979 7     -3003.902 7        43.619               
G21  27507513.323 7 144552934.591 7     -2876.694 7        42.971               
G22  27665330.461 6 145382324.158 6       986.319 6        40.106               
G23  25046949.504 7 131622625.919 7      2672.180 7        44.302               
G24  23712400.166 7 124609529.417 7      2617.879 7        42.240               
> 2025 07 30 06 05 59.0000000  0  9                                             
G05  24710037.921 8 129852112.887 8     -2146.989 8        48.289               
G13  24367693.387 7 128053069.675 7     -2592.262 7        43.677               
G15  22798175.814 7 119805194.607 7      -536.032 7        45.699               
G18  24004241.820 7 126143138.699 7       721.193 7        46.051               
G20  26738094.673 7 140509615.044 7     -3002.726 7        43.256               
G21  27508058.543 7 144555810.667 7     -2875.564 7        43.314               
G22  27665136.297 6 145381338.630 6       979.893 6        40.340               
G23  25046440.809 7 131619949.999 7      2673.432 7        44.280               
G24  23711904.837 6 124606916.803 6      2611.827 6        41.667               
> 2025 07 30 06 06 00.0000000  0  9                                             
G05  24710441.386 8 129854258.407 8     -2142.706 8        48.057               
G13  24368187.609 7 128055667.471 7     -2595.211 7        43.802               
G15  22798275.684 7 119805729.188 7      -535.890 7        45.594               
G18  24004107.374 7 126142416.941 7       718.341 7        46.404               
G20  26738664.016 7 140512618.303 7     -3003.555 7        43.929               
G21  27508609.320 7 144558686.865 7     -2875.011 7        43.820               
G22  27664953.514 6 145380353.483 6       982.119 6        40.036               
G23  25045933.222 7 131617274.153 7      2673.388 7        43.543               
G24  23711413.492 7 124604304.680 7      2610.907 7        42.723               
> 2025 07 30 06 06 01.0000000  0  9                                             
G05  24710848.764 7 129856404.230 7     -2146.208 7        47.799               
G13  24368684.511 7 128058265.412 7     -2598.087 7        44.879               
G15  22798381.522 7 119806264.086 7      -540.054 7        45.667               
G18  24003969.282 7 126141695.832 7       719.745 7        45.853               
G20  26739238.809 7 140515621.746 7     -3006.947 7        43.215               
G21  27509160.740 7 144561563.189 7     -2879.949 7        44.839               
G22  27664770.375 6 145379368.738 6       990.686 6        39.756               
G23  25045420.720 7 131614598.386 7      2676.122 7        43.948               
G24  23710914.714 7 124601693.079 7      2609.113 7        42.597               
> 2025 07 30 06 06 02.0000000  0  9                                             
G05  24711256.839 7 129858550.422 7     -2145.141 7        47.672               
G13  24369176.480 7 128060863.557 7     -2600.926 7        44.140               
G15  22798480.731 7 119806799.374 7      -533.136 7        44.932               
G18  24003834.478 7 126140975.428 7       718.352 7        46.165               
G20  26739806.704 7 140518625.441 7     -3001.773 7        43.455               
G21  27509704.584 7 144564439.713 7     -2876.132 7        44.192               
G22  27664579.837 6 145378384.429 6       978.133 6        39.233               
G23  25044917.993 7 131611922.757 7      2678.791 7        44.768               
G24  23710419.242 7 124599082.017 7      2607.397 7        42.488               
> 2025 07 30 06 06 03.0000000  0  9                                             
G05  24711666.576 7 129860696.941 7     -2148.289 7        47.875               
G13  24369673.078 7 128063461.864 7     -2594.109 7        44.435               
G15  22798581.691 7 119807334.998 7      -536.642 7        44.538               
G18  24003694.867 7 126140255.696 7       718.685 7        46.397               
G20  26740375.743 7 140521629.332 7     -3004.553 7        43.842               
G21  27510248.731 7 144567316.355 7     -2879.437 7        43.671               
G22  27664390.890 6 145377400.554 6       983.412 6        39.554               
G23  25044409.441 7 131609247.227 7      2679.495 7        44.384               
G24  23709923.752 7 124596471.503 7      2606.976 7        42.839               
> 2025 07 30 06 06 04.0000000  0  9                                             
G05  24712075.758 7 129862843.807 7     -2149.369 7        47.126               
G13  24370171.749 7 128066060.366 7     -2598.992 7        44.868               
G15  22798682.222 7 119807871.017 7      -539.119 7        45.250               
G18  24003558.187 7 126139536.654 7       722.553 7        46.144               
G20  26740951.662 7 140524633.452 7     -3002.637 7        43.989               
G21  27510795.005 7 144570193.158 7     -2875.633 7        44.096               
G22  27664199.585 6 145376417.070 6       982.297 6        39.536               
G23  25043904.087 7 131606571.805 7      2674.044 7        44.209               
G24  23709427.082 7 124593861.511 7      2611.295 7        43.517               
> 2025 07 30 06 06 05.0000000  0  9                                             
G05  24712487.175 7 129864990.959 7     -2147.121 7        47.534               
G13  24370668.615 7 128068659.002 7     -2600.051 7        44.460               
G15  22798786.631 7 119808407.344 7      -534.324 7        44.757               
G18  24003417.433 7 126138818.266 7       717.406 7        45.960               
G20  26741520.629 7 140527637.760 7     -3006.855 7        43.561               
G21  27511346.068 7 144573070.109 7     -2873.546 7        43.997               
G22  27664015.015 6 145375434.007 6       983.751 6        39.530               
G23  25043391.585 7 131603896.455 7      2672.850 7        44.653               
G24  23708929.698 7 124591252.036 7      2610.758 7        42.987               
> 2025 07 30 06 06 06.0000000  0  9                                             
G05  24712897.859 8 129867138.457 8     -2148.689 8        48.005               
G13  24371163.248 7 128071257.798 7     -2601.396 7        44.521               
G15  22798885.929 7 119808944.028 7      -537.154 7        44.977               
G18  24003279.144 7 126138100.555 7       712.346 7        46.068               
G20  26742093.707 7 140530642.294 7     -3003.181 7        43.937               
G21  27511897.149 7 144575947.196 7     -2877.154 7        43.347               
G22  27663828.266 6 145374451.308 6       987.420 6        39.253               
G23  25042884.748 7 131601221.208 7      2674.217 7        44.456               
G24  23708437.210 7 124588643.095 7      2611.318 7        43.011               
> 2025 07 30 06 06 07.0000000  0  9                                             
G05  24713304.379 8 129869286.306 8     -2149.591 8        48.137               
G13  24371660.132 7 128073856.805 7     -2601.737 7        44.905               
G15  22798988.926 7 119809481.104 7      -539.395 7        44.822               
G18  24003142.268 7 126137383.539 7       718.309 7        45.882               
G20  26742665.927 7 140533647.077 7     -3004.069 7        43.596               
G21  27512445.102 7 144578824.462 7     -2876.628 7        44.529               
G22  27663647.396 6 145373469.108 6       983.027 6        39.063               
G23  25042374.534 7 131598546.104 7      2671.010 7        44.536               
G24  23707936.216 7 124586034.709 7      2605.542 7        43.107               
> 2025 07 30 06 06 08.0000000  0  9                                             
G05  24713712.865 8 129871434.495 8     -2147.382 8        48.393               
G13  24372148.903 7 128076456.014 7     -2601.061 7        44.831               
G15  22799091.137 7 119810018.545 7      -540.002 7        44.826               
G18  24003005.605 7 126136667.231 7       715.401 7        45.704               
G20  26743241.506 7 140536652.069 7     -3005.651 7        43.460               
G21  27512993.056 7 144581701.883 7     -2877.461 7        43.761               
G22  27663459.289 6 145372487.334 6       985.057 6        38.707               
G23  25041864.159 7 131595871.115 7      2672.274 7        43.933               
G24  23707443.371 7 124583426.874 7      2608.874 7        43.460               
> 2025 07 30 06 06 09.0000000  0  9                                             
G05  24714122.208 8 129873583.055 8     -2143.256 8        48.028               
G13  24372646.877 7 128079055.415 7     -2597.838 7        44.713               
G15  22799195.492 7 119810556.381 7      -538.248 7        44.907               
G18  24002869.283 7 126135951.627 7       717.162 7        45.163               
G20  26743811.903 7 140539657.317 7     -3005.948 7        43.813               
G21  27513534.237 7 144584579.514 7     -2879.296 7        44.697               
G22  27663274.738 6 145371506.008 6       984.563 6        39.576               
G23  25041353.194 7 131593196.266 7      2676.367 7        43.476               
G24  23706944.182 7 124580819.603 7      2603.520 7        43.113               
> 2025 07 30 06 06 10.0000000  0  9                                             
G05  24714529.783 7 129875731.922 7     -2146.943 7        47.801               
G13  24373137.918 7 128081654.967 7     -2601.335 7        45.363               
G15  22799298.257 7 119811094.543 7      -539.948 7        45.040               
G18  24002735.837 7 126135236.681 7       713.413 7        46.096               
G20  26744383.854 7 140542662.767 7     -3005.869 7        43.726               
G21  27514079.796 7 144587457.247 7     -2880.108 7        43.867               
G22  27663088.113 6 145370525.057 6       977.236 6        39.316               
G23  25040842.891 7 131590521.475 7      2673.137 7        43.093               
G24  23706449.245 7 124578212.838 7      2607.633 7        43.286               
> 2025 07 30 06 06 11.0000000  0  9                                             
G05  24714940.538 7 129877881.098 7     -2149.042 7        47.771               
G13  24373630.692 7 128084254.653 7     -2597.925 7        44.967               
G15  22799398.663 7 119811633.026 7      -537.701 7        45.411               
G18  24002602.605 7 126134522.366 7       713.991 7        46.325               
G20  26744953.644 7 140545668.378 7     -3008.525 7        44.195               
G21  27514630.109 7 144590335.110 7     -2880.070 7        43.961               
G22  27662904.295 6 145369544.520 6       977.286 6        40.403               
G23  25040330.246 7 131587846.771 7      2673.304 7        43.209               
G24  23705955.453 7 124575606.587 7      2612.521 7        42.438               
> 2025 07 30 06 06 12.0000000  0  9                                             
G05  24715349.560 8 129880030.621 8     -2149.635 8        48.093               
G13  24374122.930 7 128086854.536 7     -2597.436 7        44.829               
G15  22799506.627 7 119812171.869 7      -538.944 7        45.549               
G18  24002466.015 7 126133808.749 7       717.628 7        46.488               
G20  26745525.989 7 140548674.223 7     -3008.649 7        44.103               
G21  27515183.333 7 144593213.134 7     -2877.924 7        44.444               
G22  27662723.067 6 145368564.389 6       980.203 6        40.413               
G23  25039824.839 7 131585172.176 7      2673.579 7        43.708               
G24  23705459.051 7 124573000.866 7      2610.711 7        42.671               
> 2025 07 30 06 06 13.0000000  0  9                                             
G05  24715761.012 7 129882180.454 7     -2151.703 7        47.842               
G13  24374621.869 7 128089454.583 7     -2599.410 7        45.163               
G15  22799607.266 7 119812711.055 7      -542.298 7        45.249               
G18  24002329.477 7 126133095.778 7       712.092 7        46.550               
G20  26746096.797 7 140551680.267 7     -3009.584 7        44.552               
G21  27515728.875 7 144596091.289 7     -2873.963 7        43.929               
G22  27662544.931 6 145367584.662 6       977.779 6        39.915               
G23  25039314.035 7 131582497.673 7      2675.290 7        43.217               
G24  23704955.538 7 124570395.647 7      2603.265 7        42.519               
> 2025 07 30 06 06 14.0000000  0  9                                             
G05  24716169.784 8 129884330.586 8     -2149.187 8        48.613               
G13  24375113.052 7 128092054.769 7     -2605.007 7        45.205               
G15  22799711.853 7 119813250.572 7      -536.804 7        45.585               
G18  24002193.369 7 126132383.487 7       713.153 7        45.970               
G20  26746672.501 7 140554686.480 7     -3005.919 7        44.588               
G21  27516273.951 7 144598969.578 7     -2876.637 7        43.689               
G22  27662351.767 6 145366605.322 6       986.512 6        40.085               
G23  25038806.573 7 131579823.256 7      2675.556 7        43.431               
G24  23704462.121 7 124567790.942 7      2605.014 7        42.754               
> 2025 07 30 06 06 15.0000000  0  9                                             
G05  24716579.270 8 129886481.073 8     -2150.619 8        48.338               
G13  24375611.276 7 128094655.162 7     -2603.562 7        44.770               
G15  22799815.493 7 119813790.456 7      -539.677 7        45.058               
G18  24002059.887 7 126131671.862 7       712.968 7        46.334               
G20  26747244.417 7 140557692.936 7     -3007.257 7        44.523               
G21  27516818.832 7 144601848.021 7     -2877.626 7        43.392               
G22  27662157.870 6 145365626.446 6       985.888 6        40.091               
G23  25038295.000 7 131577148.941 7      2676.400 7        43.041               
G24  23703969.418 7 124565186.806 7      2600.672 7        43.141               
> 2025 07 30 06 06 16.0000000  0  9                                             
G05  24716989.901 8 129888631.804 8     -2154.696 8        48.761               
G13  24376102.496 7 128097255.633 7     -2598.967 7        45.097               
G15  22799916.221 7 119814330.619 7      -540.475 7        44.689               
G18  24001921.796 7 126130960.851 7       711.230 7        46.440               
G20  26747813.921 7 140560699.519 7     -3005.921 7        44.317               
G21  27517363.658 7 144604726.540 7     -2881.355 7        43.289               
G22  27661979.448 6 145364647.899 6       975.960 6        39.941               
G23  25037787.216 7 131574474.657 7      2675.800 7        43.032               
G24  23703476.376 7 124562583.110 7      2608.807 7        43.207               
> 2025 07 30 06 06 17.0000000  0  9                                             
G05  24717398.011 7 129890782.903 7     -2151.612 7        47.753               
G13  24376600.059 7 128099856.332 7     -2602.144 7        44.846               
G15  22800022.935 7 119814871.179 7      -544.884 7        44.621               
G18  24001787.367 7 126130250.545 7       710.452 7        46.233               
G20  26748388.285 7 140563706.368 7     -3007.601 7        44.223               
G21  27517913.738 7 144607605.265 7     -2881.632 7        42.623               
G22  27661790.465 6 145363669.768 6       978.825 6        39.167               
G23  25037277.199 7 131571800.518 7      2672.970 7        42.736               
G24  23702974.489 7 124559980.008 7      2603.940 7        43.146               
> 2025 07 30 06 06 18.0000000  0  9                                             
G05  24717806.854 8 129892934.298 8     -2157.306 8        48.073               
G13  24377098.533 7 128102457.158 7     -2599.704 7        44.854               
G15  22800125.378 7 119815412.058 7      -541.900 7        44.415               
G18  24001654.654 7 126129540.897 7       707.210 7        45.445               
G20  26748959.343 7 140566713.386 7     -3006.489 7        44.907               
G21  27518467.124 7 144610484.071 7     -2882.513 7        42.763               
G22  27661606.557 6 145362692.043 6       981.521 6        39.556               
G23  25036773.257 7 131569126.456 7      2669.934 7        43.045               
G24  23702482.608 7 124557377.390 7      2596.591 7        43.382               
> 2025 07 30 06 06 19.0000000  0  9                                             
G05  24718212.892 8 129895086.057 8     -2152.786 8        48.262               
G13  24377592.772 7 128105058.170 7     -2602.923 7        45.070               
G15  22800226.999 7 119815953.294 7      -541.849 7        44.706               
G18  24001519.564 7 126128831.924 7       712.825 7        46.422               
G20  26749530.669 7 140569720.623 7     -3009.376 7        44.602               
G21  27519011.861 6 144613363.058 6     -2878.637 6        41.799               
G22  27661424.775 6 145361714.756 6       985.682 6        40.101               
G23  25036262.256 7 131566452.498 7      2672.582 7        42.988               
G24  23701986.993 7 124554775.311 7      2602.399 7        43.751               
> 2025 07 30 06 06 20.0000000  0  9                                             
G05  24718624.076 7 129897238.140 7     -2152.921 7        47.812               
G13  24378089.299 7 128107659.348 7     -2604.058 7        45.224               
G15  22800333.088 7 119816494.893 7      -538.629 7        45.418               
G18  24001385.939 7 126128123.634 7       708.331 7        46.526               
G20  26750103.371 7 140572728.086 7     -3007.918 7        44.095               
G21  27519558.939 6 144616242.196 6     -2881.824 6        41.911               
G22  27661234.989 6 145360737.889 6       977.691 6        39.972               
G23  25035758.528 7 131563778.649 7      2677.877 7        42.724               
G24  23701489.055 7 124552173.786 7      2603.450 7        43.013               
> 2025 07 30 06 06 21.0000000  0  9                                             
G05  24719031.240 8 129899390.614 8     -2154.327 8        48.205               
G13  24378581.412 7 128110260.748 7     -2597.533 7        44.907               
G15  22800429.866 7 119817036.888 7      -546.802 7        44.045               
G18  24001252.797 7 126127416.054 7       709.390 7        46.980               
G20  26750673.125 7 140575735.807 7     -3010.296 7        44.746               
G21  27520106.053 7 144619121.537 7     -2880.796 7        42.724               
G22  27661049.758 6 145359761.467 6       977.716 6        39.843               
G23  25035242.525 7 131561104.957 7      2676.788 7        42.856               
G24  23700989.937 7 124549572.805 7      2600.155 7        42.988               
> 2025 07 30 06 06 22.0000000  0  9                                             
G05  24719441.852 7 129901543.378 7     -2150.162 7        47.972               
G13  24379075.383 7 128112862.282 7     -2605.215 7        44.720               
G15  22800535.097 7 119817579.186 7      -535.903 7        44.612               
G18  24001114.026 7 126126709.127 7       705.556 7        46.504               
G20  26751247.310 7 140578743.693 7     -3009.558 7        44.318               
G21  27520651.862 7 144622000.976 7     -2875.320 7        42.348               
G22  27660872.390 6 145358785.442 6       974.455 6        39.878               
G23  25034738.154 7 131558431.316 7      2673.344 7        42.787               
G24  23700499.075 7 124546972.352 7      2595.217 7        42.883               
> 2025 07 30 06 06 23.0000000  0  9                                             
G05  24719853.340 7 129903696.410 7     -2156.021 7        47.985               
G13  24379574.787 7 128115463.909 7     -2598.807 7        45.023               
G15  22800641.024 7 119818121.784 7      -543.965 7        44.546               
G18  24000978.204 7 126126002.802 7       703.808 7        46.156               
G20  26751819.905 7 140581751.721 7     -3009.346 7        44.575               
G21  27521206.856 7 144624880.505 7     -2879.187 7        43.293               
G22  27660677.618 6 145357809.767 6       976.258 6        40.480               
G23  25034223.812 7 131555757.712 7      2675.542 7        42.448               
G24  23700007.623 7 124544372.324 7      2601.204 7        43.142               
> 2025 07 30 06 06 24.0000000  0  9                                             
G05  24720264.203 7 129905849.745 7     -2154.861 7        47.830               
G13  24380067.185 7 128118065.694 7     -2598.614 7        44.836               
G15  22800741.520 7 119818664.714 7      -540.467 7        44.794               
G18  24000841.595 7 126125297.134 7       702.440 7        46.114               
G20  26752391.232 7 140584759.950 7     -3008.494 7        43.948               
G21  27521755.685 7 144627760.162 7     -2877.634 7        42.321               
G22  27660492.602 6 145356834.488 6       974.307 6        40.878               
G23  25033715.527 7 131553084.205 7      2678.343 7        42.668               
G24  23699510.936 7 124541772.843 7      2601.772 7        43.032               
> 2025 07 30 06 06 25.0000000  0  9                                             
G05  24720673.510 8 129908003.485 8     -2154.523 8        48.628               
G13  24380567.214 7 128120667.748 7     -2605.145 7        45.034               
G15  22800841.622 7 119819208.083 7      -545.555 7        45.147               
G18  24000706.041 7 126124592.230 7       706.488 7        46.696               
G20  26752966.275 7 140587768.468 7     -3011.809 7        44.752               
G21  27522305.265 7 144630640.050 7     -2884.443 7        42.699               
G22  27660308.104 6 145355859.706 6       972.095 6        41.234               
G23  25033206.725 7 131550410.863 7      2676.907 7        42.877               
G24  23699015.339 7 124539173.974 7      2594.046 7        42.716               
> 2025 07 30 06 06 26.0000000  0  9                                             
G05  24721082.836 8 129910157.524 8     -2155.394 8        48.044               
G13  24381057.040 7 128123269.922 7     -2604.154 7        45.238               
G15  22800949.104 7 119819751.772 7      -544.693 7        44.492               
G18  24000576.115 7 126123887.984 7       697.923 7        46.145               
G20  26753541.193 7 140590777.178 7     -3010.613 7        44.426               
G21  27522845.874 7 144633520.055 7     -2882.740 7        43.055               
G22  27660117.353 6 145354885.331 6       977.076 6        40.640               
G23  25032700.638 7 131547737.618 7      2668.134 7        42.952               
G24  23698520.438 7 124536575.589 7      2596.524 7        42.534               
> 2025 07 30 06 06 27.0000000  0  9                                             
G05  24721492.608 8 129912311.901 8     -2153.943 8        48.033               
G13  24381552.709 7 128125872.288 7     -2605.388 7        44.636               
G15  22801044.561 7 119820295.824 7      -544.573 7        44.442               
G18  24000442.562 7 126123184.399 7       702.976 7        46.701               
G20  26754109.124 7 140593786.093 7     -3008.144 7        43.497               
G21  27523391.344 7 144636400.230 7     -2877.292 7        42.583               
G22  27659933.195 6 145353911.371 6       977.311 6        40.222               
G23  25032190.978 7 131545064.456 7      2672.346 7        43.350               
G24  23698029.505 7 124533977.743 7      2590.604 7        42.890               
> 2025 07 30 06 06 28.0000000  0  9                                             
G05  24721903.882 8 129914466.617 8     -2154.703 8        48.255               
G13  24382046.841 7 128128474.836 7     -2602.774 7        44.841               
G15  22801152.758 7 119820840.253 7      -541.091 7        44.673               
G18  24000311.493 7 126122481.512 7       703.986 7        46.759               
G20  26754684.631 7 140596795.255 7     -3008.947 7        43.558               
G21  27523941.102 7 144639280.573 7     -2881.310 7        42.037               
G22  27659747.321 6 145352937.844 6       972.719 6        40.589               
G23  25031681.318 7 131542391.437 7      2678.459 7        43.075               
G24  23697533.568 7 124531380.471 7      2598.539 7        42.964               
> 2025 07 30 06 06 29.0000000  0  9                                             
G05  24722313.136 8 129916621.623 8     -2154.695 8        48.548               
G13  24382539.400 7 128131077.507 7     -2602.267 7        44.908               
G15  22801254.129 7 119821384.976 7      -546.164 7        44.115               
G18  24000175.581 7 126121779.262 7       699.018 7        46.565               
G20  26755257.441 7 140599804.565 7     -3007.759 7        43.784               
G21  27524494.828 6 144642160.988 6     -2876.600 6        41.661               
G22  27659560.750 6 145351964.682 6       981.235 6        40.417               
G23  25031175.088 7 131539718.464 7      2671.054 7        42.681               
G24  23697040.740 7 124528783.668 7      2604.064 7        43.717               
> 2025 07 30 06 06 30.0000000  0  9                                             
G05  24722722.784 8 129918777.028 8     -2156.855 8        48.427               
G13  24383034.891 7 128133680.414 7     -2602.417 7        44.872               
G15  22801356.983 7 119821930.124 7      -548.515 7        44.220               
G18  24000041.403 7 126121077.749 7       698.509 7        46.370               
G20  26755825.372 7 140602814.155 7     -3007.694 7        44.654               
G21  27525041.870 7 144645041.621 7     -2877.676 7        42.425               
G22  27659376.896 6 145350992.009 6       975.429 6        39.880               
G23  25030662.247 7 131537045.661 7      2673.885 7        42.800               
G24  23696546.161 7 124526187.463 7      2593.771 7        43.199               
> 2025 07 30 06 06 31.0000000  0  9                                             
G05  24723135.379 8 129920932.736 8     -2154.733 8        48.717               
G13  24383527.790 7 128136283.463 7     -2601.800 7        44.933               
G15  22801460.248 7 119822475.591 7      -545.757 7        44.586               
G18  23999910.816 7 126120376.873 7       699.889 7        46.863               
G20  26756400.201 7 140605823.932 7     -3010.059 7        44.082               
G21  27525592.933 7 144647922.398 7     -2881.668 7        42.182               
G22  27659182.856 6 145350019.723 6       975.943 6        40.188               
G23  25030155.535 7 131534372.935 7      2668.995 7        42.546               
G24  23696054.638 7 124523591.742 7      2594.854 7        44.045               
> 2025 07 30 06 06 32.0000000  0  9                                             
G05  24723543.615 8 129923088.811 8     -2155.790 8        48.432               
G13  24384025.406 7 128138886.723 7     -2606.860 7        45.149               
G15  22801566.014 7 119823021.434 7      -543.036 7        44.564               
G18  23999774.958 7 126119676.735 7       696.177 7        46.974               
G20  26756978.335 7 140608833.941 7     -3011.262 7        44.103               
G21  27526135.508 7 144650803.356 7     -2881.448 7        42.046               
G22  27659004.238 6 145349047.868 6       978.664 6        40.210               
G23  25029650.271 7 131531700.354 7      2667.595 7        42.686               
G24  23695564.151 7 124520996.645 7      2593.558 7        43.545               
> 2025 07 30 06 06 33.0000000  0  9                                             
G05  24723954.013 8 129925245.203 8     -2160.270 8        48.399               
G13  24384516.304 7 128141490.152 7     -2606.359 7        45.016               
G15  22801667.618 7 119823567.625 7      -540.588 7        44.328               
G18  23999642.780 7 126118977.242 7       700.077 7        46.785               
G20  26757546.606 7 140611844.174 7     -3007.645 7        43.827               
G21  27526683.783 6 144653684.443 6     -2875.926 6        41.901               
G22  27658814.272 6 145348076.448 6       972.920 6        40.540               
G23  25029138.824 7 131529027.850 7      2668.419 7        42.158               
G24  23695067.946 7 124518402.022 7      2595.688 7        43.198               
> 2025 07 30 06 06 34.0000000  0  9                                             
G05  24724364.714 8 129927401.954 8     -2155.930 8        49.231               
G13  24385018.835 7 128144093.748 7     -2602.656 7        44.822               
G15  22801770.758 7 119824114.187 7      -543.511 7        44.542               
G18  23999511.497 7 126118278.435 7       703.595 7        46.727               
G20  26758120.487 7 140614854.626 7     -3011.400 7        44.070               
G21  27527227.823 7 144656565.681 7     -2876.851 7        42.242               
G22  27658631.722 6 145347105.431 6       971.520 6        40.236               
G23  25028632.630 7 131526355.488 7      2668.329 7        42.203               
G24  23694578.746 7 124515807.964 7      2594.574 7        44.127               
> 2025 07 30 06 06 35.0000000  0  9                                             
G05  24724774.987 8 129929559.047 8     -2156.643 8        48.834               
G13  24385514.253 7 128146697.542 7     -2601.640 7        44.975               
G15  22801874.666 7 119824661.110 7      -550.691 7        44.275               
G18  23999378.087 7 126117580.329 7       696.731 7        47.051               
G20  26758693.279 7 140617865.306 7     -3013.465 7        44.494               
G21  27527789.840 7 144659447.116 7     -2882.751 7        42.596               
G22  27658442.757 6 145346134.861 6       971.113 6        40.906               
G23  25028123.077 7 131523683.204 7      2674.404 7        42.064               
G24  23694084.150 7 124513214.469 7      2588.923 7        44.063               
> 2025 07 30 06 06 36.0000000  0  9                                             
G05  24725186.153 8 129931716.474 8     -2156.009 8        48.174               
G13  24386009.994 7 128149301.505 7     -2603.469 7        45.213               
G15  22801978.610 7 119825208.410 7      -545.443 7        44.449               
G18  23999248.983 7 126116882.911 7       694.173 7        46.828               
G20  26759265.874 7 140620876.192 7     -3015.339 7        44.138               
G21  27528334.541 7 144662328.668 7     -2879.436 7        42.483               
G22  27658259.528 6 145345164.710 6       964.878 6        40.515               
G23  25027617.169 6 131521011.064 6      2672.199 6        41.844               
G24  23693589.928 7 124510621.493 7      2592.163 7        43.875               
> 2025 07 30 06 06 37.0000000  0  9                                             
G05  24725596.140 8 129933874.266 8     -2157.570 8        48.104               
G13  24386504.787 7 128151905.651 7     -2600.292 7        44.648               
G15  22802082.644 7 119825756.090 7      -550.602 7        44.446               
G18  23999116.645 7 126116186.185 7       698.944 7        46.593               
G20  26759842.185 7 140623887.336 7     -3009.481 7        44.190               
G21  27528885.372 7 144665210.426 7     -2883.971 7        43.387               
G22  27658076.281 6 145344195.030 6       969.437 6        40.811               
G23  25027105.615 7 131518339.031 7      2680.031 7        42.225               
G24  23693093.294 7 124508029.092 7      2591.484 7        43.946               
> 2025 07 30 06 06 38.0000000  0  9                                             
G05  24726005.162 7 129936032.449 7     -2157.366 7        47.962               
G13  24386998.883 7 128154510.025 7     -2603.050 7        44.733               
G15  22802188.839 7 119826304.169 7      -549.146 7        44.629               
G18  23998979.268 7 126115490.206 7       692.025 7        47.148               
G20  26760410.938 7 140626898.720 7     -3012.341 7        44.597               
G21  27529424.069 7 144668092.369 7     -2879.930 7        42.932               
G22  27657898.377 6 145343225.790 6       967.864 6        40.740               
G23  25026597.688 6 131515667.177 6      2675.068 6        41.902               
G24  23692599.323 7 124505437.282 7      2593.669 7        43.659               
> 2025 07 30 06 06 39.0000000  0  9                                             
G05  24726415.864 7 129938190.921 7     -2160.434 7        47.847               
G13  24387495.517 7 128157114.554 7     -2604.245 7        44.633               
G15  22802296.053 7 119826852.563 7      -544.174 7        44.897               
G18  23998848.895 7 126114794.859 7       696.806 7        46.942               
G20  26760984.766 7 140629910.306 7     -3012.699 7        44.456               
G21  27529973.166 7 144670974.436 7     -2883.307 7        42.626               
G22  27657704.373 6 145342256.941 6       969.254 6        40.710               
G23  25026088.224 7 131512995.396 7      2674.992 7        42.305               
G24  23692107.585 7 124502845.959 7      2597.388 7        43.556               
> 2025 07 30 06 06 40.0000000  0  9                                             
G05  24726826.548 8 129940349.763 8     -2159.709 8        48.028               
G13  24387990.757 7 128159719.285 7     -2605.429 7        44.643               
G15  22802401.731 7 119827401.354 7      -548.634 7        44.668               
G18  23998714.663 7 126114100.225 7       697.814 7        46.883               
G20  26761559.702 7 140632922.116 7     -3012.762 7        44.050               
G21  27530525.534 7 144673856.673 7     -2879.484 7        42.600               
G22  27657522.288 6 145341288.552 6       967.501 6        40.735               
G23  25025579.404 7 131510323.724 7      2668.825 7        42.377               
G24  23691617.277 7 124500255.208 7      2590.884 7        43.341               
> 2025 07 30 06 06 41.0000000  0  9                                             
G05  24727240.555 8 129942508.916 8     -2157.890 8        48.083               
G13  24388484.389 7 128162324.168 7     -2608.349 7        44.914               
G15  22802505.478 7 119827950.479 7      -546.314 7        45.130               
G18  23998582.450 7 126113406.257 7       689.553 7        46.568               
G20  26762135.424 7 140635934.140 7     -3010.582 7        44.516               
G21  27531076.936 7 144676739.054 7     -2885.531 7        42.783               
G22  27657346.439 6 145340320.564 6       968.653 6        41.226               
G23  25025068.171 6 131507652.172 6      2669.378 6        41.808               
G24  23691117.463 7 124497664.987 7      2592.905 7        43.766               
> 2025 07 30 06 06 42.0000000  0  9                                             
G05  24727651.882 8 129944668.476 8     -2159.136 8        48.465               
G13  24388977.681 7 128164929.300 7     -2608.832 7        44.628               
G15  22802607.314 7 119828500.034 7      -551.417 7        44.993               
G18  23998449.702 7 126112713.041 7       695.243 7        46.496               
G20  26762707.215 7 140638946.447 7     -3012.297 7        44.612               
G21  27531628.517 7 144679621.658 7     -2882.933 7        43.000               
G22  27657163.335 6 145339353.083 6       966.173 6        41.528               
G23  25024562.513 6 131504980.780 6      2670.470 6        41.682               
G24  23690626.011 7 124495075.354 7      2586.524 7        43.396               
> 2025 07 30 06 06 43.0000000  0  9                                             
G05  24728062.798 7 129946828.310 7     -2160.175 7        47.782               
G13  24389474.064 7 128167534.529 7     -2602.783 7        44.233               
G15  22802714.189 7 119829049.873 7      -548.958 7        44.908               
G18  23998319.901 7 126112020.438 7       691.229 7        46.821               
G20  26763282.544 7 140641958.906 7     -3013.378 7        44.775               
G21  27532169.448 7 144682504.356 7     -2885.842 7        42.976               
G22  27656978.730 6 145338385.925 6       967.400 6        41.761               
G23  25024056.606 6 131502309.454 6      2671.695 6        41.390               
G24  23690132.308 7 124492486.200 7      2591.401 7        43.649               
> 2025 07 30 06 06 44.0000000  0  9                                             
G05  24728473.821 8 129948988.498 8     -2160.890 8        48.425               
G13  24389970.341 7 128170139.961 7     -2604.547 7        44.585               
G15  22802820.527 7 119829600.109 7      -552.410 7        44.977               
G18  23998188.313 7 126111328.549 7       691.525 7        46.930               
G20  26763851.565 7 140644971.609 7     -3014.619 7        44.429               
G21  27532720.046 7 144685387.218 7     -2879.003 7        42.581               
G22  27656797.467 7 145337419.263 7       962.410 7        42.297               
G23  25023546.213 6 131499638.261 6      2669.259 6        41.839               
G24  23689639.087 7 124489897.608 7      2589.056 7        43.195               
> 2025 07 30 06 06 45.0000000  0  9                                             
G05  24728882.825 8 129951149.047 8     -2157.703 8        48.095               
G13  24390463.311 7 128172745.598 7     -2611.938 7        44.260               
G15  22802926.097 7 119830150.708 7      -551.682 7        44.722               
G18  23998057.584 7 126110637.351 7       691.574 7        46.287               
G20  26764428.449 7 140647984.543 7     -3013.080 7        44.694               
G21  27533262.496 7 144688270.267 7     -2884.325 7        42.597               
G22  27656620.724 7 145336453.007 7       964.789 7        42.456               
G23  25023040.376 6 131496967.161 6      2672.920 6        41.953               
G24  23689144.776 7 124487309.578 7      2586.684 7        43.541               
> 2025 07 30 06 06 46.0000000  0  9                                             
G05  24729292.902 8 129953309.939 8     -2160.270 8        48.142               
G13  24390967.129 7 128175351.406 7     -2607.025 7        44.396               
G15  22803030.506 7 119830701.687 7      -560.367 7        45.502               
G18  23997924.942 7 126109946.854 7       689.615 7        46.579               
G20  26765001.258 7 140650997.705 7     -3012.320 7        45.233               
G21  27533810.789 7 144691153.497 7     -2883.448 7        42.774               
G22  27656431.456 6 145335487.185 6       965.953 6        41.776               
G23  25022532.432 6 131494296.214 6      2664.142 6        41.554               
G24  23688654.486 7 124484722.084 7      2593.978 7        43.271               
> 2025 07 30 06 06 47.0000000  0  9                                             
G05  24729706.337 8 129955471.167 8     -2162.176 8        48.144               
G13  24391458.527 7 128177957.405 7     -2598.963 7        44.233               
G15  22803134.754 7 119831253.012 7      -551.041 7        45.736               
G18  23997795.374 7 126109257.027 7       689.631 7        46.949               
G20  26765572.620 7 140654011.076 7     -3013.857 7        45.245               
G21  27534366.141 7 144694036.856 7     -2881.780 7        42.693               
G22  27656250.961 7 145334521.786 7       968.236 7        42.105               
G23  25022021.395 6 131491625.357 6      2673.909 6        41.816               
G24  23688162.087 7 124482135.148 7      2586.573 7        43.392               
> 2025 07 30 06 06 48.0000000  0  9                                             
G05  24730117.468 8 129957632.631 8     -2159.519 8        48.607               
G13  24391953.677 7 128180563.485 7     -2608.645 7        44.750               
G15  22803237.876 7 119831804.611 7      -550.645 7        45.443               
G18  23997661.410 7 126108567.804 7       688.047 7        46.681               
G20  26766146.287 7 140657024.590 7     -3012.257 7        45.557               
G21  27534913.826 7 144696920.272 7     -2883.433 7        42.360               
G22  27656069.947 7 145333556.727 7       963.852 7        42.036               
G23  25021516.327 7 131488954.528 7      2659.905 7        42.062               
G24  23687669.688 7 124479548.661 7      2588.430 7        44.006               
> 2025 07 30 06 06 49.0000000  0  9                                             
G05  24730531.010 8 129959794.459 8     -2160.915 8        48.288               
G13  24392452.437 7 128183169.755 7     -2602.169 7        44.894               
G15  22803346.734 7 119832356.579 7      -549.660 7        44.783               
G18  23997531.430 7 126107879.267 7       690.771 7        46.551               
G20  26766719.508 7 140660038.329 7     -3016.282 7        45.510               
G21  27535461.262 7 144699803.874 7     -2883.739 7        42.263               
G22  27655881.930 7 145332592.103 7       967.370 7        42.053               
G23  25021009.240 6 131486283.836 6      2672.583 6        41.353               
G24  23687180.149 7 124476962.742 7      2587.045 7        43.651               
> 2025 07 30 06 06 50.0000000  0  9                                             
G05  24730942.141 8 129961956.602 8     -2162.540 8        48.487               
G13  24392947.481 7 128185776.188 7     -2612.540 7        45.188               
G15  22803450.893 7 119832908.906 7      -556.449 7        44.853               
G18  23997400.397 7 126107191.413 7       688.527 7        46.262               
G20  26767293.800 7 140663052.280 7     -3012.291 7        45.928               
G21  27536005.677 6 144702687.610 6     -2884.274 6        41.856               
G22  27655699.683 7 145331627.901 7       964.889 7        42.367               
G23  25020503.332 6 131483613.220 6      2669.064 6        41.858               
G24  23686689.537 7 124474377.334 7      2582.468 7        43.800               
> 2025 07 30 06 06 51.0000000  0  9                                             
G05  24731352.378 8 129964119.086 8     -2161.839 8        48.627               
G13  24393443.221 7 128188382.803 7     -2609.612 7        45.028               
G15  22803555.605 7 119833461.590 7      -556.471 7        44.587               
G18  23997270.096 7 126106504.237 7       688.512 7        46.279               
G20  26767868.021 7 140666066.448 7     -3013.571 7        46.088               
G21  27536555.078 6 144705571.522 6     -2882.633 6        41.328               
G22  27655515.615 7 145330664.102 7       960.259 7        42.290               
G23  25019994.834 7 131480942.721 7      2677.115 7        42.354               
G24  23686199.211 7 124471792.489 7      2584.257 7        43.901               
> 2025 07 30 06 06 52.0000000  0  9                                             
G05  24731761.400 8 129966281.882 8     -2161.622 8        48.514               
G13  24393940.605 7 128190989.548 7     -2606.793 7        44.843               
G15  22803661.086 7 119834014.596 7      -554.133 7        43.903               
G18  23997138.776 7 126105817.721 7       684.316 7        46.529               
G20  26768440.652 7 140669080.796 7     -3013.836 7        46.006               
G21  27537107.838 6 144708455.533 6     -2888.870 6        41.965               
G22  27655332.332 7 145329700.709 7       959.793 7        43.292               
G23  25019489.587 6 131478272.315 6      2670.201 6        41.919               
G24  23685709.439 7 124469208.127 7      2583.354 7        43.852               
> 2025 07 30 06 06 53.0000000  0  9                                             
G05  24732174.746 8 129968444.997 8     -2162.164 8        48.172               
G13  24394435.256 7 128193596.478 7     -2612.508 7        45.112               
G15  22803763.976 7 119834567.952 7      -553.816 7        43.857               
G18  23997005.706 7 126105131.880 7       685.445 7        46.441               
G20  26769015.945 7 140672095.360 7     -3015.642 7        45.502               
G21  27537663.797 6 144711339.711 6     -2884.320 6        41.777               
G22  27655152.909 7 145328737.731 7       964.623 7        42.903               
G23  25018979.176 7 131475602.000 7      2670.799 7        42.022               
G24  23685216.361 7 124466624.312 7      2585.560 7        44.120               
> 2025 07 30 06 06 54.0000000  0  9                                             
G05  24732584.679 8 129970608.465 8     -2160.815 8        48.659               
G13  24394928.673 7 128196203.583 7     -2608.924 7        44.862               
G15  22803870.600 7 119835121.677 7      -552.429 7        44.725               
G18  23996877.496 7 126104446.728 7       687.616 7        46.909               
G20  26769589.255 7 140675110.141 7     -3013.511 7        45.769               
G21  27538210.679 6 144714224.030 6     -2887.606 6        41.881               
G22  27654969.269 7 145327775.183 7       962.328 7        43.656               
G23  25018471.750 6 131472931.808 6      2672.014 6        41.992               
G24  23684726.249 7 124464041.048 7      2577.271 7        43.862               
> 2025 07 30 06 06 55.0000000  0  9                                             
G05  24732997.811 7 129972772.260 7     -2165.304 7        47.866               
G13  24395429.167 7 128198810.858 7     -2608.355 7        45.336               
G15  22803972.543 7 119835675.756 7      -555.366 7        44.677               
G18  23996745.944 7 126103762.251 7       684.832 7        46.644               
G20  26770163.244 7 140678125.147 7     -3017.130 7        45.550               
G21  27538758.579 7 144717108.529 7     -2889.385 7        42.540               
G22  27654789.024 7 145326813.071 7       961.058 7        43.682               
G23  25017961.982 6 131470261.729 6      2667.726 6        41.524               
G24  23684233.672 7 124461458.319 7      2585.847 7        43.949               
> 2025 07 30 06 06 56.0000000  0  9                                             
G05  24733410.925 8 129974936.370 8     -2161.322 8        48.440               
G13  24395926.265 7 128201418.301 7     -2606.485 7        45.433               
G15  22804082.348 7 119836230.181 7      -555.837 7        44.640               
G18  23996619.324 7 126103078.458 7       681.909 7        47.136               
G20  26770736.303 7 140681140.353 7     -3016.897 7        45.396               
G21  27539303.602 7 144719993.152 7     -2885.572 7        42.981               
G22  27654600.828 7 145325851.383 7       963.866 7        43.068               
G23  25017454.091 7 131467591.765 7      2666.452 7        42.164               
G24  23683741.291 7 124458876.130 7      2577.527 7        43.844               
> 2025 07 30 06 06 57.0000000  0  9                                             
G05  24733821.895 8 129977100.755 8     -2166.311 8        48.611               
G13  24396420.665 7 128204025.852 7     -2606.807 7        45.414               
G15  22804184.398 7 119836784.900 7      -555.901 7        44.817               
G18  23996489.309 7 126102395.272 7       690.596 7        46.668               
G20  26771306.361 7 140684155.709 7     -3014.549 7        45.486               
G21  27539851.216 7 144722877.866 7     -2885.337 7        42.662               
G22  27654417.242 7 145324890.039 7       961.909 7        42.844               
G23  25016949.416 7 131464921.806 7      2670.591 7        42.188               
G24  23683250.804 7 124456294.407 7      2581.663 7        43.999               
> 2025 07 30 06 06 58.0000000  0  9                                             
G05  24734233.115 8 129979265.459 8     -2168.574 8        48.009               
G13  24396918.585 7 128206633.577 7     -2609.191 7        45.007               
G15  22804289.146 7 119837339.984 7      -556.390 7        44.931               
G18  23996358.722 7 126101712.762 7       683.673 7        46.253               
G20  26771882.512 7 140687171.280 7     -3018.987 7        44.778               
G21  27540402.993 7 144725762.729 7     -2885.723 7        42.933               
G22  27654238.122 7 145323929.119 7       963.142 7        43.285               
G23  25016438.648 6 131462251.995 6      2669.056 6        41.716               
G24  23682753.456 7 124453713.231 7      2584.043 7        43.842               
> 2025 07 30 06 06 59.0000000  0  9                                             
G05  24734645.978 7 129981430.454 7     -2168.017 7        47.954               
G13  24397419.007 7 128209241.419 7     -2608.809 7        45.837               
G15  22804392.965 7 119837895.358 7      -556.652 7        44.437               
G18  23996226.509 7 126101030.897 7       681.437 7        46.889               
G20  26772456.215 7 140690187.008 7     -3014.969 7        44.702               
G21  27540955.504 7 144728647.690 7     -2886.412 7        42.253               
G22  27654053.107 7 145322968.552 7       960.912 7        42.678               
G23  25015932.490 7 131459582.198 7      2673.921 7        42.180               
G24  23682261.986 7 124451132.514 7      2585.097 7        43.357               
> 2025 07 30 06 07 00.0000000  0  9                                             
G05  24735058.717 7 129983595.827 7     -2164.990 7        47.769               
G13  24397915.498 7 128211849.469 7     -2609.479 7        46.040               
G15  22804499.786 7 119838451.128 7      -553.477 7        44.556               
G18  23996098.853 7 126100349.741 7       677.042 7        46.749               
G20  26773030.918 7 140693202.994 7     -3016.343 7        44.934               
G21  27541503.832 7 144731532.833 7     -2885.881 7        42.227               
G22  27653868.770 7 145322008.478 7       964.864 7        42.352               
G23  25015418.952 6 131456912.582 6      2671.968 6        41.685               
G24  23681776.985 7 124448552.398 7      2582.681 7        43.493               
> 2025 07 30 06 07 01.0000000  0  9                                             
G05  24735470.098 7 129985761.530 7     -2166.050 7        47.938               
G13  24398412.185 7 128214457.684 7     -2610.059 7        46.307               
G15  22804606.554 7 119839007.251 7      -557.499 7        45.366               
G18  23995967.355 7 126099669.263 7       677.828 7        46.545               
G20  26773607.123 7 140696219.186 7     -3015.772 7        44.396               
G21  27542046.479 7 144734418.126 7     -2881.488 7        42.497               
G22  27653685.344 6 145321048.790 6       964.805 6        41.932               
G23  25014915.653 6 131454243.059 6      2666.945 6        41.826               
G24  23681285.104 7 124445972.805 7      2581.887 7        43.583               
> 2025 07 30 06 07 02.0000000  0  9                                             
G05  24735879.549 7 129987927.574 7     -2165.852 7        47.883               
G13  24398908.605 7 128217066.080 7     -2608.011 7        46.207               
G15  22804712.499 7 119839563.725 7      -558.897 7        45.071               
G18  23995837.197 7 126098989.468 7       681.531 7        47.008               
G20  26774176.751 7 140699235.591 7     -3016.646 7        44.434               
G21  27542596.398 7 144737303.562 7     -2889.908 7        42.559               
G22  27653507.530 7 145320089.547 7       957.909 7        42.467               
G23  25014405.100 7 131451573.641 7      2669.617 7        42.451               
G24  23680794.528 7 124443393.758 7      2584.689 7        43.435               
> 2025 07 30 06 07 03.0000000  0  9                                             
G05  24736292.466 8 129990093.970 8     -2166.448 8        48.064               
G13  24399407.454 7 128219674.667 7     -2608.798 7        46.124               
G15  22804820.446 7 119840120.570 7      -557.444 7        45.392               
G18  23995708.808 7 126098310.376 7       683.000 7        47.117               
G20  26774752.009 7 140702252.244 7     -3016.899 7        44.017               
G21  27543145.603 7 144740189.175 7     -2885.390 7        42.791               
G22  27653323.121 7 145319130.741 7       957.922 7        42.263               
G23  25013900.425 7 131448904.361 7      2668.079 7        42.139               
G24  23680308.455 7 124440815.264 7      2581.069 7        43.336               
