     3.02           OBSERVATION DATA    G                   RINEX VERSION / TYPE
G = GPS  R = GLONASS  E = GALILEO  S = GEO  M = MIXED       COMMENT             
GNSS-SDR            suhjw               20250805 101400 UTC PGM / RUN BY / DATE 
GPS OBSERVATION DATA FILE GENERATED BY GNSS-SDR             COMMENT             
GNSS-SDR VERSION 0.0.20                                     COMMENT             
See https://gnss-sdr.org                                    COMMENT             
DEFAULT MARKER NAME                                         MARKER NAME         
suhjw               CTTC                                    OBSERVER / AGENCY   
GNSS-SDR            Software Receiver   0.0.20              REC # / TYPE / VERS 
Antenna number      Antenna type                            ANT # / TYPE        
        0.0000        0.0000        0.0000                  APPROX POSITION XYZ 
        0.0000        0.0000        0.0000                  ANTENNA: DELTA H/E/N
G    4 C1C L1C D1C S1C                                      SYS / # / OBS TYPES 
DBHZ                                                        SIGNAL STRENGTH UNIT
  2025    08    05    10    14   18.1200000     GPS         TIME OF FIRST OBS   
                                                            END OF HEADER       
> 2025 08 05 10 14 19.0000000  0  6                                             
G32  24846885.279 8 130571280.828 8       862.637 8        48.406               
G12  26726388.301 7 140448113.372 7     -2658.588 7        43.011               
G23  28498138.363 7 149758732.731 7     -3874.720 7        45.816               
G25  24456341.038 7 128518964.193 7      -923.591 7        45.314               
G28  25635770.988 7 134716884.609 7      1189.233 7        43.233               
G29  28842373.743 7 151567691.537 7      2757.526 7        44.472               
> 2025 08 05 10 14 20.0000000  0  6                                             
G32  24846722.438 8 130570417.401 8       863.363 8        48.408               
G12  26726892.440 7 140450769.632 7     -2657.353 7        43.799               
G23  28498877.837 7 149762607.453 7     -3873.530 7        45.392               
G25  24456516.530 7 128519887.350 7      -923.648 7        45.915               
G28  25635544.176 7 134715694.955 7      1188.570 7        43.621               
G29  28841848.930 7 151564936.178 7      2757.226 7        44.256               
> 2025 08 05 10 14 21.0000000  0  6                                             
G32  24846556.399 8 130569554.377 8       862.183 8        48.043               
G12  26727395.238 7 140453426.325 7     -2655.659 7        43.550               
G23  28499612.396 7 149766482.196 7     -3875.501 7        46.321               
G25  24456686.125 7 128520811.178 7      -919.014 7        45.710               
G28  25635319.437 7 134714505.579 7      1188.410 7        44.024               
G29  28841322.437 7 151562180.879 7      2757.293 7        44.598               
> 2025 08 05 10 14 22.0000000  0  6                                             
G32  24846393.863 7 130568691.780 7       864.132 7        47.791               
G12  26727901.655 7 140456083.536 7     -2654.207 7        43.103               
G23  28500349.717 7 149770356.992 7     -3871.943 7        45.751               
G25  24456861.983 7 128521735.716 7      -925.615 7        45.062               
G28  25635090.884 7 134713316.498 7      1188.201 7        44.083               
G29  28840798.902 7 151559425.686 7      2756.202 7        44.695               
> 2025 08 05 10 14 23.0000000  0  6                                             
G32  24846231.487 7 130567829.589 7       861.184 7        47.924               
G12  26728409.234 7 140458741.194 7     -2659.143 7        43.587               
G23  28501087.297 7 149774231.801 7     -3877.092 7        45.446               
G25  24457035.286 7 128522660.930 7      -929.674 7        45.079               
G28  25634864.653 7 134712127.682 7      1187.455 7        44.029               
G29  28840273.937 7 151556670.556 7      2759.534 7        44.962               
> 2025 08 05 10 14 24.0000000  0  6                                             
G32  24846069.093 8 130566967.765 8       861.479 8        48.624               
G12  26728918.188 7 140461399.281 7     -2655.841 7        43.594               
G23  28501825.984 7 149778106.610 7     -3872.458 7        45.253               
G25  24457210.947 7 128523586.796 7      -920.842 7        44.516               
G28  25634641.067 7 134710939.108 7      1192.399 7        44.042               
G29  28839752.992 7 151553915.471 7      2757.153 7        45.496               
> 2025 08 05 10 14 25.0000000  0  6                                             
G32  24845907.620 8 130566106.322 8       860.939 8        48.450               
G12  26729424.668 7 140464057.821 7     -2656.471 7        43.729               
G23  28502559.838 7 149781981.426 7     -3875.416 7        45.603               
G25  24457389.405 7 128524513.314 7      -927.352 7        44.709               
G28  25634413.496 7 134709750.812 7      1188.384 7        44.343               
G29  28839228.277 7 151551160.439 7      2754.892 7        44.896               
> 2025 08 05 10 14 26.0000000  0  6                                             
G32  24845742.975 8 130565245.263 8       862.118 8        48.308               
G12  26729930.048 7 140466716.808 7     -2653.845 7        44.247               
G23  28503298.633 7 149785856.234 7     -3874.889 7        45.308               
G25  24457566.978 7 128525440.502 7      -927.935 7        45.202               
G28  25634190.017 7 134708562.742 7      1187.050 7        44.916               
G29  28838703.714 7 151548405.472 7      2753.629 7        45.403               
> 2025 08 05 10 14 27.0000000  0  6                                             
G32  24845577.883 8 130564384.640 8       858.835 8        48.539               
G12  26730440.754 7 140469376.288 7     -2656.785 7        43.857               
G23  28504039.733 7 149789731.094 7     -3876.151 7        45.641               
G25  24457747.322 7 128526368.390 7      -925.734 7        44.774               
G28  25633962.106 7 134707374.989 7      1188.348 7        44.173               
G29  28838181.867 7 151545650.600 7      2749.274 7        45.828               
> 2025 08 05 10 14 28.0000000  0  6                                             
G32  24845414.256 8 130563524.392 8       857.883 8        48.525               
G12  26730947.296 7 140472036.213 7     -2658.723 7        44.016               
G23  28504773.033 7 149793605.948 7     -3871.075 7        45.799               
G25  24457920.821 7 128527296.940 7      -922.398 7        45.104               
G28  25633737.520 7 134706187.479 7      1188.670 7        44.439               
G29  28837653.739 7 151542895.770 7      2755.136 7        45.871               
> 2025 08 05 10 14 29.0000000  0  6                                             
G32  24845248.467 8 130562664.549 8       862.305 8        48.232               
G12  26731449.854 7 140474696.596 7     -2664.586 7        43.954               
G23  28505513.293 7 149797480.849 7     -3878.803 7        46.090               
G25  24458099.654 7 128528226.173 7      -930.302 7        44.975               
G28  25633513.701 7 134705000.250 7      1188.125 7        43.948               
G29  28837132.786 7 151540141.008 7      2756.961 7        45.285               
> 2025 08 05 10 14 30.0000000  0  6                                             
G32  24845083.527 7 130561805.088 7       859.636 7        47.991               
G12  26731957.584 7 140477357.422 7     -2658.660 7        44.111               
G23  28506250.086 7 149801355.719 7     -3872.830 7        45.780               
G25  24458272.465 7 128529156.062 7      -929.406 7        45.623               
G28  25633286.496 7 134703813.254 7      1190.715 7        45.151               
G29  28836608.768 7 151537386.291 7      2757.999 7        45.779               
> 2025 08 05 10 14 31.0000000  0  6                                             
G32  24844922.116 7 130560945.999 7       859.360 7        47.773               
G12  26732461.919 7 140480018.698 7     -2660.126 7        43.218               
G23  28506985.995 7 149805230.605 7     -3872.737 7        45.489               
G25  24458449.592 7 128530086.593 7      -930.399 7        45.373               
G28  25633060.909 7 134702626.523 7      1188.169 7        45.373               
G29  28836084.339 7 151534631.632 7      2752.343 7        46.002               
> 2025 08 05 10 14 32.0000000  0  6                                             
G32  24844757.668 8 130560087.319 8       859.891 8        48.195               
G12  26732970.445 7 140482680.426 7     -2661.787 7        43.407               
G23  28507724.656 7 149809105.504 7     -3878.292 7        45.209               
G25  24458626.924 7 128531017.839 7      -931.901 7        45.203               
G28  25632835.429 7 134701440.062 7      1185.554 7        45.534               
G29  28835559.570 7 151531877.032 7      2754.640 7        45.908               
> 2025 08 05 10 14 33.0000000  0  6                                             
G32  24844595.935 8 130559228.974 8       858.437 8        48.699               
G12  26733474.450 7 140485342.563 7     -2659.042 7        43.946               
G23  28508461.146 7 149812980.374 7     -3872.122 7        45.304               
G25  24458804.015 7 128531949.703 7      -934.557 7        44.941               
G28  25632612.271 7 134700253.821 7      1187.497 7        45.265               
G29  28835034.266 7 151529122.453 7      2752.206 7        46.056               
> 2025 08 05 10 14 34.0000000  0  6                                             
G32  24844433.720 8 130558371.003 8       857.658 8        48.407               
G12  26733983.288 7 140488005.125 7     -2664.400 7        43.608               
G23  28509197.912 7 149816855.224 7     -3873.929 7        45.763               
G25  24458982.902 7 128532882.196 7      -934.371 7        45.201               
G28  25632381.189 7 134699067.804 7      1184.696 7        45.634               
G29  28834512.821 7 151526367.898 7      2754.815 7        45.706               
